latitude,longitude,altitude(feet),ascent(feet),speed(mph),distance(feet),time(millisecond),datetime(utc),satellites,voltage(v),max_altitude(feet),max_ascent(feet),max_speed(mph),max_distance(feet),compass_heading(degrees),isPhoto,isVideo,rc_elevator,rc_aileron,rc_throttle,rc_rudder,gimbal_heading(degrees),gimbal_pitch(degrees),battery_percent,voltageCell1,voltageCell2,voltageCell3,voltageCell4,voltageCell5,voltageCell6,flycStateRaw,flycState
37.61332188,-119.0210378,8983.88188,0,0,0,119200,2017/07/27 18:36:54,10,0,8983.88188,0,0,0,172.9,0,0,364,1684,364,364,0,0,72,4.047,4.046,4.05,4.053,4.059,4.046,6,GPS_Atti
37.61332187,-119.0210378,8983.88188,0,0,0.002890929,119300,2017/07/27 18:36:54,10,0,8983.88188,0,0,0.002890929,172.9,0,0,364,1684,364,364,0,0,72,4.047,4.046,4.05,4.053,4.059,4.046,6,GPS_Atti
37.61332187,-119.0210378,8983.88188,0,0,0.005467585,119400,2017/07/27 18:36:55,10,0,8983.88188,0,0,0.005467585,172.9,0,0,364,1684,364,364,0,0,72,4.047,4.046,4.05,4.053,4.059,4.046,6,GPS_Atti
37.61332187,-119.0210378,8983.88188,0,0,0.005467585,119400,2017/07/27 18:36:55,10,0,8983.88188,0,0,0.005467585,172.9,0,0,364,1684,364,364,0,0,72,4.047,4.046,4.05,4.053,4.059,4.046,6,GPS_Atti
37.61332185,-119.0210378,8983.88188,0,0,0.014791077,119600,2017/07/27 18:36:55,10,0,8983.88188,0,0,0.014791077,172.9,0,0,364,1684,364,364,0,0,72,4.047,4.046,4.05,4.053,4.059,4.046,6,GPS_Atti
37.61332185,-119.0210378,8983.88188,0,0,0.023113124,119700,2017/07/27 18:36:55,10,0,8983.88188,0,0,0.023113124,172.9,0,0,364,1684,364,364,0,0,72,4.047,4.046,4.05,4.053,4.059,4.046,6,GPS_Atti
37.61332184,-119.0210377,8983.88188,0,0,0.03316962,119800,2017/07/27 18:36:55,10,0,8983.88188,0,0,0.03316962,172.9,0,0,364,1684,364,364,0,0,72,4.047,4.046,4.05,4.053,4.059,4.046,6,GPS_Atti
37.61332184,-119.0210377,8983.88188,0,0,0.045608597,119900,2017/07/27 18:36:55,10,0,8983.88188,0,0,0.045608597,172.9,0,0,364,1684,364,364,0,0,72,4.047,4.046,4.05,4.053,4.059,4.046,6,GPS_Atti
37.61332183,-119.0210376,8983.88188,0,0,0.060183729,120000,2017/07/27 18:36:55,10,0,8983.88188,0,0,0.060183729,172.9,0,0,364,1684,364,364,0,0,72,4.047,4.046,4.05,4.053,4.059,4.046,6,GPS_Atti
37.61332183,-119.0210376,8983.88188,0,0,0.074758204,120100,2017/07/27 18:36:55,10,24.3,8983.88188,0,0,0.074758204,172.9,0,0,364,1649,364,364,0,0,72,4.047,4.046,4.05,4.053,4.059,4.046,6,GPS_Atti
37.61332182,-119.0210375,8983.88188,0,0,0.088273953,120200,2017/07/27 18:36:55,10,24.3,8983.88188,0,0,0.088273953,172.9,0,0,672,1232,661,726,0,0,72,4.047,4.046,4.05,4.053,4.059,4.046,6,GPS_Atti
37.61332181,-119.0210375,8983.88188,0,0,0.103169623,120300,2017/07/27 18:36:55,10,24.3,8983.88188,0,0,0.103169623,172.9,0,0,1024,1024,1024,1024,0,0,72,4.047,4.046,4.05,4.053,4.059,4.046,6,GPS_Atti
37.61332181,-119.0210374,8983.88188,0,0,0.119087274,120400,2017/07/27 18:36:56,10,24.3,8983.88188,0,0,0.119087274,172.9,0,0,1024,1024,1024,1024,0,0,72,4.047,4.046,4.05,4.053,4.059,4.046,6,GPS_Atti
37.61332181,-119.0210374,8983.88188,0,0,0.136342524,120500,2017/07/27 18:36:56,10,24.3,8983.88188,0,0,0.136342524,172.9,0,0,1024,1024,1024,1024,0,0,72,4.047,4.046,4.05,4.053,4.059,4.046,6,GPS_Atti
37.6133218,-119.0210373,8983.88188,0,0,0.154660766,120600,2017/07/27 18:36:56,10,24.3,8983.88188,0,0,0.154660766,172.9,0,0,1024,1024,1024,1024,0,0,72,4.047,4.046,4.05,4.053,4.059,4.046,6,GPS_Atti
37.6133218,-119.0210372,8983.88188,0,0,0.171163063,120700,2017/07/27 18:36:56,10,24.3,8983.88188,0,0,0.171163063,172.9,0,0,1024,1024,1024,1024,0,0,72,4.047,4.046,4.05,4.053,4.059,4.046,6,GPS_Atti
37.6133218,-119.0210372,8983.88188,0,0,0.186807421,120800,2017/07/27 18:36:56,10,24.3,8983.88188,0,0,0.186807421,172.9,0,0,1024,1024,1024,1024,0,0,72,4.047,4.046,4.05,4.053,4.059,4.046,6,GPS_Atti
37.6133218,-119.0210371,8983.88188,0,0,0.202666673,120900,2017/07/27 18:36:56,10,24.3,8983.88188,0,0,0.202666673,172.9,0,0,1024,1024,1024,1024,0,0,72,4.047,4.046,4.05,4.053,4.059,4.046,6,GPS_Atti
37.61332179,-119.0210371,8983.88188,0,0,0.220085309,121000,2017/07/27 18:36:56,10,24.3,8983.88188,0,0,0.220085309,172.9,0,0,1024,1024,1024,1024,0,0,72,4.047,4.046,4.05,4.053,4.059,4.046,6,GPS_Atti
37.61332178,-119.021037,8983.88188,0,0,0.237500008,121100,2017/07/27 18:36:56,10,24.3,8983.88188,0,0,0.237500008,172.9,0,0,1024,1024,1024,1024,0,0,72,4.047,4.046,4.05,4.053,4.06,4.046,6,GPS_Atti
37.61332175,-119.0210369,8983.88188,0,0,0.268610573,121300,2017/07/27 18:36:56,10,24.3,8983.88188,0,0,0.268610573,172.9,0,0,1024,1024,1024,1024,0,0,72,4.047,4.046,4.05,4.053,4.06,4.046,10,Assisted_Takeoff
37.61332172,-119.0210368,8983.88188,0,0,0.293386492,121500,2017/07/27 18:36:57,10,24.3,8983.88188,0,0,0.293386492,172.9,0,0,1024,1024,1024,1024,0,0,72,4.047,4.046,4.05,4.053,4.06,4.046,10,Assisted_Takeoff
37.61332171,-119.0210368,8983.88188,0,0,0.302225731,121600,2017/07/27 18:36:57,10,24.3,8983.88188,0,0,0.302225731,172.9,0,0,1024,1024,1024,1024,0,0,72,4.047,4.046,4.05,4.053,4.06,4.046,10,Assisted_Takeoff
37.6133217,-119.0210368,8983.88188,0,0,0.309215889,121700,2017/07/27 18:36:57,10,24.3,8983.88188,0,0,0.309215889,172.9,0,0,1024,1024,1024,1024,0,0,72,4.047,4.046,4.05,4.053,4.06,4.046,10,Assisted_Takeoff
37.6133217,-119.0210368,8983.88188,0,0,0.313134853,121800,2017/07/27 18:36:57,10,24.3,8983.88188,0,0,0.313134853,172.9,0,0,1024,1024,1024,1024,0,0,72,4.047,4.046,4.05,4.053,4.06,4.046,10,Assisted_Takeoff
37.6133217,-119.0210367,8983.88188,0,0,0.319308081,121900,2017/07/27 18:36:57,10,24.3,8983.88188,0,0,0.319308081,172.9,0,0,1024,1024,1024,1024,0,0,72,4.047,4.046,4.05,4.053,4.06,4.046,10,Assisted_Takeoff
37.61332169,-119.021037,8983.88188,0,0,0.24797737,122000,2017/07/27 18:36:57,10,24.3,8983.88188,0,0,0.319308081,172.9,0,0,1024,1024,1024,1024,0,0,72,4.047,4.046,4.05,4.053,4.06,4.046,10,Assisted_Takeoff
37.61332169,-119.0210371,8983.88188,0,0,0.216941936,122100,2017/07/27 18:36:57,10,24.3,8983.88188,0,0,0.319308081,172.9,0,0,1024,1024,1024,1024,0,0,72,4.047,4.046,4.05,4.053,4.06,4.046,10,Assisted_Takeoff
37.61332168,-119.0210372,8983.88188,0,0,0.206939639,122200,2017/07/27 18:36:57,10,24.3,8983.88188,0,0,0.319308081,172.9,0,0,1024,1024,1024,1024,0,0,72,4.047,4.046,4.05,4.053,4.06,4.046,10,Assisted_Takeoff
37.61332168,-119.0210372,8983.88188,0,0,0.202490164,122300,2017/07/27 18:36:57,10,24.19,8983.88188,0,0,0.319308081,172.9,0,0,1024,1024,1024,1024,0,0,72,4.043,4.043,4.035,4.033,4.053,3.938,10,Assisted_Takeoff
37.61332167,-119.0210372,8983.88188,0,0,0.201755912,122400,2017/07/27 18:36:57,10,24.19,8983.88188,0,0,0.319308081,172.9,0,0,1024,1024,1044,1024,0,0,72,4.043,4.043,4.035,4.033,4.053,3.938,10,Assisted_Takeoff
37.61332166,-119.0210372,8983.88188,0,0,0.202581043,122500,2017/07/27 18:36:58,10,24.19,8983.88188,0,0,0.319308081,172.9,0,0,1024,1024,1091,1024,0,0,72,4.043,4.043,4.035,4.033,4.053,3.938,10,Assisted_Takeoff
37.61332166,-119.0210372,8983.88188,0,0,0.205194888,122600,2017/07/27 18:36:58,10,24.19,8983.88188,0,0,0.319308081,172.9,0,0,1024,1024,1095,1024,0,0,72,4.043,4.043,4.035,4.033,4.053,3.938,10,Assisted_Takeoff
37.61332165,-119.0210372,8983.88188,0,0,0.208091214,122700,2017/07/27 18:36:58,10,24.19,8983.88188,0,0,0.319308081,172.9,0,0,1024,1024,1093,1024,0,0,72,4.043,4.043,4.035,4.033,4.053,3.938,10,Assisted_Takeoff
37.61332164,-119.0210372,8983.88188,0,0,0.210933406,122800,2017/07/27 18:36:58,10,24.19,8983.88188,0,0,0.319308081,172.9,0,0,1031,1024,1113,1024,0,0,72,4.043,4.043,4.035,4.033,4.053,3.938,10,Assisted_Takeoff
37.61332163,-119.0210372,8983.88188,0,0,0.213982946,122900,2017/07/27 18:36:58,10,24.19,8983.88188,0,0,0.319308081,172.9,0,0,1030,1024,1113,1024,0,0,72,4.043,4.043,4.035,4.033,4.053,3.938,10,Assisted_Takeoff
37.61332162,-119.0210371,8983.88188,0,0,0.2172838,123000,2017/07/27 18:36:58,10,24.19,8983.88188,0,0,0.319308081,172.9,0,0,1027,1024,1116,1024,0,0,72,4.043,4.043,4.035,4.033,4.053,3.938,10,Assisted_Takeoff
37.61332162,-119.0210371,8983.88188,0,0,0.220656503,123100,2017/07/27 18:36:58,10,24.19,8983.88188,0,0,0.319308081,172.9,0,0,1024,1024,1118,1024,0,0,72,4.043,4.043,4.035,4.033,4.053,3.938,10,Assisted_Takeoff
37.61332161,-119.0210371,8983.88188,0,0,0.226473432,123200,2017/07/27 18:36:58,10,24.19,8983.88188,0,0,0.319308081,172.8,0,0,1024,1024,1119,1024,0,0,72,4.043,4.043,4.035,4.033,4.053,3.938,10,Assisted_Takeoff
37.6133216,-119.0210371,8983.88188,0,0,0.235022973,123300,2017/07/27 18:36:58,10,24.198,8983.88188,0,0,0.319308081,172.8,0,0,1024,1024,1122,1024,0,0,72,4.019,4.037,4.043,4.044,4.041,4.028,10,Assisted_Takeoff
37.6133216,-119.0210371,8983.88188,0,0,0.245013131,123400,2017/07/27 18:36:58,10,24.198,8983.88188,0,0,0.319308081,172.8,0,0,1024,1024,1142,1024,0,0,72,4.019,4.037,4.043,4.044,4.041,4.028,10,Assisted_Takeoff
37.61332159,-119.021037,8983.88188,0,0,0.257903552,123500,2017/07/27 18:36:59,10,24.198,8983.88188,0,0,0.319308081,172.8,0,0,1024,1024,1151,1024,0,0,72,4.019,4.037,4.043,4.044,4.041,4.028,10,Assisted_Takeoff
37.61332158,-119.0210369,8983.88188,0,0,0.275800206,123600,2017/07/27 18:36:59,10,24.198,8983.88188,0,0,0.319308081,172.8,0,0,1024,1024,1148,1024,0,0,72,4.019,4.037,4.043,4.044,4.041,4.028,10,Assisted_Takeoff
37.61332156,-119.0210369,8983.88188,0,0,0.295998697,123700,2017/07/27 18:36:59,10,24.198,8983.88188,0,0,0.319308081,172.8,0,0,1024,1024,1155,1024,0,0,72,4.019,4.037,4.043,4.044,4.041,4.028,10,Assisted_Takeoff
37.61332154,-119.0210368,8983.88188,0,0,0.315627963,123800,2017/07/27 18:36:59,10,24.198,8983.88188,0,0,0.319308081,172.8,0,0,1024,1024,1164,1024,0,0,72,4.019,4.037,4.043,4.044,4.041,4.028,10,Assisted_Takeoff
37.61332152,-119.0210368,8983.88188,0,0,0.33413715,123900,2017/07/27 18:36:59,10,24.198,8983.88188,0,0,0.33413715,172.8,0,0,1024,1024,1170,1024,0,0,72,4.019,4.037,4.043,4.044,4.041,4.028,10,Assisted_Takeoff
37.6133215,-119.0210367,8983.88188,0,0,0.349596468,124000,2017/07/27 18:36:59,10,24.198,8983.88188,0,0,0.349596468,172.8,0,0,1024,1024,1182,1024,0,0,72,4.019,4.037,4.043,4.044,4.041,4.028,10,Assisted_Takeoff
37.61332149,-119.0210366,8983.88188,0,0,0.368566285,124100,2017/07/27 18:36:59,10,24.198,8983.88188,0,0,0.368566285,172.7,0,0,1024,1024,1198,1024,0,0,72,4.019,4.037,4.043,4.044,4.041,4.028,10,Assisted_Takeoff
37.61332147,-119.0210365,8983.88188,0,0.223694,0.399242139,124200,2017/07/27 18:36:59,10,24.198,8983.88188,0,0.223694,0.399242139,172.6,0,0,1024,1024,1204,1024,0,0,72,4.019,4.037,4.043,4.044,4.041,4.028,10,Assisted_Takeoff
37.61332144,-119.0210364,8983.88188,0,0.223694,0.44502298,124300,2017/07/27 18:36:59,10,24.142,8983.88188,0,0.223694,0.44502298,172.6,0,0,1024,1024,1203,1024,0,0,72,4.018,4.017,4.024,4.028,4.016,4.009,10,Assisted_Takeoff
37.6133214,-119.0210362,8983.88188,0,0.447388,0.509632562,124400,2017/07/27 18:36:59,10,24.142,8983.88188,0,0.447388,0.509632562,172.6,0,0,1024,1024,1203,1028,0,0,72,4.018,4.017,4.024,4.028,4.016,4.009,10,Assisted_Takeoff
37.61332138,-119.0210358,8983.88188,0,0.671082,0.598136502,124500,2017/07/27 18:37:00,10,24.142,8983.88188,0,0.671082,0.598136502,172.8,0,0,1024,1024,1204,1030,0,0,72,4.018,4.017,4.024,4.028,4.016,4.009,6,GPS_Atti
37.61332138,-119.0210354,8983.88188,0,0.894776,0.719340574,124600,2017/07/27 18:37:00,10,24.142,8983.88188,0,0.894776,0.719340574,172.9,0,0,1024,1071,1200,1030,0,0,72,4.018,4.017,4.024,4.028,4.016,4.009,6,GPS_Atti
37.61332138,-119.0210349,8983.88188,0,0.894776,0.85946197,124700,2017/07/27 18:37:00,10,24.142,8983.88188,0,0.894776,0.85946197,173,0,0,1024,1093,1198,1029,0,0,72,4.018,4.017,4.024,4.028,4.016,4.009,6,GPS_Atti
37.61332136,-119.0210344,8984.209964,0.328084,0.894776,1.004553838,124800,2017/07/27 18:37:00,10,24.142,8984.209964,0.328084,0.894776,1.004553838,172.9,0,0,1024,1086,1194,1028,0,0,72,4.018,4.017,4.024,4.028,4.016,4.009,6,GPS_Atti
37.61332133,-119.0210339,8984.209964,0.328084,0.894776,1.152496756,124900,2017/07/27 18:37:00,10,24.142,8984.209964,0.328084,0.894776,1.152496756,172.7,0,0,1024,1055,1195,1026,0,0,72,4.018,4.017,4.024,4.028,4.016,4.009,6,GPS_Atti
37.61332126,-119.0210334,8984.538048,0.656168,0.894776,1.296131931,125000,2017/07/27 18:37:00,10,24.142,8984.538048,0.656168,0.894776,1.296131931,172.5,0,0,1024,1065,1195,1028,0,0,72,4.018,4.017,4.024,4.028,4.016,4.009,6,GPS_Atti
37.61332115,-119.021033,8984.538048,0.656168,0.671082,1.412687053,125100,2017/07/27 18:37:00,9,24.142,8984.538048,0.656168,0.894776,1.412687053,172.4,0,0,1024,1024,1201,1029,0,0,72,4.018,4.017,4.024,4.028,4.016,4.009,6,GPS_Atti
37.613321,-119.0210328,8984.866132,0.984252,0.7158208,1.489783512,125200,2017/07/27 18:37:00,9,24.142,8984.866132,0.984252,0.894776,1.489783512,172.4,0,0,1024,1024,1204,1024,0,0,72,4.018,4.017,4.024,4.028,4.016,4.009,6,GPS_Atti
37.61332083,-119.0210325,8984.866132,0.984252,0.4921268,1.571860287,125300,2017/07/27 18:37:00,9,23.773,8984.866132,0.984252,0.894776,1.571860287,172.5,0,0,1024,1045,1204,1024,0,0,72,3.951,3.951,3.936,3.938,3.945,3.934,6,GPS_Atti
37.61332066,-119.0210322,8985.194216,1.312336,0.4921268,1.681164752,125400,2017/07/27 18:37:01,9,23.773,8985.194216,1.312336,0.894776,1.681164752,172.6,0,0,1024,1059,1205,1024,0,0,72,3.951,3.951,3.936,3.938,3.945,3.934,6,GPS_Atti
37.61332047,-119.0210319,8985.194216,1.312336,0.4921268,1.785488902,125500,2017/07/27 18:37:01,9,23.773,8985.194216,1.312336,0.894776,1.785488902,172.8,0,0,1024,1073,1210,1024,0,0,72,3.951,3.951,3.936,3.938,3.945,3.934,6,GPS_Atti
37.61332028,-119.0210317,8985.194216,1.312336,0.4921268,1.875026307,125600,2017/07/27 18:37:01,9,23.773,8985.194216,1.312336,0.894776,1.875026307,172.9,0,0,1024,1090,1209,1024,0,0,72,3.951,3.951,3.936,3.938,3.945,3.934,6,GPS_Atti
37.61332009,-119.0210314,8985.5223,1.64042,0.4921268,1.960449538,125700,2017/07/27 18:37:01,9,23.773,8985.5223,1.64042,0.894776,1.960449538,173,0,0,1024,1087,1207,1024,0,0,72,3.951,3.951,3.936,3.938,3.945,3.934,6,GPS_Atti
37.6133199,-119.0210312,8985.5223,1.64042,0.4921268,2.037726443,125800,2017/07/27 18:37:01,9,23.773,8985.5223,1.64042,0.894776,2.037726443,173,0,0,1024,1072,1205,1024,0,0,72,3.951,3.951,3.936,3.938,3.945,3.934,6,GPS_Atti
37.61331969,-119.0210311,8985.850384,1.968504,0.4921268,2.099714634,125900,2017/07/27 18:37:01,9,23.773,8985.850384,1.968504,0.894776,2.099714634,173,0,0,1024,1070,1205,1024,0,0,72,3.951,3.951,3.936,3.938,3.945,3.934,6,GPS_Atti
37.61331944,-119.0210311,8986.178468,2.296588,0.447388,2.147864242,126000,2017/07/27 18:37:01,9,23.773,8986.178468,2.296588,0.894776,2.147864242,173,0,0,1024,1070,1205,1024,0,0,72,3.951,3.951,3.936,3.938,3.945,3.934,6,GPS_Atti
37.61331899,-119.0210312,8986.506552,2.624672,0.447388,2.196450202,126200,2017/07/27 18:37:01,9,23.773,8986.506552,2.624672,0.894776,2.196450202,173.1,0,0,1024,1076,1206,1024,0,0,72,3.951,3.951,3.936,3.938,3.945,3.934,6,GPS_Atti
37.61331878,-119.0210312,8986.506552,2.624672,0.447388,2.219114244,126300,2017/07/27 18:37:01,9,23.773,8986.506552,2.624672,0.894776,2.219114244,173.2,0,0,1024,1089,1205,1024,0,0,72,3.951,3.951,3.936,3.938,3.945,3.934,6,GPS_Atti
37.61331857,-119.0210312,8986.834636,2.952756,0.447388,2.25499023,126400,2017/07/27 18:37:01,9,22.939,8986.834636,2.952756,0.894776,2.25499023,173.3,0,0,1024,1086,1204,1024,0,0,72,3.761,3.776,3.826,3.826,3.819,3.799,6,GPS_Atti
37.61331834,-119.0210313,8986.834636,2.952756,0.447388,2.278297317,126500,2017/07/27 18:37:02,9,22.939,8986.834636,2.952756,0.894776,2.278297317,173.4,0,0,1024,1070,1203,1024,0,0,72,3.761,3.776,3.826,3.826,3.819,3.799,6,GPS_Atti
37.6133181,-119.0210315,8987.16272,3.28084,0.447388,2.284701517,126600,2017/07/27 18:37:02,9,22.939,8987.16272,3.28084,0.894776,2.284701517,173.5,0,0,1024,1070,1203,1024,0,0,72,3.761,3.776,3.826,3.826,3.819,3.799,6,GPS_Atti
37.61331785,-119.0210317,8987.490804,3.608924,0.7158208,2.295111622,126700,2017/07/27 18:37:02,9,22.939,8987.490804,3.608924,0.894776,2.295111622,173.5,0,0,1024,1066,1200,1024,0,0,72,3.761,3.776,3.826,3.826,3.819,3.799,6,GPS_Atti
37.61331761,-119.0210319,8987.818888,3.937008,0.7158208,2.313507292,126800,2017/07/27 18:37:02,9,22.939,8987.818888,3.937008,0.894776,2.313507292,173.4,0,0,1024,1062,1202,1024,0,0,72,3.761,3.776,3.826,3.826,3.819,3.799,6,GPS_Atti
37.61331734,-119.0210321,8987.818888,3.937008,0.7158208,2.337270416,126900,2017/07/27 18:37:02,9,22.939,8987.818888,3.937008,0.894776,2.337270416,173.1,0,0,1024,1049,1204,1024,0,0,72,3.761,3.776,3.826,3.826,3.819,3.799,6,GPS_Atti
37.61331701,-119.0210324,8988.146972,4.265092,0.7158208,2.373704144,127000,2017/07/27 18:37:02,9,22.939,8988.146972,4.265092,0.894776,2.373704144,172.7,0,0,1024,1024,1204,1024,0,0,72,3.761,3.776,3.826,3.826,3.819,3.799,6,GPS_Atti
37.6133167,-119.0210326,8988.146972,4.265092,0.7158208,2.412805195,127100,2017/07/27 18:37:02,10,22.939,8988.146972,4.265092,0.894776,2.412805195,172.4,0,0,1024,1024,1203,1024,0,0,72,3.761,3.776,3.826,3.826,3.819,3.799,6,GPS_Atti
37.61331642,-119.0210329,8988.475056,4.593176,0.7158208,2.449471863,127200,2017/07/27 18:37:02,10,22.939,8988.475056,4.593176,0.894776,2.449471863,172.1,0,0,1024,1024,1189,1024,0,0,72,3.761,3.776,3.826,3.826,3.819,3.799,6,GPS_Atti
37.61331612,-119.0210331,8988.80314,4.92126,0.7158208,2.504547324,127300,2017/07/27 18:37:02,10,22.939,8988.80314,4.92126,0.894776,2.504547324,172.1,0,0,1059,1024,1118,1024,0,0,72,3.761,3.776,3.826,3.826,3.819,3.799,6,GPS_Atti
37.61331581,-119.0210332,8988.80314,4.92126,0.671082,2.580948245,127400,2017/07/27 18:37:02,10,22.635,8988.80314,4.92126,0.894776,2.580948245,172.1,0,0,1135,1024,1085,1024,0,0,71,3.758,3.78,3.775,3.774,3.782,3.755,6,GPS_Atti
37.61331553,-119.0210334,8989.131224,5.249344,0.671082,2.648031581,127500,2017/07/27 18:37:03,10,22.635,8989.131224,5.249344,0.894776,2.648031581,172,0,0,1135,1024,1085,1024,0,0,71,3.758,3.78,3.775,3.774,3.782,3.755,6,GPS_Atti
37.61331528,-119.0210336,8989.131224,5.249344,0.671082,2.699012554,127600,2017/07/27 18:37:03,10,22.635,8989.131224,5.249344,0.894776,2.699012554,171.9,0,0,1199,1032,1114,1024,0,0,71,3.758,3.78,3.775,3.774,3.782,3.755,6,GPS_Atti
37.61331497,-119.0210338,8989.131224,5.249344,0.894776,2.777145758,127700,2017/07/27 18:37:03,10,22.635,8989.131224,5.249344,0.894776,2.777145758,171.7,0,0,1199,1032,1114,1024,0,0,71,3.758,3.78,3.775,3.774,3.782,3.755,6,GPS_Atti
37.6133145,-119.021034,8989.459308,5.577428,1.11847,2.912585395,127800,2017/07/27 18:37:03,10,22.635,8989.459308,5.577428,1.11847,2.912585395,171.6,0,0,1170,1039,1118,1024,0,0,71,3.758,3.78,3.775,3.774,3.782,3.755,6,GPS_Atti
37.61331382,-119.0210341,8989.459308,5.577428,1.565858,3.127546032,127900,2017/07/27 18:37:03,9,22.635,8989.459308,5.577428,1.565858,3.127546032,171.6,0,0,1129,1024,1134,1024,0,0,71,3.758,3.78,3.775,3.774,3.782,3.755,6,GPS_Atti
37.61331291,-119.0210342,8989.787392,5.905512,2.013246,3.432644467,128000,2017/07/27 18:37:03,9,22.635,8989.787392,5.905512,2.013246,3.432644467,171.7,0,0,1024,1024,1154,1024,0,0,71,3.758,3.78,3.775,3.774,3.782,3.755,6,GPS_Atti
37.61331189,-119.0210343,8990.115476,6.233596,2.23694,3.781824268,128100,2017/07/27 18:37:03,9,22.635,8990.115476,6.233596,2.23694,3.781824268,171.8,0,0,1024,1024,1167,1024,0,0,71,3.758,3.78,3.775,3.774,3.782,3.755,6,GPS_Atti
37.61331086,-119.0210344,8990.44356,6.56168,2.23694,4.1381563,128200,2017/07/27 18:37:03,9,22.635,8990.44356,6.56168,2.23694,4.1381563,172.1,0,0,1024,1024,1167,1024,0,0,71,3.758,3.78,3.775,3.774,3.782,3.755,6,GPS_Atti
37.61330988,-119.0210346,8990.44356,6.56168,2.013246,4.473786232,128300,2017/07/27 18:37:03,9,22.635,8990.44356,6.56168,2.23694,4.473786232,172.4,0,0,1032,1024,1161,1024,0,0,71,3.758,3.78,3.775,3.774,3.782,3.755,6,GPS_Atti
37.61330903,-119.0210348,8990.771644,6.889764,1.789552,4.764895166,128400,2017/07/27 18:37:03,9,22.696,8990.771644,6.889764,2.23694,4.764895166,172.8,0,0,1043,1024,1167,1024,0,0,71,3.77,3.79,3.774,3.777,3.809,3.762,6,GPS_Atti
37.6133083,-119.0210351,8991.099728,7.217848,1.565858,5.018930607,128500,2017/07/27 18:37:04,9,22.696,8991.099728,7.217848,2.23694,5.018930607,173,0,0,1049,1024,1173,1024,0,0,71,3.77,3.79,3.774,3.777,3.809,3.762,6,GPS_Atti
37.61330767,-119.0210353,8991.099728,7.217848,1.342164,5.235302005,128600,2017/07/27 18:37:04,9,22.696,8991.099728,7.217848,2.23694,5.235302005,173.1,0,0,1058,1024,1174,1024,0,0,71,3.77,3.79,3.774,3.777,3.809,3.762,6,GPS_Atti
37.61330709,-119.0210356,8991.427812,7.545932,1.342164,5.435826946,128700,2017/07/27 18:37:04,9,22.696,8991.427812,7.545932,2.23694,5.435826946,173.1,0,0,1096,1024,1174,1024,0,0,71,3.77,3.79,3.774,3.777,3.809,3.762,6,GPS_Atti
37.61330652,-119.0210358,8991.427812,7.545932,1.11847,5.633169472,128800,2017/07/27 18:37:04,9,22.696,8991.427812,7.545932,2.23694,5.633169472,173.1,0,0,1116,1024,1169,1024,0,0,71,3.77,3.79,3.774,3.777,3.809,3.762,6,GPS_Atti
37.61330596,-119.021036,8991.755896,7.874016,1.342164,5.831955567,128900,2017/07/27 18:37:04,9,22.696,8991.755896,7.874016,2.23694,5.831955567,173.1,0,0,1129,1024,1169,1024,0,0,71,3.77,3.79,3.774,3.777,3.809,3.762,6,GPS_Atti
37.61330536,-119.0210362,8991.755896,7.874016,1.342164,6.045603868,129000,2017/07/27 18:37:04,9,22.696,8991.755896,7.874016,2.23694,6.045603868,173,0,0,1128,1024,1169,1024,0,0,71,3.77,3.79,3.774,3.777,3.809,3.762,6,GPS_Atti
37.6133046,-119.0210363,8991.755896,7.874016,1.565858,6.319389966,129100,2017/07/27 18:37:04,9,22.696,8991.755896,7.874016,2.23694,6.319389966,172.9,0,0,1120,1043,1169,1024,0,0,71,3.77,3.79,3.774,3.777,3.809,3.762,6,GPS_Atti
37.6133046,-119.0210363,8991.755896,7.874016,1.565858,6.319389966,129100,2017/07/27 18:37:04,9,22.696,8991.755896,7.874016,2.23694,6.319389966,172.9,0,0,1104,1087,1165,1024,0,0,71,3.77,3.79,3.774,3.777,3.809,3.762,6,GPS_Atti
37.6133036,-119.0210364,8991.755896,7.874016,2.013246,6.680971342,129200,2017/07/27 18:37:04,9,22.696,8991.755896,7.874016,2.23694,6.680971342,172.8,0,0,1090,1133,1158,1024,0,0,71,3.77,3.79,3.774,3.777,3.809,3.762,6,GPS_Atti
37.6133025,-119.0210366,8991.755896,7.874016,2.460634,7.077559282,129300,2017/07/27 18:37:04,9,22.574,8991.755896,7.874016,2.460634,7.077559282,172.7,0,0,1050,1131,1144,1024,0,0,71,3.77,3.79,3.774,3.777,3.809,3.762,6,GPS_Atti
37.61330013,-119.0210371,8992.08398,8.2021,2.460634,7.939206291,129500,2017/07/27 18:37:05,10,22.574,8992.08398,8.2021,2.460634,7.939206291,172.8,0,0,1024,1024,1119,1024,0,0,71,3.77,3.79,3.774,3.777,3.809,3.762,6,GPS_Atti
37.61330013,-119.0210371,8992.08398,8.2021,2.460634,7.939206291,129500,2017/07/27 18:37:05,10,22.574,8992.08398,8.2021,2.460634,7.939206291,172.8,0,0,1024,1024,1059,1024,0,0,71,3.77,3.79,3.774,3.777,3.809,3.762,6,GPS_Atti
37.61329888,-119.0210375,8992.08398,8.2021,2.5053728,8.390682683,129600,2017/07/27 18:37:05,10,22.574,8992.08398,8.2021,2.5053728,8.390682683,172.9,0,0,1024,1024,1024,1024,0,0,71,3.77,3.79,3.774,3.777,3.809,3.762,6,GPS_Atti
37.61329767,-119.021038,8992.412064,8.530184,2.5053728,8.833760125,129700,2017/07/27 18:37:05,9,22.574,8992.412064,8.530184,2.5053728,8.833760125,172.8,0,0,1024,1024,1024,1024,0,0,71,3.77,3.79,3.774,3.777,3.809,3.762,6,GPS_Atti
37.61329651,-119.0210386,8992.412064,8.530184,2.5053728,9.257939929,129800,2017/07/27 18:37:05,9,22.574,8992.412064,8.530184,2.5053728,9.257939929,172.7,0,0,1024,1024,1024,1024,0,0,71,3.77,3.79,3.774,3.777,3.809,3.762,6,GPS_Atti
37.61329543,-119.0210392,8992.740148,8.858268,2.3264176,9.656430755,129900,2017/07/27 18:37:05,10,22.574,8992.740148,8.858268,2.5053728,9.656430755,172.6,0,0,1030,1024,1030,1024,0,0,71,3.77,3.79,3.774,3.777,3.809,3.762,6,GPS_Atti
37.61329448,-119.0210396,8992.740148,8.858268,2.0579848,10.00872735,130000,2017/07/27 18:37:05,10,22.574,8992.740148,8.858268,2.5053728,10.00872735,172.5,0,0,1042,1024,1077,1024,0,0,71,3.77,3.79,3.774,3.777,3.809,3.762,6,GPS_Atti
37.61329291,-119.0210403,8992.740148,8.858268,1.3645334,10.59350428,130200,2017/07/27 18:37:05,10,22.574,8992.740148,8.858268,2.5053728,10.59350428,172.4,0,0,1037,1024,1118,1024,0,0,71,3.77,3.79,3.774,3.777,3.809,3.762,6,GPS_Atti
37.61329229,-119.0210405,8992.412064,8.530184,1.1408394,10.82486911,130300,2017/07/27 18:37:05,10,22.574,8992.740148,8.858268,2.5053728,10.82486911,172.5,0,0,1026,1024,1120,1024,0,0,71,3.77,3.79,3.774,3.777,3.809,3.762,6,GPS_Atti
37.61329171,-119.0210406,8992.412064,8.530184,1.11847,11.03576151,130400,2017/07/27 18:37:06,10,22.574,8992.740148,8.858268,2.5053728,11.03576151,172.5,0,0,1030,1024,1123,1024,0,0,71,3.739,3.777,3.75,3.744,3.767,3.746,6,GPS_Atti
37.61329112,-119.0210407,8992.412064,8.530184,1.11847,11.25255942,130500,2017/07/27 18:37:06,9,22.574,8992.740148,8.858268,2.5053728,11.25255942,172.6,0,0,1024,1072,1119,1024,0,0,71,3.739,3.777,3.75,3.744,3.767,3.746,6,GPS_Atti
37.61329048,-119.0210407,8992.412064,8.530184,0.894776,11.4864505,130600,2017/07/27 18:37:06,9,22.574,8992.740148,8.858268,2.5053728,11.4864505,172.8,0,0,1024,1212,1119,1024,0,0,71,3.739,3.777,3.75,3.744,3.767,3.746,6,GPS_Atti
37.61328987,-119.0210407,8992.08398,8.2021,0.894776,11.70902268,130700,2017/07/27 18:37:06,9,22.574,8992.740148,8.858268,2.5053728,11.70902268,172.8,0,0,1024,1200,1118,1024,0,0,71,3.739,3.777,3.75,3.744,3.767,3.746,6,GPS_Atti
37.61328927,-119.0210408,8992.08398,8.2021,1.1408394,11.92687046,130800,2017/07/27 18:37:06,9,22.574,8992.740148,8.858268,2.5053728,11.92687046,173,0,0,1024,1170,1116,1024,0,0,71,3.739,3.777,3.75,3.744,3.767,3.746,6,GPS_Atti
37.61328862,-119.021041,8992.08398,8.2021,1.2079476,12.16863556,130900,2017/07/27 18:37:06,9,22.574,8992.740148,8.858268,2.5053728,12.16863556,173.2,0,0,1024,1110,1114,1024,0,0,71,3.739,3.777,3.75,3.744,3.767,3.746,6,GPS_Atti
37.6132879,-119.0210416,8992.08398,8.2021,1.4316416,12.44566969,131000,2017/07/27 18:37:06,9,22.574,8992.740148,8.858268,2.5053728,12.44566969,173.3,0,0,1024,1024,1103,1024,0,0,71,3.739,3.777,3.75,3.744,3.767,3.746,6,GPS_Atti
37.61328716,-119.0210423,8992.08398,8.2021,1.5882274,12.73297285,131100,2017/07/27 18:37:06,9,22.574,8992.740148,8.858268,2.5053728,12.73297285,173.3,0,0,1024,1024,1024,1024,0,0,71,3.739,3.777,3.75,3.744,3.767,3.746,6,GPS_Atti
37.61328643,-119.021043,8991.755896,7.874016,1.5882274,13.01955422,131200,2017/07/27 18:37:06,9,22.574,8992.740148,8.858268,2.5053728,13.01955422,173.1,0,0,1024,1024,1024,1024,0,0,71,3.739,3.777,3.75,3.744,3.767,3.746,6,GPS_Atti
37.61328574,-119.0210437,8991.755896,7.874016,1.5882274,13.29563691,131300,2017/07/27 18:37:06,9,22.574,8992.740148,8.858268,2.5053728,13.29563691,172.9,0,0,1024,1024,1024,1024,0,0,71,3.739,3.777,3.75,3.744,3.767,3.746,6,GPS_Atti
37.6132851,-119.0210443,8992.08398,8.2021,1.4316416,13.54580096,131400,2017/07/27 18:37:07,9,22.36,8992.740148,8.858268,2.5053728,13.54580096,172.7,0,0,1024,1024,1024,1024,0,0,71,3.739,3.777,3.75,3.744,3.767,3.746,6,GPS_Atti
37.61328452,-119.0210447,8992.08398,8.2021,1.11847,13.77608312,131500,2017/07/27 18:37:07,9,22.36,8992.740148,8.858268,2.5053728,13.77608312,172.6,0,0,1024,1024,1026,1024,0,0,71,3.739,3.777,3.75,3.744,3.767,3.746,6,GPS_Atti
37.61328398,-119.021045,8992.412064,8.530184,1.006623,13.98038102,131600,2017/07/27 18:37:07,9,22.36,8992.740148,8.858268,2.5053728,13.98038102,172.5,0,0,1013,1024,1056,1024,0,0,71,3.739,3.777,3.75,3.744,3.767,3.746,6,GPS_Atti
37.6132835,-119.0210451,8992.412064,8.530184,0.7158208,14.15872749,131700,2017/07/27 18:37:07,9,22.36,8992.740148,8.858268,2.5053728,14.15872749,172.5,0,0,1001,1058,1070,1024,0,0,71,3.739,3.777,3.75,3.744,3.767,3.746,6,GPS_Atti
37.61328308,-119.0210451,8992.412064,8.530184,0.671082,14.3114834,131800,2017/07/27 18:37:07,9,22.36,8992.740148,8.858268,2.5053728,14.3114834,172.6,0,0,1024,1073,1109,1024,0,0,71,3.739,3.777,3.75,3.744,3.767,3.746,6,GPS_Atti
37.61328267,-119.0210451,8992.412064,8.530184,0.671082,14.45692303,131900,2017/07/27 18:37:07,9,22.36,8992.740148,8.858268,2.5053728,14.45692303,172.6,0,0,1024,1100,1071,1024,0,0,71,3.739,3.777,3.75,3.744,3.767,3.746,6,GPS_Atti
37.61328224,-119.0210451,8992.412064,8.530184,0.671082,14.61315664,132000,2017/07/27 18:37:07,9,22.36,8992.740148,8.858268,2.5053728,14.61315664,172.4,0,0,1024,1086,1065,1024,0,0,71,3.739,3.777,3.75,3.744,3.767,3.746,6,GPS_Atti
37.61328179,-119.0210451,8992.412064,8.530184,0.671082,14.77680493,132100,2017/07/27 18:37:07,9,22.36,8992.740148,8.858268,2.5053728,14.77680493,172.2,0,0,1024,1082,1076,1024,0,0,71,3.739,3.777,3.75,3.744,3.767,3.746,6,GPS_Atti
37.61328131,-119.0210452,8992.412064,8.530184,0.671082,14.95587318,132200,2017/07/27 18:37:07,9,22.36,8992.740148,8.858268,2.5053728,14.95587318,172.2,0,0,1024,1055,1028,1024,0,0,71,3.739,3.777,3.75,3.744,3.767,3.746,6,GPS_Atti
37.6132808,-119.0210454,8992.412064,8.530184,0.7158208,15.14790075,132300,2017/07/27 18:37:07,9,22.36,8992.740148,8.858268,2.5053728,15.14790075,172.2,0,0,1024,1024,1024,1024,0,0,71,3.739,3.777,3.75,3.744,3.767,3.746,6,GPS_Atti
37.61328026,-119.0210457,8992.08398,8.2021,0.9171454,15.35367503,132400,2017/07/27 18:37:08,9,22.36,8992.740148,8.858268,2.5053728,15.35367503,172.2,0,0,1024,1024,1024,1024,0,0,71,3.714,3.734,3.734,3.731,3.753,3.707,6,GPS_Atti
37.61327973,-119.021046,8992.08398,8.2021,0.9171454,15.56086008,132500,2017/07/27 18:37:08,9,22.36,8992.740148,8.858268,2.5053728,15.56086008,172.2,0,0,1024,1024,1024,1024,0,0,71,3.714,3.734,3.734,3.731,3.753,3.707,6,GPS_Atti
37.61327919,-119.0210463,8992.08398,8.2021,0.9171454,15.76571573,132600,2017/07/27 18:37:08,9,22.36,8992.740148,8.858268,2.5053728,15.76571573,172.2,0,0,1024,1024,1068,1024,0,0,71,3.714,3.734,3.734,3.731,3.753,3.707,6,GPS_Atti
37.61327869,-119.0210465,8992.08398,8.2021,0.671082,15.95646377,132700,2017/07/27 18:37:08,9,22.36,8992.740148,8.858268,2.5053728,15.95646377,172.2,0,0,1024,1024,1097,1024,0,0,71,3.714,3.734,3.734,3.731,3.753,3.707,6,GPS_Atti
37.61327826,-119.0210467,8992.08398,8.2021,0.671082,16.12014487,132800,2017/07/27 18:37:08,9,22.36,8992.740148,8.858268,2.5053728,16.12014487,172.2,0,0,1024,1024,1106,1024,0,0,71,3.714,3.734,3.734,3.731,3.753,3.707,6,GPS_Atti
37.61327788,-119.0210469,8992.08398,8.2021,0.447388,16.26378005,132900,2017/07/27 18:37:08,9,22.36,8992.740148,8.858268,2.5053728,16.26378005,172.3,0,0,1024,1024,1116,1024,0,0,71,3.714,3.734,3.734,3.731,3.753,3.707,6,GPS_Atti
37.61327756,-119.021047,8992.08398,8.2021,0.447388,16.38510551,133000,2017/07/27 18:37:08,9,22.36,8992.740148,8.858268,2.5053728,16.38510551,172.6,0,0,1024,1024,1123,1024,0,0,71,3.714,3.734,3.734,3.731,3.753,3.707,6,GPS_Atti
37.61327729,-119.0210471,8992.08398,8.2021,0.447388,16.48730368,133100,2017/07/27 18:37:08,9,22.36,8992.740148,8.858268,2.5053728,16.48730368,172.8,0,0,1024,1024,1122,1024,0,0,71,3.714,3.734,3.734,3.731,3.753,3.707,6,GPS_Atti
37.61327706,-119.0210471,8992.08398,8.2021,0.223694,16.57349134,133200,2017/07/27 18:37:08,9,22.36,8992.740148,8.858268,2.5053728,16.57349134,172.9,0,0,1024,1024,1119,1024,0,0,71,3.714,3.734,3.734,3.731,3.753,3.707,6,GPS_Atti
37.61327685,-119.0210472,8992.08398,8.2021,0.223694,16.65055828,133300,2017/07/27 18:37:08,9,22.36,8992.740148,8.858268,2.5053728,16.65055828,173,0,0,1024,1024,1115,1024,0,0,71,3.714,3.734,3.734,3.731,3.753,3.707,6,GPS_Atti
37.61327665,-119.0210472,8992.412064,8.530184,0.223694,16.7201777,133400,2017/07/27 18:37:09,9,22.457,8992.740148,8.858268,2.5053728,16.7201777,173,0,0,1024,1024,1109,1024,0,0,70,3.732,3.742,3.752,3.761,3.774,3.728,6,GPS_Atti
37.61327645,-119.0210471,8992.08398,8.2021,0.223694,16.79058453,133500,2017/07/27 18:37:09,9,22.457,8992.740148,8.858268,2.5053728,16.79058453,172.9,0,0,1024,1049,1106,1024,0,0,70,3.732,3.742,3.752,3.761,3.774,3.728,6,GPS_Atti
37.61327621,-119.0210471,8992.412064,8.530184,0.223694,16.87519739,133600,2017/07/27 18:37:09,9,22.457,8992.740148,8.858268,2.5053728,16.87519739,173,0,0,1020,1143,1101,1024,0,0,70,3.732,3.742,3.752,3.761,3.774,3.728,6,GPS_Atti
37.613276,-119.021047,8992.412064,8.530184,0.223694,16.94839293,133700,2017/07/27 18:37:09,9,22.457,8992.740148,8.858268,2.5053728,16.94839293,173.2,0,0,1014,1150,1100,1024,0,0,70,3.732,3.742,3.752,3.761,3.774,3.728,6,GPS_Atti
37.61327583,-119.0210469,8992.412064,8.530184,0,17.00351104,133800,2017/07/27 18:37:09,9,22.457,8992.740148,8.858268,2.5053728,17.00351104,173.4,0,0,1018,1144,1098,1024,0,0,70,3.732,3.742,3.752,3.761,3.774,3.728,6,GPS_Atti
37.61327565,-119.0210469,8992.740148,8.858268,0.223694,17.06893099,133900,2017/07/27 18:37:09,9,22.457,8992.740148,8.858268,2.5053728,17.06893099,173.6,0,0,1020,1140,1097,1024,0,0,70,3.732,3.742,3.752,3.761,3.774,3.728,6,GPS_Atti
37.61327544,-119.0210471,8992.740148,8.858268,0.3131716,17.15502023,134000,2017/07/27 18:37:09,9,22.457,8992.740148,8.858268,2.5053728,17.15502023,173.7,0,0,1024,1119,1095,1024,0,0,70,3.732,3.742,3.752,3.761,3.774,3.728,6,GPS_Atti
37.61327523,-119.0210475,8993.068232,9.186352,0.4921268,17.2458995,134100,2017/07/27 18:37:09,9,22.457,8993.068232,9.186352,2.5053728,17.2458995,173.8,0,0,1024,1087,1099,1024,0,0,70,3.732,3.742,3.752,3.761,3.774,3.728,6,GPS_Atti
37.61327504,-119.0210479,8993.068232,9.186352,0.7158208,17.33451499,134200,2017/07/27 18:37:09,9,22.457,8993.068232,9.186352,2.5053728,17.33451499,173.8,0,0,1024,1024,1094,1024,0,0,70,3.732,3.742,3.752,3.761,3.774,3.728,6,GPS_Atti
37.61327487,-119.0210484,8993.068232,9.186352,0.9171454,17.4228352,134300,2017/07/27 18:37:09,9,22.457,8993.068232,9.186352,2.5053728,17.4228352,173.7,0,0,1024,1024,1099,1024,0,0,70,3.732,3.742,3.752,3.761,3.774,3.728,6,GPS_Atti
37.61327474,-119.021049,8993.068232,9.186352,0.7158208,17.49645725,134400,2017/07/27 18:37:10,9,22.381,8993.068232,9.186352,2.5053728,17.49645725,173.4,0,0,1024,1024,1105,1024,0,0,70,3.709,3.707,3.738,3.732,3.76,3.711,6,GPS_Atti
37.61327465,-119.0210494,8993.396316,9.514436,0.7158208,17.55646382,134500,2017/07/27 18:37:10,9,22.381,8993.396316,9.514436,2.5053728,17.55646382,173.1,0,0,1024,1024,1112,1024,0,0,70,3.709,3.707,3.738,3.732,3.76,3.711,6,GPS_Atti
37.61327459,-119.0210497,8993.396316,9.514436,0.447388,17.59051894,134600,2017/07/27 18:37:10,9,22.381,8993.396316,9.514436,2.5053728,17.59051894,172.9,0,0,1024,1024,1121,1024,0,0,70,3.709,3.707,3.738,3.732,3.76,3.711,6,GPS_Atti
37.61327456,-119.0210499,8993.7244,9.84252,0.223694,17.6122381,134700,2017/07/27 18:37:10,9,22.381,8993.7244,9.84252,2.5053728,17.6122381,172.8,0,0,1024,1024,1136,1024,0,0,70,3.709,3.707,3.738,3.732,3.76,3.711,6,GPS_Atti
37.61327454,-119.02105,8993.7244,9.84252,0,17.62421316,134800,2017/07/27 18:37:10,9,22.381,8993.7244,9.84252,2.5053728,17.62421316,172.7,0,0,1024,1024,1147,1024,0,0,70,3.709,3.707,3.738,3.732,3.76,3.711,6,GPS_Atti
37.61327452,-119.0210498,8993.7244,9.84252,0,17.62381946,135000,2017/07/27 18:37:10,9,22.381,8993.7244,9.84252,2.5053728,17.62421316,172.6,0,0,1024,1024,1147,1024,0,0,70,3.709,3.707,3.738,3.732,3.76,3.711,6,GPS_Atti
37.61327452,-119.0210497,8993.7244,9.84252,0,17.61886539,135100,2017/07/27 18:37:10,9,22.381,8993.7244,9.84252,2.5053728,17.62421316,172.6,0,0,1024,1024,1147,1057,0,0,70,3.709,3.707,3.738,3.732,3.76,3.711,6,GPS_Atti
37.6132745,-119.0210496,8993.7244,9.84252,0.223694,17.61893101,135200,2017/07/27 18:37:10,9,22.381,8993.7244,9.84252,2.5053728,17.62421316,172.6,0,0,1024,1024,1147,1057,0,0,70,3.709,3.707,3.738,3.732,3.76,3.711,6,GPS_Atti
37.61327449,-119.0210495,8993.7244,9.84252,0.223694,17.61735621,135300,2017/07/27 18:37:10,9,22.381,8993.7244,9.84252,2.5053728,17.62421316,172.6,0,0,1024,1024,1106,1142,0,0,70,3.709,3.707,3.738,3.732,3.76,3.711,6,GPS_Atti
37.61327449,-119.0210494,8994.052484,10.170604,0.223694,17.61289426,135400,2017/07/27 18:37:11,9,22.381,8994.052484,10.170604,2.5053728,17.62421316,172.6,0,0,1024,1024,1106,1142,0,0,70,3.709,3.707,3.738,3.732,3.76,3.711,6,GPS_Atti
37.61327448,-119.0210493,8994.052484,10.170604,0.223694,17.61086014,135500,2017/07/27 18:37:11,9,22.357,8994.052484,10.170604,2.5053728,17.62421316,173,0,0,1024,1024,1096,1144,0,0,70,3.715,3.723,3.731,3.728,3.748,3.71,6,GPS_Atti
37.61327446,-119.0210492,8993.7244,9.84252,0.223694,17.61128665,135600,2017/07/27 18:37:11,9,22.357,8994.052484,10.170604,2.5053728,17.62421316,173.7,0,0,1024,1024,1081,1140,0,0,70,3.715,3.723,3.731,3.728,3.748,3.71,6,GPS_Atti
37.61327446,-119.0210491,8993.7244,9.84252,0.223694,17.60902287,135700,2017/07/27 18:37:11,9,22.357,8994.052484,10.170604,2.5053728,17.62421316,174.3,0,0,1024,1024,1082,1143,0,0,70,3.715,3.723,3.731,3.728,3.748,3.71,6,GPS_Atti
37.61327448,-119.0210491,8993.7244,9.84252,0.223694,17.59993495,135800,2017/07/27 18:37:11,9,22.357,8994.052484,10.170604,2.5053728,17.62421316,174.9,0,0,1024,1024,1109,1068,0,0,70,3.715,3.723,3.731,3.728,3.748,3.71,6,GPS_Atti
37.61327451,-119.0210491,8993.7244,9.84252,0,17.58750056,135900,2017/07/27 18:37:11,9,22.357,8994.052484,10.170604,2.5053728,17.62421316,175.4,0,0,1024,1024,1148,1038,0,0,70,3.715,3.723,3.731,3.728,3.748,3.71,6,GPS_Atti
37.61327456,-119.0210491,8993.7244,9.84252,0,17.57073547,136000,2017/07/27 18:37:11,9,22.357,8994.052484,10.170604,2.5053728,17.62421316,175.7,0,0,1024,1024,1146,1032,0,0,70,3.715,3.723,3.731,3.728,3.748,3.71,6,GPS_Atti
37.61327461,-119.0210491,8993.7244,9.84252,0,17.55298613,136100,2017/07/27 18:37:11,9,22.357,8994.052484,10.170604,2.5053728,17.62421316,175.9,0,0,1024,1024,1153,1029,0,0,70,3.715,3.723,3.731,3.728,3.748,3.71,6,GPS_Atti
37.61327466,-119.0210491,8993.7244,9.84252,0,17.53454781,136200,2017/07/27 18:37:11,9,22.357,8994.052484,10.170604,2.5053728,17.62421316,176.1,0,0,1024,1024,1149,1032,0,0,70,3.715,3.723,3.731,3.728,3.748,3.71,6,GPS_Atti
37.61327473,-119.0210491,8993.7244,9.84252,0,17.51086014,136300,2017/07/27 18:37:11,9,22.357,8994.052484,10.170604,2.5053728,17.62421316,176.3,0,0,1024,1024,1150,1033,0,0,70,3.715,3.723,3.731,3.728,3.748,3.71,6,GPS_Atti
37.61327482,-119.0210492,8994.052484,10.170604,0,17.48087326,136400,2017/07/27 18:37:12,9,22.357,8994.052484,10.170604,2.5053728,17.62421316,176.4,0,0,1024,1024,1151,1033,0,0,70,3.715,3.723,3.731,3.728,3.748,3.71,6,GPS_Atti
37.61327493,-119.0210493,8994.052484,10.170604,0,17.44452156,136500,2017/07/27 18:37:12,9,22.325,8994.052484,10.170604,2.5053728,17.62421316,176.6,0,0,1024,1024,1163,1031,0,0,70,3.702,3.723,3.719,3.727,3.743,3.69,6,GPS_Atti
37.61327507,-119.0210493,8994.052484,10.170604,0.223694,17.39488245,136600,2017/07/27 18:37:12,9,22.325,8994.052484,10.170604,2.5053728,17.62421316,176.6,0,0,1024,1024,1171,1024,0,0,70,3.702,3.723,3.719,3.727,3.743,3.69,6,GPS_Atti
37.61327521,-119.0210493,8994.052484,10.170604,0.223694,17.34816328,136700,2017/07/27 18:37:12,9,22.325,8994.052484,10.170604,2.5053728,17.62421316,176.5,0,0,1024,1024,1181,1024,0,0,70,3.702,3.723,3.719,3.727,3.743,3.69,6,GPS_Atti
37.6132753,-119.0210493,8994.380568,10.498688,0.223694,17.31400974,136800,2017/07/27 18:37:12,9,22.325,8994.380568,10.498688,2.5053728,17.62421316,176.4,0,0,1024,1024,1192,1024,0,0,70,3.702,3.723,3.719,3.727,3.743,3.69,6,GPS_Atti
37.6132754,-119.0210493,8994.380568,10.498688,0,17.27933126,136900,2017/07/27 18:37:12,9,22.325,8994.380568,10.498688,2.5053728,17.62421316,176.2,0,0,1024,1024,1190,1024,0,0,70,3.702,3.723,3.719,3.727,3.743,3.69,6,GPS_Atti
37.6132755,-119.0210493,8994.380568,10.498688,0,17.24334045,137000,2017/07/27 18:37:12,9,22.325,8994.380568,10.498688,2.5053728,17.62421316,176,0,0,1024,1024,1180,1024,0,0,70,3.702,3.723,3.719,3.727,3.743,3.69,6,GPS_Atti
37.6132756,-119.0210493,8994.708652,10.826772,0,17.20899005,137100,2017/07/27 18:37:12,9,22.325,8994.708652,10.826772,2.5053728,17.62421316,175.9,0,0,1024,1024,1179,1024,0,0,70,3.702,3.723,3.719,3.727,3.743,3.69,6,GPS_Atti
37.6132757,-119.0210493,8994.708652,10.826772,0,17.17004648,137200,2017/07/27 18:37:12,9,22.325,8994.708652,10.826772,2.5053728,17.62421316,175.9,0,0,1024,1024,1172,1024,0,0,70,3.702,3.723,3.719,3.727,3.743,3.69,6,GPS_Atti
37.61327577,-119.0210492,8994.708652,10.826772,0,17.14281551,137300,2017/07/27 18:37:12,9,22.325,8994.708652,10.826772,2.5053728,17.62421316,175.9,0,0,1024,1024,1167,1024,0,0,70,3.702,3.723,3.719,3.727,3.743,3.69,6,GPS_Atti
37.61327579,-119.0210492,8995.036736,11.154856,0,17.13507273,137400,2017/07/27 18:37:13,9,22.325,8995.036736,11.154856,2.5053728,17.62421316,176,0,0,1024,1024,1167,1024,0,0,70,3.702,3.723,3.719,3.727,3.743,3.69,6,GPS_Atti
37.61327582,-119.0210492,8995.36482,11.48294,0,17.12585357,137500,2017/07/27 18:37:13,9,22.264,8995.36482,11.48294,2.5053728,17.62421316,176.1,0,0,1024,1024,1167,1024,0,0,70,3.695,3.716,3.703,3.697,3.725,3.7,6,GPS_Atti
37.61327586,-119.0210492,8995.36482,11.48294,0,17.11105698,137600,2017/07/27 18:37:13,9,22.264,8995.36482,11.48294,2.5053728,17.62421316,176.2,0,0,1024,1024,1158,1024,0,0,70,3.695,3.716,3.703,3.697,3.725,3.7,6,GPS_Atti
37.61327589,-119.0210492,8995.692904,11.811024,0,17.10052548,137700,2017/07/27 18:37:13,9,22.264,8995.692904,11.811024,2.5053728,17.62421316,176.3,0,0,1024,1024,1157,1024,0,0,70,3.695,3.716,3.703,3.697,3.725,3.7,6,GPS_Atti
37.6132759,-119.0210493,8996.020988,12.139108,0,17.09803204,137800,2017/07/27 18:37:13,9,22.264,8996.020988,12.139108,2.5053728,17.62421316,176.4,0,0,1024,1024,1142,1024,0,0,70,3.695,3.716,3.703,3.697,3.725,3.7,6,GPS_Atti
37.61327591,-119.0210493,8996.349072,12.467192,0,17.09606354,137900,2017/07/27 18:37:13,9,22.264,8996.349072,12.467192,2.5053728,17.62421316,176.7,0,0,1024,1024,1139,1024,0,0,70,3.695,3.716,3.703,3.697,3.725,3.7,6,GPS_Atti
37.61327596,-119.0210494,8996.677156,12.795276,0,17.08595855,138000,2017/07/27 18:37:13,9,22.264,8996.677156,12.795276,2.5053728,17.62421316,176.9,0,0,1024,1024,1144,1024,0,0,70,3.695,3.716,3.703,3.697,3.725,3.7,6,GPS_Atti
37.61327598,-119.0210495,8996.677156,12.795276,0,17.08090606,138100,2017/07/27 18:37:13,9,22.264,8996.677156,12.795276,2.5053728,17.62421316,177,0,0,1024,1024,1166,1024,0,0,70,3.695,3.716,3.703,3.697,3.725,3.7,6,GPS_Atti
37.61327596,-119.0210495,8996.677156,12.795276,0,17.08923939,138200,2017/07/27 18:37:13,9,22.264,8996.677156,12.795276,2.5053728,17.62421316,177,0,0,1024,1024,1169,1024,0,0,70,3.695,3.716,3.703,3.697,3.725,3.7,6,GPS_Atti
37.61327596,-119.0210495,8996.677156,12.795276,0,17.0876974,138300,2017/07/27 18:37:13,9,22.264,8996.677156,12.795276,2.5053728,17.62421316,176.8,0,0,1024,1024,1174,1024,0,0,70,3.695,3.716,3.703,3.697,3.725,3.7,6,GPS_Atti
37.61327604,-119.0210495,8997.00524,13.12336,0,17.06276301,138400,2017/07/27 18:37:14,9,22.264,8997.00524,13.12336,2.5053728,17.62421316,176.6,0,0,1024,1024,1186,1024,0,0,70,3.695,3.716,3.703,3.697,3.725,3.7,6,GPS_Atti
37.61327608,-119.0210495,8997.00524,13.12336,0,17.05042705,138500,2017/07/27 18:37:14,9,22.175,8997.00524,13.12336,2.5053728,17.62421316,176.4,0,0,1024,1024,1186,1024,0,0,70,3.683,3.705,3.705,3.681,3.718,3.688,6,GPS_Atti
37.61327603,-119.0210495,8997.333324,13.451444,0,17.06784832,138600,2017/07/27 18:37:14,9,22.175,8997.333324,13.451444,2.5053728,17.62421316,176.3,0,0,1024,1024,1185,1024,0,0,70,3.683,3.705,3.705,3.681,3.718,3.688,6,GPS_Atti
37.613276,-119.0210495,8997.333324,13.451444,0,17.07792049,138700,2017/07/27 18:37:14,9,22.175,8997.333324,13.451444,2.5053728,17.62421316,176.1,0,0,1024,1024,1184,1024,0,0,70,3.683,3.705,3.705,3.681,3.718,3.688,6,GPS_Atti
37.61327603,-119.0210496,8997.333324,13.451444,0,17.06673283,138800,2017/07/27 18:37:14,9,22.175,8997.333324,13.451444,2.5053728,17.62421316,176.1,0,0,1024,1024,1185,1024,0,0,70,3.683,3.705,3.705,3.681,3.718,3.688,6,GPS_Atti
37.61327603,-119.0210496,8997.661408,13.779528,0,17.07027614,138900,2017/07/27 18:37:14,9,22.175,8997.661408,13.779528,2.5053728,17.62421316,176,0,0,1024,1024,1182,1024,0,0,70,3.683,3.705,3.705,3.681,3.718,3.688,6,GPS_Atti
37.61327592,-119.0210495,8997.989492,14.107612,0,17.10420002,139000,2017/07/27 18:37:14,9,22.175,8997.989492,14.107612,2.5053728,17.62421316,176.1,0,0,1024,1024,1172,1024,0,0,70,3.683,3.705,3.705,3.681,3.718,3.688,6,GPS_Atti
37.61327584,-119.0210495,8997.989492,14.107612,0.223694,17.13343231,139100,2017/07/27 18:37:14,9,22.175,8997.989492,14.107612,2.5053728,17.62421316,176.1,0,0,1024,1024,1168,1024,0,0,70,3.683,3.705,3.705,3.681,3.718,3.688,6,GPS_Atti
37.6132758,-119.0210495,8998.317576,14.435696,0.223694,17.14842575,139200,2017/07/27 18:37:14,9,22.175,8998.317576,14.435696,2.5053728,17.62421316,176.1,0,0,1024,1024,1169,1024,0,0,70,3.683,3.705,3.705,3.681,3.718,3.688,6,GPS_Atti
37.61327574,-119.0210495,8998.317576,14.435696,0.223694,17.16748743,139300,2017/07/27 18:37:14,9,22.175,8998.317576,14.435696,2.5053728,17.62421316,176.1,0,0,1024,1024,1167,1024,0,0,70,3.683,3.705,3.705,3.681,3.718,3.688,6,GPS_Atti
37.61327566,-119.0210495,8998.64566,14.76378,0.223694,17.19603073,139400,2017/07/27 18:37:15,9,22.175,8998.64566,14.76378,2.5053728,17.62421316,176,0,0,1024,1024,1167,1024,0,0,70,3.683,3.705,3.705,3.681,3.718,3.688,6,GPS_Atti
37.61327546,-119.0210494,8998.973744,15.091864,0.223694,17.26597824,139600,2017/07/27 18:37:15,9,22.346,8998.973744,15.091864,2.5053728,17.62421316,176,0,0,1024,1024,1167,1024,0,0,69,3.701,3.71,3.733,3.724,3.751,3.694,6,GPS_Atti
37.61327536,-119.0210494,8998.973744,15.091864,0,17.30062391,139700,2017/07/27 18:37:15,9,22.346,8998.973744,15.091864,2.5053728,17.62421316,176,0,0,1024,1024,1168,1024,0,0,69,3.701,3.71,3.733,3.724,3.751,3.694,6,GPS_Atti
37.6132752,-119.0210494,8999.301828,15.419948,0,17.35948218,139900,2017/07/27 18:37:15,9,22.346,8999.301828,15.419948,2.5053728,17.62421316,175.9,0,0,1024,1024,1169,1024,0,0,69,3.701,3.71,3.733,3.724,3.751,3.694,6,GPS_Atti
37.61327506,-119.0210496,8999.957996,16.076116,0,17.41653599,140100,2017/07/27 18:37:15,9,22.346,8999.957996,16.076116,2.5053728,17.62421316,175.7,0,0,1024,1024,1170,1024,0,0,69,3.701,3.71,3.733,3.724,3.751,3.694,6,GPS_Atti
37.61327501,-119.0210496,8999.957996,16.076116,0,17.43553205,140200,2017/07/27 18:37:15,9,22.346,8999.957996,16.076116,2.5053728,17.62421316,175.7,0,0,1024,1024,1174,1024,0,0,69,3.701,3.71,3.733,3.724,3.751,3.694,6,GPS_Atti
37.61327496,-119.0210496,8999.957996,16.076116,0,17.45305174,140300,2017/07/27 18:37:15,9,22.346,8999.957996,16.076116,2.5053728,17.62421316,175.9,0,0,1024,1024,1179,1024,0,0,69,3.701,3.71,3.733,3.724,3.751,3.694,6,GPS_Atti
37.61327491,-119.0210496,9000.28608,16.4042,0,17.47381946,140400,2017/07/27 18:37:15,9,22.346,9000.28608,16.4042,2.5053728,17.62421316,176.1,0,0,1024,1024,1182,1024,0,0,69,3.701,3.71,3.733,3.724,3.751,3.694,6,GPS_Atti
37.61327484,-119.0210496,9000.28608,16.4042,0,17.49734308,140500,2017/07/27 18:37:16,9,22.346,9000.28608,16.4042,2.5053728,17.62421316,176.2,0,0,1024,1024,1181,1024,0,0,69,3.701,3.71,3.733,3.724,3.751,3.694,6,GPS_Atti
37.61327477,-119.0210497,9000.28608,16.4042,0,17.52677221,140600,2017/07/27 18:37:16,9,22.346,9000.28608,16.4042,2.5053728,17.62421316,176.4,0,0,1024,1024,1182,1024,0,0,69,3.701,3.71,3.733,3.724,3.751,3.694,6,GPS_Atti
37.6132747,-119.0210497,9000.614164,16.732284,0,17.54973809,140700,2017/07/27 18:37:16,9,22.346,9000.614164,16.732284,2.5053728,17.62421316,176.5,0,0,1024,1024,1185,1024,0,0,69,3.701,3.71,3.733,3.724,3.751,3.694,6,GPS_Atti
37.61327468,-119.0210497,9000.614164,16.732284,0,17.55905568,140800,2017/07/27 18:37:16,9,22.169,9000.614164,16.732284,2.5053728,17.62421316,176.6,0,0,1024,1024,1188,1024,0,0,69,3.682,3.702,3.703,3.681,3.713,3.68,6,GPS_Atti
37.61327465,-119.0210497,9000.614164,16.732284,0,17.57044019,140900,2017/07/27 18:37:16,9,22.169,9000.614164,16.732284,2.5053728,17.62421316,176.5,0,0,1024,1024,1193,1024,0,0,69,3.682,3.702,3.703,3.681,3.713,3.68,6,GPS_Atti
37.61327458,-119.0210496,9000.942248,17.060368,0,17.58930502,141000,2017/07/27 18:37:16,9,22.169,9000.942248,17.060368,2.5053728,17.62421316,176.5,0,0,1024,1024,1202,1024,0,0,69,3.682,3.702,3.703,3.681,3.713,3.68,6,GPS_Atti
37.61327453,-119.0210496,9000.942248,17.060368,0,17.60505306,141100,2017/07/27 18:37:16,9,22.169,9000.942248,17.060368,2.5053728,17.62421316,176.3,0,0,1024,1024,1205,1024,0,0,69,3.682,3.702,3.703,3.681,3.713,3.68,6,GPS_Atti
37.6132745,-119.0210496,9000.942248,17.060368,0,17.61630634,141200,2017/07/27 18:37:16,9,22.169,9000.942248,17.060368,2.5053728,17.62421316,176.2,0,0,1024,1024,1209,1024,0,0,69,3.682,3.702,3.703,3.681,3.713,3.68,6,GPS_Atti
37.61327446,-119.0210496,9001.270332,17.388452,0,17.6325793,141300,2017/07/27 18:37:16,9,22.169,9001.270332,17.388452,2.5053728,17.6325793,176.1,0,0,1024,1024,1214,1024,0,0,69,3.682,3.702,3.703,3.681,3.713,3.68,6,GPS_Atti
37.61327439,-119.0210496,9001.270332,17.388452,0,17.654036,141400,2017/07/27 18:37:17,9,22.169,9001.270332,17.388452,2.5053728,17.654036,176.1,0,0,1024,1024,1220,1024,0,0,69,3.682,3.702,3.703,3.681,3.713,3.68,6,GPS_Atti
37.61327434,-119.0210495,9001.270332,17.388452,0,17.67231028,141500,2017/07/27 18:37:17,9,22.169,9001.270332,17.388452,2.5053728,17.67231028,176,0,0,1024,1024,1223,1024,0,0,69,3.682,3.702,3.703,3.681,3.713,3.68,6,GPS_Atti
37.6132743,-119.0210495,9001.598416,17.716536,0,17.68471185,141600,2017/07/27 18:37:17,9,22.169,9001.598416,17.716536,2.5053728,17.68471185,176,0,0,1024,1024,1217,1024,0,0,69,3.682,3.702,3.703,3.681,3.713,3.68,6,GPS_Atti
37.61327428,-119.0210495,9001.598416,17.716536,0,17.68779584,141700,2017/07/27 18:37:17,9,22.169,9001.598416,17.716536,2.5053728,17.68779584,176.1,0,0,1024,1024,1215,1024,0,0,69,3.682,3.702,3.703,3.681,3.713,3.68,6,GPS_Atti
37.61327432,-119.0210494,9001.9265,18.04462,0,17.67181815,141800,2017/07/27 18:37:17,9,22.207,9001.9265,18.04462,2.5053728,17.68779584,176.3,0,0,1024,1024,1216,1024,0,0,69,3.682,3.702,3.703,3.681,3.713,3.68,6,GPS_Atti
37.61327434,-119.0210493,9002.254584,18.372704,0,17.65839952,141900,2017/07/27 18:37:17,10,22.207,9002.254584,18.372704,2.5053728,17.68779584,176.4,0,0,1024,1024,1219,1024,0,0,69,3.682,3.702,3.703,3.681,3.713,3.68,6,GPS_Atti
37.61327434,-119.0210493,9002.254584,18.372704,0,17.65518429,142000,2017/07/27 18:37:17,10,22.207,9002.254584,18.372704,2.5053728,17.68779584,176.5,0,0,1024,1024,1215,1024,0,0,69,3.682,3.702,3.703,3.681,3.713,3.68,6,GPS_Atti
37.61327434,-119.0210492,9002.582668,18.700788,0,17.65344545,142100,2017/07/27 18:37:17,10,22.207,9002.582668,18.700788,2.5053728,17.68779584,176.5,0,0,1024,1024,1209,1024,0,0,69,3.682,3.702,3.703,3.681,3.713,3.68,6,GPS_Atti
37.61327433,-119.0210492,9002.582668,18.700788,0,17.65636539,142200,2017/07/27 18:37:17,10,22.207,9002.582668,18.700788,2.5053728,17.68779584,176.4,0,0,1024,1024,1207,1024,0,0,69,3.682,3.702,3.703,3.681,3.713,3.68,6,GPS_Atti
37.61327434,-119.0210492,9002.910752,19.028872,0,17.65216592,142300,2017/07/27 18:37:17,10,22.207,9002.910752,19.028872,2.5053728,17.68779584,176.3,0,0,1024,1024,1210,1024,0,0,69,3.682,3.702,3.703,3.681,3.713,3.68,6,GPS_Atti
37.61327437,-119.021049,9003.238836,19.356956,0,17.63287458,142400,2017/07/27 18:37:18,10,22.207,9003.238836,19.356956,2.5053728,17.68779584,176.2,0,0,1024,1024,1213,1024,0,0,69,3.682,3.702,3.703,3.681,3.713,3.68,6,GPS_Atti
37.61327442,-119.021049,9003.238836,19.356956,0,17.61164755,142500,2017/07/27 18:37:18,10,22.207,9003.238836,19.356956,2.5053728,17.68779584,176.1,0,0,1024,1024,1214,1024,0,0,69,3.682,3.702,3.703,3.681,3.713,3.68,6,GPS_Atti
37.61327448,-119.021049,9003.56692,19.68504,0,17.59206093,142600,2017/07/27 18:37:18,10,22.207,9003.56692,19.68504,2.5053728,17.68779584,176,0,0,1024,1024,1214,1024,0,0,69,3.682,3.702,3.703,3.681,3.713,3.68,6,GPS_Atti
37.61327455,-119.021049,9003.895004,20.013124,0,17.56975122,142700,2017/07/27 18:37:18,10,22.207,9003.895004,20.013124,2.5053728,17.68779584,175.9,0,0,1024,1024,1210,1024,0,0,69,3.682,3.702,3.703,3.681,3.713,3.68,6,GPS_Atti
37.61327462,-119.021049,9003.895004,20.013124,0,17.54278271,142800,2017/07/27 18:37:18,10,22.207,9003.895004,20.013124,2.5053728,17.68779584,175.8,0,0,1024,1024,1207,1024,0,0,69,3.682,3.702,3.703,3.681,3.713,3.68,6,GPS_Atti
37.61327468,-119.021049,9004.223088,20.341208,0,17.5185045,142900,2017/07/27 18:37:18,10,22.207,9004.223088,20.341208,2.5053728,17.68779584,175.8,0,0,1024,1024,1206,1024,0,0,69,3.682,3.702,3.703,3.681,3.713,3.68,6,GPS_Atti
37.61327474,-119.021049,9004.223088,20.341208,0,17.50006618,143000,2017/07/27 18:37:18,10,22.207,9004.223088,20.341208,2.5053728,17.68779584,175.7,0,0,1024,1024,1212,1024,0,0,69,3.682,3.702,3.703,3.681,3.713,3.68,6,GPS_Atti
37.61327479,-119.021049,9004.551172,20.669292,0,17.4810045,143100,2017/07/27 18:37:18,10,22.207,9004.551172,20.669292,2.5053728,17.68779584,175.8,0,0,1024,1024,1215,1024,0,0,69,3.682,3.702,3.703,3.681,3.713,3.68,6,GPS_Atti
37.61327485,-119.021049,9004.551172,20.669292,0,17.45931814,143200,2017/07/27 18:37:18,10,22.207,9004.551172,20.669292,2.5053728,17.68779584,175.8,0,0,1024,1024,1215,1024,0,0,69,3.682,3.702,3.703,3.681,3.713,3.68,6,GPS_Atti
37.61327492,-119.021049,9004.551172,20.669292,0,17.43638507,143300,2017/07/27 18:37:18,10,22.207,9004.551172,20.669292,2.5053728,17.68779584,175.8,0,0,1024,1024,1214,1024,0,0,69,3.682,3.702,3.703,3.681,3.713,3.68,6,GPS_Atti
37.613275,-119.0210491,9004.879256,20.997376,0,17.40882602,143400,2017/07/27 18:37:19,10,22.207,9004.879256,20.997376,2.5053728,17.68779584,175.9,0,0,1024,1024,1205,1024,0,0,69,3.682,3.702,3.703,3.681,3.713,3.68,6,GPS_Atti
37.61327507,-119.0210491,9004.879256,20.997376,0,17.38684439,143500,2017/07/27 18:37:19,10,22.207,9004.879256,20.997376,2.5053728,17.68779584,176,0,0,1024,1024,1208,1024,0,0,69,3.682,3.702,3.703,3.681,3.713,3.68,6,GPS_Atti
37.6132751,-119.0210492,9004.879256,20.997376,0,17.37805174,143600,2017/07/27 18:37:19,10,22.207,9004.879256,20.997376,2.5053728,17.68779584,176.1,0,0,1024,1024,1218,1024,0,0,69,3.682,3.702,3.703,3.681,3.713,3.68,6,GPS_Atti
37.61327519,-119.0210493,9005.535424,21.653544,0,17.35482339,143800,2017/07/27 18:37:19,10,22.207,9005.535424,21.653544,2.5053728,17.68779584,176.3,0,0,1024,1024,1215,1024,0,0,69,3.682,3.702,3.703,3.681,3.713,3.68,6,GPS_Atti
37.61327525,-119.0210493,9005.535424,21.653544,0,17.33500712,143900,2017/07/27 18:37:19,10,22.055,9005.535424,21.653544,2.5053728,17.68779584,176.3,0,0,1024,1024,1213,1024,0,0,69,3.659,3.693,3.7,3.678,3.712,3.67,6,GPS_Atti
37.61327534,-119.0210494,9005.863508,21.981628,0,17.30515147,144000,2017/07/27 18:37:19,10,22.055,9005.863508,21.981628,2.5053728,17.68779584,176.3,0,0,1024,1024,1214,1024,0,0,69,3.659,3.693,3.7,3.678,3.712,3.67,6,GPS_Atti
37.61327541,-119.0210494,9006.191592,22.309712,0,17.28110292,144100,2017/07/27 18:37:19,10,22.055,9006.191592,22.309712,2.5053728,17.68779584,176.3,0,0,1024,1024,1210,1024,0,0,69,3.659,3.693,3.7,3.678,3.712,3.67,6,GPS_Atti
37.61327549,-119.0210497,9006.84776,22.96588,0,17.26519084,144300,2017/07/27 18:37:19,10,22.055,9006.84776,22.96588,2.5053728,17.68779584,176.1,0,0,1024,1024,1214,1024,0,0,69,3.659,3.693,3.7,3.678,3.712,3.67,6,GPS_Atti
37.61327548,-119.0210497,9006.84776,22.96588,0,17.27103074,144400,2017/07/27 18:37:19,10,22.055,9006.84776,22.96588,2.5053728,17.68779584,176,0,0,1024,1024,1214,1024,0,0,69,3.659,3.693,3.7,3.678,3.712,3.67,6,GPS_Atti
37.61327549,-119.0210497,9007.175844,23.293964,0,17.27296643,144500,2017/07/27 18:37:20,10,22.055,9007.175844,23.293964,2.5053728,17.68779584,176,0,0,1024,1024,1217,1024,0,0,69,3.659,3.693,3.7,3.678,3.712,3.67,6,GPS_Atti
37.61327553,-119.0210498,9007.503928,23.622048,0,17.2630911,144600,2017/07/27 18:37:20,10,22.055,9007.503928,23.622048,2.5053728,17.68779584,175.9,0,0,1024,1024,1222,1024,0,0,69,3.659,3.693,3.7,3.678,3.712,3.67,6,GPS_Atti
37.61327558,-119.0210499,9007.832012,23.950132,0,17.24954123,144700,2017/07/27 18:37:20,10,22.055,9007.832012,23.950132,2.5053728,17.68779584,176,0,0,1024,1024,1220,1024,0,0,69,3.659,3.693,3.7,3.678,3.712,3.67,6,GPS_Atti
37.61327565,-119.0210499,9008.160096,24.278216,0,17.22644412,144800,2017/07/27 18:37:20,10,22.055,9008.160096,24.278216,2.5053728,17.68779584,176,0,0,1024,1024,1220,1024,0,0,69,3.659,3.693,3.7,3.678,3.712,3.67,6,GPS_Atti
37.6132757,-119.02105,9008.160096,24.278216,0,17.21046643,144900,2017/07/27 18:37:20,10,22.055,9008.160096,24.278216,2.5053728,17.68779584,176.1,0,0,1024,1024,1221,1024,0,0,69,3.659,3.693,3.7,3.678,3.712,3.67,6,GPS_Atti
37.6132757,-119.02105,9008.48818,24.6063,0,17.21259898,145000,2017/07/27 18:37:20,10,22.033,9008.48818,24.6063,2.5053728,17.68779584,176.2,0,0,1024,1024,1222,1024,0,0,69,3.65,3.665,3.69,3.666,3.708,3.654,6,GPS_Atti
37.61327571,-119.0210501,9008.816264,24.934384,0,17.21082732,145100,2017/07/27 18:37:20,10,22.033,9008.816264,24.934384,2.5053728,17.68779584,176.3,0,0,1024,1024,1224,1024,0,0,69,3.65,3.665,3.69,3.666,3.708,3.654,6,GPS_Atti
37.61327575,-119.0210501,9008.816264,24.934384,0,17.19990213,145200,2017/07/27 18:37:20,10,22.033,9008.816264,24.934384,2.5053728,17.68779584,176.2,0,0,1024,1024,1224,1024,0,0,69,3.65,3.665,3.69,3.666,3.708,3.654,6,GPS_Atti
37.61327577,-119.0210501,9009.144348,25.262468,0,17.19399661,145300,2017/07/27 18:37:20,10,22.033,9009.144348,25.262468,2.5053728,17.68779584,176.1,0,0,1024,1024,1223,1024,0,0,69,3.65,3.665,3.69,3.666,3.708,3.654,6,GPS_Atti
37.61327576,-119.0210501,9009.472432,25.590552,0,17.19763835,145400,2017/07/27 18:37:20,10,22.033,9009.472432,25.590552,2.5053728,17.68779584,176,0,0,1024,1024,1224,1024,0,0,69,3.65,3.665,3.69,3.666,3.708,3.654,6,GPS_Atti
37.61327574,-119.0210501,9009.800516,25.918636,0,17.20662785,145500,2017/07/27 18:37:21,10,22.033,9009.800516,25.918636,2.5053728,17.68779584,175.9,0,0,1024,1024,1224,1024,0,0,69,3.65,3.665,3.69,3.666,3.708,3.654,6,GPS_Atti
37.61327568,-119.0210501,9009.800516,25.918636,0,17.22513178,145600,2017/07/27 18:37:21,10,22.033,9009.800516,25.918636,2.5053728,17.68779584,175.9,0,0,1024,1024,1223,1024,0,0,69,3.65,3.665,3.69,3.666,3.708,3.654,6,GPS_Atti
37.61327562,-119.0210501,9010.1286,26.24672,0,17.24626039,145700,2017/07/27 18:37:21,10,22.033,9010.1286,26.24672,2.5053728,17.68779584,175.9,0,0,1024,1024,1224,1024,0,0,69,3.65,3.665,3.69,3.666,3.708,3.654,6,GPS_Atti
37.61327558,-119.0210502,9010.456684,26.574804,0,17.26715935,145800,2017/07/27 18:37:21,10,22.033,9010.456684,26.574804,2.5053728,17.68779584,175.8,0,0,1024,1024,1229,1024,0,0,69,3.65,3.665,3.69,3.666,3.708,3.654,6,GPS_Atti
37.61327553,-119.0210502,9010.784768,26.902888,0,17.28549924,145900,2017/07/27 18:37:21,10,22.033,9010.784768,26.902888,2.5053728,17.68779584,175.8,0,0,1024,1024,1236,1024,0,0,69,3.65,3.665,3.69,3.666,3.708,3.654,6,GPS_Atti
37.6132755,-119.0210502,9010.784768,26.902888,0,17.29524334,146000,2017/07/27 18:37:21,10,22.03,9010.784768,26.902888,2.5053728,17.68779584,175.8,0,0,1024,1024,1239,1024,0,0,69,3.646,3.68,3.663,3.679,3.711,3.652,6,GPS_Atti
37.61327546,-119.0210502,9011.112852,27.230972,0,17.3083995,146100,2017/07/27 18:37:21,10,22.03,9011.112852,27.230972,2.5053728,17.68779584,175.9,0,0,1024,1024,1241,1024,0,0,69,3.646,3.68,3.663,3.679,3.711,3.652,6,GPS_Atti
37.61327541,-119.0210502,9011.112852,27.230972,0,17.32903599,146200,2017/07/27 18:37:21,10,22.03,9011.112852,27.230972,2.5053728,17.68779584,176,0,0,1024,1024,1239,1024,0,0,69,3.646,3.68,3.663,3.679,3.711,3.652,6,GPS_Atti
37.61327534,-119.0210503,9011.440936,27.559056,0,17.35633258,146300,2017/07/27 18:37:21,10,22.03,9011.440936,27.559056,2.5053728,17.68779584,176.1,0,0,1024,1024,1241,1024,0,0,69,3.646,3.68,3.663,3.679,3.711,3.652,6,GPS_Atti
37.61327524,-119.0210503,9011.440936,27.559056,0,17.39763835,146400,2017/07/27 18:37:22,10,22.03,9011.440936,27.559056,2.5053728,17.68779584,176.2,0,0,1024,1024,1241,1024,0,0,69,3.646,3.68,3.663,3.679,3.711,3.652,6,GPS_Atti
37.61327516,-119.0210504,9011.76902,27.88714,0,17.42496775,146500,2017/07/27 18:37:22,10,22.03,9011.76902,27.88714,2.5053728,17.68779584,176.1,0,0,1024,1024,1242,1024,0,0,69,3.646,3.68,3.663,3.679,3.711,3.652,6,GPS_Atti
37.61327515,-119.0210503,9012.097104,28.215224,0,17.42795331,146600,2017/07/27 18:37:22,10,22.03,9012.097104,28.215224,2.5053728,17.68779584,176.1,0,0,1024,1024,1242,1024,0,0,69,3.646,3.68,3.663,3.679,3.711,3.652,6,GPS_Atti
37.61327513,-119.0210503,9012.097104,28.215224,0,17.43605699,146700,2017/07/27 18:37:22,10,22.03,9012.097104,28.215224,2.5053728,17.68779584,176.1,0,0,1024,1024,1241,1024,0,0,69,3.646,3.68,3.663,3.679,3.711,3.652,6,GPS_Atti
37.61327508,-119.0210504,9012.425188,28.543308,0,17.45584045,146800,2017/07/27 18:37:22,10,22.03,9012.425188,28.543308,2.5053728,17.68779584,176.2,0,0,1024,1024,1240,1024,0,0,69,3.646,3.68,3.663,3.679,3.711,3.652,6,GPS_Atti
