latitude,longitude,altitude(feet),ascent(feet),speed(mph),distance(feet),time(millisecond),datetime(utc),satellites,voltage(v),max_altitude(feet),max_ascent(feet),max_speed(mph),max_distance(feet),compass_heading(degrees),isPhoto,isVideo,rc_elevator,rc_aileron,rc_throttle,rc_rudder,gimbal_heading(degrees),gimbal_pitch(degrees),battery_percent,voltageCell1,voltageCell2,voltageCell3,voltageCell4,voltageCell5,voltageCell6,flycStateRaw,flycState,message
37.61333541,-119.0210382,8983.899502,0,0,0,100,2017/07/27 18:55:25,10,0,8983.899502,0,0,0,180.5,0,0,364,1684,364,364,0,0,96,4.285,4.291,4.289,4.278,4.281,4.273,6,GPS_Atti,
37.6133354,-119.0210382,8983.899502,0,0,0.00329918,200,2017/07/27 18:55:25,10,0,8983.899502,0,0,0.00329918,180.5,0,0,364,1684,364,364,0,0,96,4.285,4.291,4.289,4.278,4.281,4.273,6,GPS_Atti,
37.6133354,-119.0210382,8983.899502,0,0,0.004259744,300,2017/07/27 18:55:25,10,0,8983.899502,0,0,0.004259744,180.5,0,0,364,1684,364,364,0,0,96,4.285,4.291,4.289,4.278,4.281,4.273,6,GPS_Atti,
37.6133354,-119.0210382,8983.899502,0,0,0.004746522,400,2017/07/27 18:55:25,10,0,8983.899502,0,0,0.004746522,180.5,0,0,551,1561,450,364,0,0,96,4.285,4.291,4.289,4.278,4.281,4.273,6,GPS_Atti,
37.6133354,-119.0210381,8983.899502,0,0,0.005666503,500,2017/07/27 18:55:25,10,0,8983.899502,0,0,0.005666503,180.5,0,0,905,1085,826,772,0,0,96,4.285,4.291,4.289,4.278,4.281,4.273,6,GPS_Atti,
37.61333539,-119.0210381,8983.899502,0,0,0.008127133,600,2017/07/27 18:55:25,10,0,8983.899502,0,0,0.008127133,180.5,0,0,1024,1024,1024,1024,0,0,96,4.285,4.291,4.289,4.278,4.281,4.273,6,GPS_Atti,
37.61333538,-119.0210381,8983.899502,0,0,0.011548655,700,2017/07/27 18:55:25,10,0,8983.899502,0,0,0.011548655,180.5,0,0,1024,1024,1024,1024,0,0,96,4.285,4.291,4.289,4.278,4.281,4.273,6,GPS_Atti,
37.61333537,-119.0210381,8983.899502,0,0,0.015705775,800,2017/07/27 18:55:25,10,0,8983.899502,0,0,0.015705775,180.5,0,0,1024,1024,1024,1024,0,0,96,4.285,4.291,4.289,4.278,4.281,4.273,6,GPS_Atti,
37.61333536,-119.0210381,8983.899502,0,0,0.021314305,900,2017/07/27 18:55:25,10,0,8983.899502,0,0,0.021314305,180.5,0,0,1024,1024,1024,1024,0,0,96,4.285,4.291,4.289,4.278,4.281,4.273,6,GPS_Atti,
37.61333534,-119.0210381,8983.899502,0,0,0.028133761,1000,2017/07/27 18:55:26,10,25.697,8983.899502,0,0,0.028133761,180.5,0,0,1024,1024,1024,1024,0,0,96,4.285,4.291,4.289,4.278,4.281,4.273,6,GPS_Atti,
37.61333532,-119.0210381,8983.899502,0,0,0.035201773,1100,2017/07/27 18:55:26,10,25.697,8983.899502,0,0,0.035201773,180.5,0,0,1024,1024,1024,1024,0,0,96,4.285,4.291,4.289,4.278,4.281,4.273,6,GPS_Atti,
37.6133353,-119.0210381,8983.899502,0,0,0.041658794,1200,2017/07/27 18:55:26,10,25.697,8983.899502,0,0,0.041658794,180.5,0,0,1024,1024,1024,1024,0,0,96,4.285,4.291,4.289,4.278,4.281,4.273,6,GPS_Atti,
37.61333528,-119.0210381,8983.899502,0,0,0.04765092,1300,2017/07/27 18:55:26,10,25.697,8983.899502,0,0,0.04765092,180.5,0,0,1024,1024,1024,1024,0,0,96,4.285,4.291,4.289,4.278,4.281,4.273,6,GPS_Atti,
37.61333527,-119.0210381,8983.899502,0,0,0.051978676,1400,2017/07/27 18:55:26,10,25.697,8983.899502,0,0,0.051978676,180.5,0,0,1024,1024,1024,1024,0,0,96,4.285,4.291,4.289,4.278,4.281,4.273,6,GPS_Atti,
37.61333527,-119.0210381,8983.899502,0,0,0.054244752,1500,2017/07/27 18:55:26,10,25.697,8983.899502,0,0,0.054244752,180.5,0,0,1024,1024,1024,1024,0,0,96,4.285,4.291,4.289,4.278,4.281,4.273,6,GPS_Atti,
37.61333526,-119.0210381,8983.899502,0,0,0.056484582,1600,2017/07/27 18:55:26,10,25.697,8983.899502,0,0,0.056484582,180.5,0,0,1024,1024,1024,1024,0,0,96,4.285,4.291,4.289,4.278,4.281,4.273,6,GPS_Atti,
37.61333525,-119.0210382,8983.899502,0,0,0.057485238,1700,2017/07/27 18:55:26,10,25.697,8983.899502,0,0,0.057485238,180.5,0,0,1024,1024,1024,1024,0,0,96,4.285,4.291,4.289,4.278,4.281,4.273,6,GPS_Atti,
37.61333525,-119.0210382,8983.899502,0,0,0.06023655,1800,2017/07/27 18:55:26,10,25.697,8983.899502,0,0,0.06023655,180.5,0,0,1024,1024,1024,1024,0,0,96,4.285,4.291,4.289,4.278,4.281,4.273,6,GPS_Atti,
37.61333523,-119.0210382,8983.899502,0,0,0.066028874,1900,2017/07/27 18:55:26,10,25.697,8983.899502,0,0,0.066028874,180.5,0,0,1024,1024,1024,1024,0,0,96,4.285,4.291,4.289,4.278,4.281,4.273,6,GPS_Atti,
37.61333521,-119.0210382,8983.899502,0,0,0.073055777,2000,2017/07/27 18:55:27,9,25.697,8983.899502,0,0,0.073055777,180.5,0,0,1024,1024,1024,1024,0,0,96,4.286,4.29,4.289,4.278,4.281,4.274,10,Assisted_Takeoff,
37.6133352,-119.0210382,8983.899502,0,0,0.07891995,2100,2017/07/27 18:55:27,9,25.697,8983.899502,0,0,0.07891995,180.5,0,0,1024,1024,1024,1024,0,0,96,4.286,4.29,4.289,4.278,4.281,4.274,10,Assisted_Takeoff,Return-to-Home Altitude:98FT
37.61333519,-119.0210382,8983.899502,0,0,0.082698165,2200,2017/07/27 18:55:27,9,25.697,8983.899502,0,0,0.082698165,180.5,0,0,1024,1024,1024,1024,0,0,96,4.286,4.29,4.289,4.278,4.281,4.274,10,Assisted_Takeoff,
37.61333519,-119.0210382,8983.899502,0,0,0.085432089,2300,2017/07/27 18:55:27,9,25.697,8983.899502,0,0,0.085432089,180.5,0,0,1024,1024,1026,1024,0,0,96,4.286,4.29,4.289,4.278,4.281,4.274,10,Assisted_Takeoff,
37.61333518,-119.0210382,8983.899502,0,0,0.088810698,2400,2017/07/27 18:55:27,9,25.697,8983.899502,0,0,0.088810698,180.5,0,0,1024,1024,1037,1024,0,0,96,4.286,4.29,4.289,4.278,4.281,4.274,10,Assisted_Takeoff,
37.61333517,-119.0210382,8983.899502,0,0,0.092268376,2500,2017/07/27 18:55:27,9,25.697,8983.899502,0,0,0.092268376,180.5,0,0,1024,1024,1065,1024,0,0,96,4.286,4.29,4.289,4.278,4.281,4.274,10,Assisted_Takeoff,
37.61333516,-119.0210382,8983.899502,0,0,0.094734583,2600,2017/07/27 18:55:27,9,25.697,8983.899502,0,0,0.094734583,180.5,0,0,1024,1024,1074,1024,0,0,96,4.286,4.29,4.289,4.278,4.281,4.274,10,Assisted_Takeoff,
37.61333516,-119.0210382,8983.899502,0,0,0.096690948,2700,2017/07/27 18:55:27,9,25.697,8983.899502,0,0,0.096690948,180.5,0,0,1024,1024,1103,1024,0,0,96,4.286,4.29,4.289,4.278,4.281,4.274,10,Assisted_Takeoff,
37.61333515,-119.0210382,8983.899502,0,0,0.099419623,2800,2017/07/27 18:55:27,9,25.697,8983.899502,0,0,0.099419623,180.5,0,0,1024,1024,1116,1024,0,0,96,4.286,4.29,4.289,4.278,4.281,4.274,10,Assisted_Takeoff,
37.61333514,-119.0210382,8983.899502,0,0,0.101741473,2900,2017/07/27 18:55:27,9,25.697,8983.899502,0,0,0.101741473,180.5,0,0,1024,1024,1117,1024,0,0,96,4.286,4.29,4.289,4.278,4.281,4.274,10,Assisted_Takeoff,
37.61333513,-119.0210382,8983.899502,0,0,0.105082352,3000,2017/07/27 18:55:28,9,25.669,8983.899502,0,0,0.105082352,180.5,0,0,1024,1024,1117,1024,0,0,96,4.281,4.286,4.285,4.273,4.275,4.267,10,Assisted_Takeoff,
37.61333512,-119.0210382,8983.899502,0,0,0.108677169,3100,2017/07/27 18:55:28,9,25.669,8983.899502,0,0,0.108677169,180.5,0,0,1024,1024,1120,1024,0,0,96,4.281,4.286,4.285,4.273,4.275,4.267,10,Assisted_Takeoff,
37.61333511,-119.0210382,8983.899502,0,0,0.11189961,3200,2017/07/27 18:55:28,9,25.669,8983.899502,0,0,0.11189961,180.5,0,0,1024,1024,1120,1024,0,0,96,4.281,4.286,4.285,4.273,4.275,4.267,10,Assisted_Takeoff,
37.6133351,-119.0210383,8983.899502,0,0,0.117948167,3400,2017/07/27 18:55:28,9,25.669,8983.899502,0,0,0.117948167,180.5,0,0,1024,1024,1114,1024,0,0,96,4.281,4.286,4.285,4.273,4.275,4.267,10,Assisted_Takeoff,
37.61333508,-119.0210383,8983.899502,0,0,0.123789374,3600,2017/07/27 18:55:28,9,25.669,8983.899502,0,0,0.123789374,180.5,0,0,1024,1024,1130,1024,0,0,96,4.281,4.286,4.285,4.273,4.275,4.267,10,Assisted_Takeoff,
37.61333507,-119.0210383,8983.899502,0,0,0.126651251,3700,2017/07/27 18:55:28,9,25.669,8983.899502,0,0,0.126651251,180.5,0,0,1024,1024,1143,1024,0,0,96,4.281,4.286,4.285,4.273,4.275,4.267,10,Assisted_Takeoff,
37.61333507,-119.0210383,8983.899502,0,0,0.128552169,3800,2017/07/27 18:55:28,9,25.669,8983.899502,0,0,0.128552169,180.5,0,0,1024,1024,1150,1024,0,0,96,4.281,4.286,4.285,4.273,4.275,4.267,10,Assisted_Takeoff,
37.61333507,-119.0210383,8983.899502,0,0,0.130058075,3900,2017/07/27 18:55:28,9,25.669,8983.899502,0,0,0.130058075,180.5,0,0,1024,1024,1157,1024,0,0,96,4.281,4.286,4.285,4.273,4.275,4.267,10,Assisted_Takeoff,
37.61333507,-119.0210383,8983.899502,0,0,0.130114505,4000,2017/07/27 18:55:28,9,25.669,8983.899502,0,0,0.130114505,180.5,0,0,1024,1024,1167,1024,0,0,96,4.281,4.286,4.285,4.273,4.275,4.267,10,Assisted_Takeoff,
37.61333508,-119.0210383,8983.899502,0,0,0.12788091,4100,2017/07/27 18:55:29,9,25.669,8983.899502,0,0,0.130114505,180.5,0,0,1024,1024,1169,1024,0,0,96,4.281,4.286,4.285,4.273,4.275,4.267,10,Assisted_Takeoff,
37.61333509,-119.0210383,8983.899502,0,0,0.123107615,4200,2017/07/27 18:55:29,9,25.558,8983.899502,0,0,0.130114505,180.5,0,0,1024,1024,1172,1024,0,0,96,4.248,4.254,4.235,4.227,4.249,4.228,10,Assisted_Takeoff,
37.61333511,-119.0210383,8983.899502,0,0,0.115198495,4300,2017/07/27 18:55:29,9,25.558,8983.899502,0,0,0.130114505,180.2,0,0,1024,1024,1176,1024,0,0,96,4.248,4.254,4.235,4.227,4.249,4.228,10,Assisted_Takeoff,
37.61333512,-119.0210382,8983.899502,0,0,0.109453744,4400,2017/07/27 18:55:29,9,25.558,8983.899502,0,0,0.130114505,179.8,0,0,1024,1024,1180,1024,0,0,96,4.248,4.254,4.235,4.227,4.249,4.228,10,Assisted_Takeoff,
37.61333512,-119.0210382,8983.899502,0,0.223694,0.107377956,4500,2017/07/27 18:55:29,9,25.558,8983.899502,0,0.223694,0.130114505,179.3,0,0,1024,1025,1180,1024,0,0,96,4.248,4.254,4.235,4.227,4.249,4.228,10,Assisted_Takeoff,
37.61333513,-119.021038,8983.899502,0,0.447388,0.11796982,4600,2017/07/27 18:55:29,9,25.558,8983.899502,0,0.447388,0.130114505,178.8,0,0,1024,1090,1179,1024,0,0,96,4.248,4.254,4.235,4.227,4.249,4.228,6,GPS_Atti,
37.61333517,-119.0210376,8983.899502,0,0.671082,0.172012473,4700,2017/07/27 18:55:29,9,25.558,8983.899502,0,0.671082,0.172012473,178.8,0,0,1024,1092,1179,1024,0,0,96,4.248,4.254,4.235,4.227,4.249,4.228,6,GPS_Atti,
37.61333524,-119.0210372,8983.899502,0,0.7158208,0.274478683,4800,2017/07/27 18:55:29,10,25.558,8983.899502,0,0.7158208,0.274478683,178.8,0,0,1024,1085,1176,1024,0,0,96,4.248,4.254,4.235,4.227,4.249,4.228,6,GPS_Atti,
37.61333531,-119.0210368,8983.899502,0,0.7158208,0.387828096,4900,2017/07/27 18:55:29,10,25.558,8983.899502,0,0.7158208,0.387828096,179.1,0,0,1024,1073,1176,1024,0,0,96,4.248,4.254,4.235,4.227,4.249,4.228,6,GPS_Atti,
37.61333538,-119.0210365,8983.899502,0,0.4921268,0.482542666,5000,2017/07/27 18:55:29,10,25.558,8983.899502,0,0.7158208,0.482542666,179.3,0,0,1024,1066,1176,1024,0,0,96,4.248,4.254,4.235,4.227,4.249,4.228,6,GPS_Atti,
37.61333543,-119.0210362,8984.227586,0.328084,0.4921268,0.555236238,5100,2017/07/27 18:55:30,10,25.558,8984.227586,0.328084,0.7158208,0.555236238,179.4,0,0,1024,1068,1180,1024,0,0,96,4.248,4.254,4.235,4.227,4.249,4.228,6,GPS_Atti,
37.61333547,-119.021036,8984.227586,0.328084,0.4921268,0.631781516,5200,2017/07/27 18:55:30,10,24.57,8984.227586,0.328084,0.7158208,0.631781516,179.4,0,0,1024,1067,1182,1024,0,0,96,4.11,4.117,4.035,4.042,4.038,4.041,6,GPS_Atti,
37.6133355,-119.0210357,8984.55567,0.656168,0.4921268,0.714107634,5300,2017/07/27 18:55:30,10,24.57,8984.55567,0.656168,0.7158208,0.714107634,179.4,0,0,1024,1079,1184,1024,0,0,96,4.11,4.117,4.035,4.042,4.038,4.041,6,GPS_Atti,
37.61333552,-119.0210354,8984.55567,0.656168,0.447388,0.797260524,5400,2017/07/27 18:55:30,10,24.57,8984.55567,0.656168,0.7158208,0.797260524,179.3,0,0,1024,1090,1185,1024,0,0,96,4.11,4.117,4.035,4.042,4.038,4.041,6,GPS_Atti,
37.61333553,-119.0210351,8984.883754,0.984252,0.447388,0.879356984,5500,2017/07/27 18:55:30,10,24.57,8984.883754,0.984252,0.7158208,0.879356984,179.2,0,0,1024,1093,1184,1024,0,0,96,4.11,4.117,4.035,4.042,4.038,4.041,6,GPS_Atti,
37.61333556,-119.0210348,8984.883754,0.984252,0.223694,0.961945569,5600,2017/07/27 18:55:30,10,24.57,8984.883754,0.984252,0.7158208,0.961945569,179,0,0,1024,1092,1184,1024,0,0,96,4.11,4.117,4.035,4.042,4.038,4.041,6,GPS_Atti,
37.61333562,-119.0210346,8984.883754,0.984252,0.223694,1.038802527,5700,2017/07/27 18:55:30,10,24.57,8984.883754,0.984252,0.7158208,1.038802527,179,0,0,1024,1087,1185,1024,0,0,96,4.11,4.117,4.035,4.042,4.038,4.041,6,GPS_Atti,
37.61333568,-119.0210344,8985.211838,1.312336,0.223694,1.097395048,5800,2017/07/27 18:55:30,10,24.57,8985.211838,1.312336,0.7158208,1.097395048,179.1,0,0,1024,1087,1185,1024,0,0,96,4.11,4.117,4.035,4.042,4.038,4.041,6,GPS_Atti,
37.61333575,-119.0210342,8985.211838,1.312336,0.223694,1.139176546,5900,2017/07/27 18:55:30,10,24.57,8985.211838,1.312336,0.7158208,1.139176546,179.3,0,0,1025,1086,1183,1024,0,0,96,4.11,4.117,4.035,4.042,4.038,4.041,6,GPS_Atti,
37.61333584,-119.0210341,8985.539922,1.64042,0.223694,1.171460011,6000,2017/07/27 18:55:30,10,24.57,8985.539922,1.64042,0.7158208,1.171460011,179.3,0,0,1030,1075,1181,1024,0,0,96,4.11,4.117,4.035,4.042,4.038,4.041,6,GPS_Atti,
37.61333596,-119.0210341,8985.539922,1.64042,0.223694,1.1912566,6100,2017/07/27 18:55:31,10,24.57,8985.539922,1.64042,0.7158208,1.1912566,179.2,0,0,1037,1072,1181,1024,0,0,96,4.11,4.117,4.035,4.042,4.038,4.041,6,GPS_Atti,
37.61333614,-119.0210341,8985.868006,1.968504,0.223694,1.209425892,6200,2017/07/27 18:55:31,11,23.803,8985.868006,1.968504,0.7158208,1.209425892,179,0,0,1050,1063,1176,1024,0,0,96,4.11,4.117,4.035,4.042,4.038,4.041,6,GPS_Atti,
37.61333636,-119.0210341,8985.868006,1.968504,0.447388,1.229242165,6300,2017/07/27 18:55:31,11,23.803,8985.868006,1.968504,0.7158208,1.229242165,178.8,0,0,1093,1041,1177,1024,0,0,96,4.11,4.117,4.035,4.042,4.038,4.041,6,GPS_Atti,
37.61333658,-119.0210341,8986.19609,2.296588,0.4921268,1.248733636,6400,2017/07/27 18:55:31,11,23.803,8986.19609,2.296588,0.7158208,1.248733636,178.6,0,0,1101,1031,1176,1024,0,0,96,4.11,4.117,4.035,4.042,4.038,4.041,6,GPS_Atti,
37.61333681,-119.0210341,8986.19609,2.296588,0.4921268,1.267201484,6500,2017/07/27 18:55:31,11,23.803,8986.19609,2.296588,0.7158208,1.267201484,178.5,0,0,1101,1041,1174,1024,0,0,96,4.11,4.117,4.035,4.042,4.038,4.041,6,GPS_Atti,
37.61333702,-119.0210342,8986.524174,2.624672,0.3131716,1.29409781,6600,2017/07/27 18:55:31,11,23.803,8986.524174,2.624672,0.7158208,1.29409781,178.5,0,0,1086,1052,1174,1024,0,0,96,4.11,4.117,4.035,4.042,4.038,4.041,6,GPS_Atti,
37.61333718,-119.0210341,8986.852258,2.952756,0.223694,1.327782195,6700,2017/07/27 18:55:31,11,23.803,8986.852258,2.952756,0.7158208,1.327782195,178.5,0,0,1057,1060,1175,1024,0,0,96,4.11,4.117,4.035,4.042,4.038,4.041,6,GPS_Atti,
37.61333732,-119.0210341,8986.852258,2.952756,0,1.366752012,6800,2017/07/27 18:55:31,11,23.803,8986.852258,2.952756,0.7158208,1.366752012,178.6,0,0,1050,1061,1175,1024,0,0,96,4.11,4.117,4.035,4.042,4.038,4.041,6,GPS_Atti,
37.61333746,-119.021034,8987.180342,3.28084,0,1.409527604,6900,2017/07/27 18:55:31,11,23.803,8987.180342,3.28084,0.7158208,1.409527604,178.8,0,0,1044,1062,1182,1024,0,0,96,4.11,4.117,4.035,4.042,4.038,4.041,6,GPS_Atti,
37.61333758,-119.021034,8987.180342,3.28084,0,1.426466581,7000,2017/07/27 18:55:32,11,23.803,8987.180342,3.28084,0.7158208,1.426466581,178.9,0,0,1043,1062,1185,1024,0,0,96,4.11,4.117,4.035,4.042,4.038,4.041,6,GPS_Atti,
37.61333758,-119.021034,8987.180342,3.28084,0,1.426466581,7000,2017/07/27 18:55:32,11,23.803,8987.180342,3.28084,0.7158208,1.426466581,178.9,0,0,1043,1062,1185,1024,0,0,96,4.11,4.117,4.035,4.042,4.038,4.041,6,GPS_Atti,
37.61333769,-119.0210342,8987.180342,3.28084,0,1.423966581,7100,2017/07/27 18:55:32,11,23.803,8987.180342,3.28084,0.7158208,1.426466581,179.1,0,0,1029,1074,1189,1024,0,0,96,3.963,3.975,3.963,3.957,3.965,3.947,6,GPS_Atti,
37.61333787,-119.0210342,8987.508426,3.608924,0.223694,1.451735611,7200,2017/07/27 18:55:32,11,23.803,8987.508426,3.608924,0.7158208,1.451735611,179.2,0,0,1032,1066,1195,1024,0,0,96,3.963,3.975,3.963,3.957,3.965,3.947,6,GPS_Atti,
37.61333809,-119.0210342,8987.508426,3.608924,0.223694,1.50516409,7300,2017/07/27 18:55:32,11,23.803,8987.508426,3.608924,0.7158208,1.50516409,179.3,0,0,1039,1048,1193,1024,0,0,96,3.963,3.975,3.963,3.957,3.965,3.947,6,GPS_Atti,
37.61333858,-119.0210345,8987.83651,3.937008,0.3131716,1.566725772,7500,2017/07/27 18:55:32,11,23.803,8987.83651,3.937008,0.7158208,1.566725772,179.2,0,0,1040,1040,1193,1024,0,0,96,3.963,3.975,3.963,3.957,3.965,3.947,6,GPS_Atti,
37.61333882,-119.0210347,8988.164594,4.265092,0.3131716,1.593461337,7600,2017/07/27 18:55:32,11,23.803,8988.164594,4.265092,0.7158208,1.593461337,179.1,0,0,1039,1024,1196,1024,0,0,96,3.963,3.975,3.963,3.957,3.965,3.947,6,GPS_Atti,
37.61333903,-119.0210349,8988.164594,4.265092,0.3131716,1.623513831,7700,2017/07/27 18:55:32,11,23.803,8988.164594,4.265092,0.7158208,1.623513831,178.9,0,0,1040,1024,1197,1024,0,0,96,3.963,3.975,3.963,3.957,3.965,3.947,6,GPS_Atti,
37.61333927,-119.021035,8988.492678,4.593176,0.3131716,1.671200841,7800,2017/07/27 18:55:32,11,23.803,8988.492678,4.593176,0.7158208,1.671200841,178.6,0,0,1037,1024,1199,1024,0,0,96,3.963,3.975,3.963,3.957,3.965,3.947,6,GPS_Atti,
37.61333982,-119.0210352,8988.820762,4.92126,0.447388,1.816466594,8000,2017/07/27 18:55:33,11,23.803,8988.820762,4.92126,0.7158208,1.816466594,178.3,0,0,1036,1024,1199,1024,0,0,96,3.963,3.975,3.963,3.957,3.965,3.947,6,GPS_Atti,
37.61334011,-119.0210353,8989.148846,5.249344,0.447388,1.906030245,8100,2017/07/27 18:55:33,11,23.803,8989.148846,5.249344,0.7158208,1.906030245,178.4,0,0,1037,1024,1196,1024,0,0,96,3.963,3.975,3.963,3.957,3.965,3.947,6,GPS_Atti,
37.61334035,-119.0210353,8989.47693,5.577428,0.223694,1.979606363,8200,2017/07/27 18:55:33,11,23.803,8989.47693,5.577428,0.7158208,1.979606363,178.5,0,0,1037,1024,1191,1024,0,0,96,3.963,3.975,3.963,3.957,3.965,3.947,6,GPS_Atti,
37.61334054,-119.0210354,8989.47693,5.577428,0.223694,2.038139829,8300,2017/07/27 18:55:33,11,23.496,8989.47693,5.577428,0.7158208,2.038139829,178.8,0,0,1041,1024,1191,1024,0,0,96,3.893,3.934,3.931,3.924,3.933,3.896,6,GPS_Atti,
37.61334071,-119.0210354,8989.805014,5.905512,0.223694,2.094002692,8400,2017/07/27 18:55:33,11,23.496,8989.805014,5.905512,0.7158208,2.094002692,179.1,0,0,1046,1024,1200,1024,0,0,96,3.893,3.934,3.931,3.924,3.933,3.896,6,GPS_Atti,
37.61334086,-119.0210353,8989.805014,5.905512,0.223694,2.147946263,8500,2017/07/27 18:55:33,11,23.496,8989.805014,5.905512,0.7158208,2.147946263,179.4,0,0,1045,1024,1198,1024,0,0,96,3.893,3.934,3.931,3.924,3.933,3.896,6,GPS_Atti,
37.61334102,-119.0210354,8989.805014,5.905512,0.223694,2.197857682,8600,2017/07/27 18:55:33,11,23.496,8989.805014,5.905512,0.7158208,2.197857682,179.7,0,0,1043,1024,1195,1024,0,0,96,3.893,3.934,3.931,3.924,3.933,3.896,6,GPS_Atti,
37.61334121,-119.0210355,8990.133098,6.233596,0.223694,2.248773038,8700,2017/07/27 18:55:33,11,23.496,8990.133098,6.233596,0.7158208,2.248773038,179.9,0,0,1039,1024,1192,1024,0,0,96,3.893,3.934,3.931,3.924,3.933,3.896,6,GPS_Atti,
37.6133414,-119.0210356,8990.133098,6.233596,0.447388,2.304494824,8800,2017/07/27 18:55:33,11,23.496,8990.133098,6.233596,0.7158208,2.304494824,179.9,0,0,1045,1024,1201,1024,0,0,96,3.893,3.934,3.931,3.924,3.933,3.896,6,GPS_Atti,
37.6133416,-119.0210358,8990.461182,6.56168,0.447388,2.363677897,8900,2017/07/27 18:55:33,11,23.496,8990.461182,6.56168,0.7158208,2.363677897,179.9,0,0,1045,1024,1199,1024,0,0,96,3.893,3.934,3.931,3.924,3.933,3.896,6,GPS_Atti,
37.61334184,-119.0210359,8990.789266,6.889764,0.447388,2.437362283,9000,2017/07/27 18:55:34,11,23.496,8990.789266,6.889764,0.7158208,2.437362283,179.8,0,0,1043,1045,1205,1024,0,0,96,3.893,3.934,3.931,3.924,3.933,3.896,6,GPS_Atti,
37.61334212,-119.021036,8990.789266,6.889764,0.447388,2.52347449,9100,2017/07/27 18:55:34,11,23.496,8990.789266,6.889764,0.7158208,2.52347449,179.6,0,0,1034,1075,1197,1024,0,0,96,3.893,3.934,3.931,3.924,3.933,3.896,6,GPS_Atti,
37.61334236,-119.0210361,8991.11735,7.217848,0.447388,2.602641159,9200,2017/07/27 18:55:34,11,23.496,8991.11735,7.217848,0.7158208,2.602641159,179.4,0,0,1042,1073,1078,1024,0,0,96,3.893,3.934,3.931,3.924,3.933,3.896,6,GPS_Atti,
37.61334258,-119.0210362,8991.445434,7.545932,0.447388,2.674649036,9300,2017/07/27 18:55:34,11,23.431,8991.445434,7.545932,0.7158208,2.674649036,179.2,0,0,1031,1041,1024,1024,0,0,96,3.895,3.93,3.915,3.919,3.922,3.9,6,GPS_Atti,
37.61334275,-119.0210363,8991.445434,7.545932,0.447388,2.732247463,9400,2017/07/27 18:55:34,11,23.431,8991.445434,7.545932,0.7158208,2.732247463,179.2,0,0,1024,1024,1024,1024,0,0,96,3.895,3.93,3.915,3.919,3.922,3.9,6,GPS_Atti,
37.61334289,-119.0210364,8991.773518,7.874016,0.4921268,2.77637148,9500,2017/07/27 18:55:34,11,23.431,8991.773518,7.874016,0.7158208,2.77637148,179.2,0,0,1024,1024,1024,1024,0,0,96,3.895,3.93,3.915,3.919,3.922,3.9,6,GPS_Atti,
37.61334306,-119.0210366,8991.773518,7.874016,0.4921268,2.830183818,9600,2017/07/27 18:55:34,11,23.431,8991.773518,7.874016,0.7158208,2.830183818,179.3,0,0,1024,1024,1024,1024,0,0,96,3.895,3.93,3.915,3.919,3.922,3.9,6,GPS_Atti,
37.61334325,-119.0210367,8991.773518,7.874016,0.4921268,2.892286838,9700,2017/07/27 18:55:34,11,23.431,8991.773518,7.874016,0.7158208,2.892286838,179.3,0,0,1024,1024,1047,1024,0,0,96,3.895,3.93,3.915,3.919,3.922,3.9,6,GPS_Atti,
37.61334347,-119.0210368,8991.773518,7.874016,0.447388,2.964261906,9800,2017/07/27 18:55:34,11,23.431,8991.773518,7.874016,0.7158208,2.964261906,179.4,0,0,1024,1024,1099,1024,0,0,96,3.895,3.93,3.915,3.919,3.922,3.9,6,GPS_Atti,
37.61334369,-119.0210369,8991.773518,7.874016,0.447388,3.042841305,9900,2017/07/27 18:55:34,11,23.431,8991.773518,7.874016,0.7158208,3.042841305,179.4,0,0,1024,1024,1123,1024,0,0,96,3.895,3.93,3.915,3.919,3.922,3.9,6,GPS_Atti,
37.61334391,-119.021037,8991.773518,7.874016,0.223694,3.118651675,10000,2017/07/27 18:55:35,11,23.431,8991.773518,7.874016,0.7158208,3.118651675,179.5,0,0,1024,1024,1145,1024,0,0,96,3.895,3.93,3.915,3.919,3.922,3.9,6,GPS_Atti,
37.61334411,-119.021037,8991.773518,7.874016,0.223694,3.190630023,10100,2017/07/27 18:55:35,11,23.431,8991.773518,7.874016,0.7158208,3.190630023,179.6,0,0,1024,1024,1144,1024,0,0,96,3.895,3.93,3.915,3.919,3.922,3.9,6,GPS_Atti,
37.61334428,-119.021037,8991.773518,7.874016,0.223694,3.253763227,10200,2017/07/27 18:55:35,11,23.431,8991.773518,7.874016,0.7158208,3.253763227,179.6,0,0,1024,1029,1142,1024,0,0,96,3.895,3.93,3.915,3.919,3.922,3.9,6,GPS_Atti,
37.61334444,-119.021037,8992.101602,8.2021,0.223694,3.310531602,10300,2017/07/27 18:55:35,11,23.416,8992.101602,8.2021,0.7158208,3.310531602,179.5,0,0,1024,1074,1143,1024,0,0,95,3.893,3.91,3.914,3.903,3.891,3.902,6,GPS_Atti,
37.61334458,-119.021037,8992.101602,8.2021,0.223694,3.360695646,10400,2017/07/27 18:55:35,11,23.416,8992.101602,8.2021,0.7158208,3.360695646,179.6,0,0,1024,1114,1142,1024,0,0,95,3.893,3.91,3.914,3.903,3.891,3.902,6,GPS_Atti,
37.61334471,-119.0210371,8992.101602,8.2021,0.223694,3.405085411,10500,2017/07/27 18:55:35,11,23.416,8992.101602,8.2021,0.7158208,3.405085411,179.6,0,0,1024,1099,1144,1024,0,0,95,3.893,3.91,3.914,3.903,3.891,3.902,6,GPS_Atti,
37.61334482,-119.0210372,8992.101602,8.2021,0.223694,3.446194336,10600,2017/07/27 18:55:35,11,23.416,8992.101602,8.2021,0.7158208,3.446194336,179.6,0,0,1024,1086,1139,1024,0,0,95,3.893,3.91,3.914,3.903,3.891,3.902,6,GPS_Atti,
37.61334495,-119.0210374,8992.101602,8.2021,0.4921268,3.487664154,10700,2017/07/27 18:55:35,11,23.416,8992.101602,8.2021,0.7158208,3.487664154,179.5,0,0,1024,1065,1141,1024,0,0,95,3.893,3.91,3.914,3.903,3.891,3.902,6,GPS_Atti,
37.61334508,-119.0210377,8992.101602,8.2021,0.7158208,3.529330822,10800,2017/07/27 18:55:35,11,23.416,8992.101602,8.2021,0.7158208,3.529330822,179.3,0,0,1024,1069,1145,1024,0,0,95,3.893,3.91,3.914,3.903,3.891,3.902,6,GPS_Atti,
37.6133452,-119.0210381,8992.101602,8.2021,0.7158208,3.572047358,10900,2017/07/27 18:55:35,11,23.416,8992.101602,8.2021,0.7158208,3.572047358,179.2,0,0,1024,1055,1146,1024,0,0,95,3.893,3.91,3.914,3.903,3.891,3.902,6,GPS_Atti,
37.61334534,-119.0210385,8992.101602,8.2021,0.7158208,3.625361008,11000,2017/07/27 18:55:36,11,23.416,8992.101602,8.2021,0.7158208,3.625361008,179,0,0,1024,1048,1112,1024,0,0,95,3.893,3.91,3.914,3.903,3.891,3.902,6,GPS_Atti,
37.6133455,-119.021039,8992.429686,8.530184,0.7158208,3.688549987,11100,2017/07/27 18:55:36,11,23.416,8992.429686,8.530184,0.7158208,3.688549987,178.9,0,0,1024,1051,1085,1024,0,0,95,3.893,3.91,3.914,3.903,3.891,3.902,6,GPS_Atti,
37.61334563,-119.0210394,8992.429686,8.530184,0.7158208,3.74363529,11200,2017/07/27 18:55:36,11,23.416,8992.429686,8.530184,0.7158208,3.74363529,178.9,0,0,1024,1066,1073,1024,0,0,95,3.893,3.91,3.914,3.903,3.891,3.902,6,GPS_Atti,
37.61334572,-119.0210398,8992.429686,8.530184,0.7158208,3.790321644,11300,2017/07/27 18:55:36,11,23.543,8992.429686,8.530184,0.7158208,3.790321644,178.9,0,0,1009,1109,1028,1024,0,0,95,3.904,3.926,3.894,3.92,3.915,3.883,6,GPS_Atti,
37.61334589,-119.0210401,8992.429686,8.530184,0.7158208,3.865157604,11400,2017/07/27 18:55:36,11,23.543,8992.429686,8.530184,0.7158208,3.865157604,178.9,0,0,971,1130,1024,1024,0,0,95,3.904,3.926,3.894,3.92,3.915,3.883,6,GPS_Atti,
37.61334612,-119.0210404,8992.429686,8.530184,0.7158208,3.963549996,11500,2017/07/27 18:55:36,11,23.543,8992.429686,8.530184,0.7158208,3.963549996,179,0,0,912,1134,1025,1024,0,0,95,3.904,3.926,3.894,3.92,3.915,3.883,6,GPS_Atti,
37.61334628,-119.0210408,8992.75777,8.858268,0.9171454,4.037631363,11600,2017/07/27 18:55:36,11,23.543,8992.75777,8.858268,0.9171454,4.037631363,179.1,0,0,900,1152,1029,1024,0,0,95,3.904,3.926,3.894,3.92,3.915,3.883,6,GPS_Atti,
37.61334638,-119.0210413,8992.75777,8.858268,1.006623,4.102952887,11700,2017/07/27 18:55:36,11,23.543,8992.75777,8.858268,1.006623,4.102952887,179.4,0,0,897,1117,1031,1024,0,0,95,3.904,3.926,3.894,3.92,3.915,3.883,6,GPS_Atti,
37.61334661,-119.0210419,8992.75777,8.858268,1.2974252,4.223654991,11800,2017/07/27 18:55:36,11,23.543,8992.75777,8.858268,1.2974252,4.223654991,179.6,0,0,938,1085,1034,1024,0,0,95,3.904,3.926,3.894,3.92,3.915,3.883,6,GPS_Atti,
37.61334699,-119.0210426,8992.75777,8.858268,1.6105968,4.4127298,11900,2017/07/27 18:55:36,11,23.543,8992.75777,8.858268,1.6105968,4.4127298,179.7,0,0,1005,1024,1039,1024,0,0,95,3.904,3.926,3.894,3.92,3.915,3.883,6,GPS_Atti,
37.61334747,-119.0210433,8992.75777,8.858268,1.9237684,4.647080201,12000,2017/07/27 18:55:37,11,23.543,8992.75777,8.858268,1.9237684,4.647080201,179.4,0,0,1024,1024,1047,1024,0,0,95,3.904,3.926,3.894,3.92,3.915,3.883,6,GPS_Atti,
37.61334803,-119.0210441,8992.75777,8.858268,2.0579848,4.916798058,12100,2017/07/27 18:55:37,11,23.543,8992.75777,8.858268,2.0579848,4.916798058,179.2,0,0,1024,1024,1066,1024,0,0,95,3.904,3.926,3.894,3.92,3.915,3.883,6,GPS_Atti,
37.61334868,-119.0210449,8992.75777,8.858268,1.901399,5.2165356,12200,2017/07/27 18:55:37,11,23.543,8992.75777,8.858268,2.0579848,5.2165356,179,0,0,1024,1024,1060,1024,0,0,95,3.904,3.926,3.894,3.92,3.915,3.883,6,GPS_Atti,
37.61334937,-119.0210455,8992.75777,8.858268,1.901399,5.519718024,12300,2017/07/27 18:55:37,11,23.279,8992.75777,8.858268,2.0579848,5.519718024,178.9,0,0,1024,1024,1070,1024,0,0,95,3.867,3.879,3.9,3.895,3.874,3.885,6,GPS_Atti,
37.61335046,-119.0210465,8992.75777,8.858268,1.4316416,5.992749536,12500,2017/07/27 18:55:37,11,23.279,8992.75777,8.858268,2.0579848,5.992749536,179,0,0,1024,1024,1073,1024,0,0,95,3.867,3.879,3.9,3.895,3.874,3.885,6,GPS_Atti,
37.61335088,-119.0210467,8992.75777,8.858268,1.11847,6.165945079,12600,2017/07/27 18:55:37,11,23.279,8992.75777,8.858268,2.0579848,6.165945079,179.1,0,0,999,1024,1057,1024,0,0,95,3.867,3.879,3.9,3.895,3.874,3.885,6,GPS_Atti,
37.61335156,-119.021047,8992.429686,8.530184,0.8052984,6.423983145,12800,2017/07/27 18:55:37,11,23.279,8992.75777,8.858268,2.0579848,6.423983145,179.4,0,0,992,1024,1059,1024,0,0,95,3.867,3.879,3.9,3.895,3.874,3.885,6,GPS_Atti,
37.61335183,-119.0210472,8992.429686,8.530184,0.7158208,6.538254802,12900,2017/07/27 18:55:37,11,23.279,8992.75777,8.858268,2.0579848,6.538254802,179.7,0,0,993,1024,1070,1024,0,0,95,3.867,3.879,3.9,3.895,3.874,3.885,6,GPS_Atti,
37.61335214,-119.0210475,8992.429686,8.530184,0.7158208,6.669225935,13000,2017/07/27 18:55:37,11,23.279,8992.75777,8.858268,2.0579848,6.669225935,180.1,0,0,981,1024,1068,1024,0,0,95,3.867,3.879,3.9,3.895,3.874,3.885,6,GPS_Atti,
37.61335248,-119.0210477,8992.75777,8.858268,0.7158208,6.816601268,13100,2017/07/27 18:55:38,11,23.279,8992.75777,8.858268,2.0579848,6.816601268,180.3,0,0,995,1024,1061,1024,0,0,95,3.867,3.879,3.9,3.895,3.874,3.885,6,GPS_Atti,
37.61335283,-119.0210481,8992.75777,8.858268,1.006623,6.970571089,13200,2017/07/27 18:55:38,11,23.279,8992.75777,8.858268,2.0579848,6.970571089,180.2,0,0,999,1024,1072,1024,0,0,95,3.867,3.879,3.9,3.895,3.874,3.885,6,GPS_Atti,
37.61335319,-119.0210484,8992.75777,8.858268,1.006623,7.130676081,13300,2017/07/27 18:55:38,11,23.279,8992.75777,8.858268,2.0579848,7.130676081,179.9,0,0,988,1024,1105,1024,0,0,95,3.867,3.879,3.9,3.895,3.874,3.885,6,GPS_Atti,
37.61335357,-119.0210487,8992.75777,8.858268,1.006623,7.289960863,13400,2017/07/27 18:55:38,11,23.279,8992.75777,8.858268,2.0579848,7.289960863,179.6,0,0,987,1024,1107,1024,0,0,95,3.867,3.879,3.9,3.895,3.874,3.885,6,GPS_Atti,
37.61335395,-119.0210489,8992.75777,8.858268,1.006623,7.44832701,13500,2017/07/27 18:55:38,11,23.414,8992.75777,8.858268,2.0579848,7.44832701,179.3,0,0,983,1024,1106,1024,0,0,95,3.881,3.911,3.905,3.905,3.897,3.878,6,GPS_Atti,
37.61335434,-119.0210492,8992.75777,8.858268,0.9171454,7.607283708,13600,2017/07/27 18:55:38,11,23.414,8992.75777,8.858268,2.0579848,7.607283708,179,0,0,984,1024,1106,1024,0,0,95,3.881,3.911,3.905,3.905,3.897,3.878,6,GPS_Atti,
37.61335473,-119.0210494,8992.75777,8.858268,0.9171454,7.76676534,13700,2017/07/27 18:55:38,11,23.414,8992.75777,8.858268,2.0579848,7.76676534,178.7,0,0,994,1024,1104,1024,0,0,95,3.881,3.911,3.905,3.905,3.897,3.878,6,GPS_Atti,
37.61335516,-119.0210496,8992.75777,8.858268,1.1408394,7.931135424,13800,2017/07/27 18:55:38,11,23.414,8992.75777,8.858268,2.0579848,7.931135424,178.5,0,0,994,1024,1103,1024,0,0,95,3.881,3.911,3.905,3.905,3.897,3.878,6,GPS_Atti,
37.6133556,-119.0210498,8992.75777,8.858268,1.1408394,8.101082936,13900,2017/07/27 18:55:38,11,23.414,8992.75777,8.858268,2.0579848,8.101082936,178.4,0,0,993,1024,1097,1024,0,0,95,3.881,3.911,3.905,3.905,3.897,3.878,6,GPS_Atti,
37.61335606,-119.02105,8992.75777,8.858268,1.1408394,8.279593441,14000,2017/07/27 18:55:38,11,23.414,8992.75777,8.858268,2.0579848,8.279593441,178.5,0,0,980,1024,1102,1024,0,0,95,3.881,3.911,3.905,3.905,3.897,3.878,6,GPS_Atti,
37.61335652,-119.0210503,8992.75777,8.858268,1.1408394,8.458727305,14100,2017/07/27 18:55:39,11,23.414,8992.75777,8.858268,2.0579848,8.458727305,178.6,0,0,974,1024,1105,1024,0,0,95,3.881,3.911,3.905,3.905,3.897,3.878,6,GPS_Atti,
37.61335699,-119.0210504,8992.75777,8.858268,1.1408394,8.635925473,14200,2017/07/27 18:55:39,11,23.414,8992.75777,8.858268,2.0579848,8.635925473,178.7,0,0,979,1024,1107,1024,0,0,95,3.881,3.911,3.905,3.905,3.897,3.878,6,GPS_Atti,
37.61335746,-119.0210506,8992.75777,8.858268,1.1408394,8.812467474,14300,2017/07/27 18:55:39,11,23.414,8992.75777,8.858268,2.0579848,8.812467474,178.9,0,0,958,997,1082,1024,0,0,95,3.881,3.911,3.905,3.905,3.897,3.878,6,GPS_Atti,
37.61335793,-119.0210507,8993.085854,9.186352,1.1408394,8.981201075,14400,2017/07/27 18:55:39,11,23.414,8993.085854,9.186352,2.0579848,8.981201075,179,0,0,958,951,1069,1024,0,0,95,3.881,3.911,3.905,3.905,3.897,3.878,6,GPS_Atti,
37.6133584,-119.0210508,8993.085854,9.186352,1.11847,9.148884807,14500,2017/07/27 18:55:39,11,23.257,8993.085854,9.186352,2.0579848,9.148884807,179.2,0,0,985,930,1066,1024,0,0,95,3.871,3.9,3.875,3.873,3.876,3.869,6,GPS_Atti,
37.61335891,-119.0210508,8993.085854,9.186352,1.342164,9.321981926,14600,2017/07/27 18:55:39,11,23.257,8993.085854,9.186352,2.0579848,9.321981926,179.4,0,0,1019,918,1056,1024,0,0,95,3.871,3.9,3.875,3.873,3.876,3.869,6,GPS_Atti,
37.61335943,-119.0210508,8993.413938,9.514436,1.342164,9.492946498,14700,2017/07/27 18:55:39,11,23.257,8993.413938,9.514436,2.0579848,9.492946498,179.6,0,0,1023,925,1041,1024,0,0,95,3.871,3.9,3.875,3.873,3.876,3.869,6,GPS_Atti,
37.61335994,-119.0210506,8993.413938,9.514436,1.3645334,9.646424193,14800,2017/07/27 18:55:39,11,23.257,8993.413938,9.514436,2.0579848,9.646424193,179.6,0,0,1024,939,1039,1024,0,0,95,3.871,3.9,3.875,3.873,3.876,3.869,6,GPS_Atti,
37.61336043,-119.0210503,8993.413938,9.514436,1.2079476,9.777821835,14900,2017/07/27 18:55:39,11,23.257,8993.413938,9.514436,2.0579848,9.777821835,179.6,0,0,1024,983,1031,1024,0,0,95,3.871,3.9,3.875,3.873,3.876,3.869,6,GPS_Atti,
37.61336085,-119.0210498,8993.085854,9.186352,1.2974252,9.876181418,15000,2017/07/27 18:55:39,11,23.257,8993.413938,9.514436,2.0579848,9.876181418,179.5,0,0,1024,1024,1040,1024,0,0,95,3.871,3.9,3.875,3.873,3.876,3.869,6,GPS_Atti,
37.61336121,-119.0210493,8993.085854,9.186352,1.2750558,9.94668667,15100,2017/07/27 18:55:40,11,23.257,8993.413938,9.514436,2.0579848,9.94668667,179.4,0,0,1024,1024,1043,1024,0,0,95,3.871,3.9,3.875,3.873,3.876,3.869,6,GPS_Atti,
37.61336154,-119.0210487,8993.085854,9.186352,1.2750558,10.0041998,15200,2017/07/27 18:55:40,10,23.257,8993.413938,9.514436,2.0579848,10.0041998,179.4,0,0,1014,1024,1043,1024,0,0,95,3.871,3.9,3.875,3.873,3.876,3.869,6,GPS_Atti,
37.61336182,-119.0210481,8993.085854,9.186352,1.2750558,10.05456069,15300,2017/07/27 18:55:40,10,23.257,8993.413938,9.514436,2.0579848,10.05456069,179.4,0,0,982,1024,1046,1024,0,0,95,3.871,3.9,3.875,3.873,3.876,3.869,6,GPS_Atti,
37.61336204,-119.0210476,8993.085854,9.186352,0.9395148,10.0920935,15400,2017/07/27 18:55:40,10,23.257,8993.413938,9.514436,2.0579848,10.0920935,179.4,0,0,969,1024,1055,1024,0,0,95,3.871,3.9,3.875,3.873,3.876,3.869,6,GPS_Atti,
37.61336222,-119.0210472,8993.085854,9.186352,0.9395148,10.12516437,15500,2017/07/27 18:55:40,10,23.211,8993.413938,9.514436,2.0579848,10.12516437,179.2,0,0,977,1024,1059,1024,0,0,95,3.865,3.88,3.867,3.859,3.87,3.839,6,GPS_Atti,
37.61336245,-119.0210469,8993.085854,9.186352,0.8052984,10.18323523,15600,2017/07/27 18:55:40,10,23.211,8993.413938,9.514436,2.0579848,10.18323523,178.8,0,0,970,1024,1062,1024,0,0,95,3.865,3.88,3.867,3.859,3.87,3.839,6,GPS_Atti,
37.61336274,-119.0210466,8993.085854,9.186352,0.8052984,10.26423917,15700,2017/07/27 18:55:40,10,23.211,8993.413938,9.514436,2.0579848,10.26423917,178.4,0,0,973,1024,1062,1024,0,0,95,3.865,3.88,3.867,3.859,3.87,3.839,6,GPS_Atti,
37.61336305,-119.0210463,8992.75777,8.858268,1.006623,10.3557418,15800,2017/07/27 18:55:40,10,23.211,8993.413938,9.514436,2.0579848,10.3557418,178.1,0,0,967,1024,1060,1024,0,0,95,3.865,3.88,3.867,3.859,3.87,3.839,6,GPS_Atti,
37.6133634,-119.021046,8992.75777,8.858268,1.006623,10.45803839,15900,2017/07/27 18:55:40,10,23.211,8993.413938,9.514436,2.0579848,10.45803839,178,0,0,973,1024,1060,1024,0,0,95,3.865,3.88,3.867,3.859,3.87,3.839,6,GPS_Atti,
37.61336377,-119.0210456,8992.75777,8.858268,1.006623,10.56732317,16000,2017/07/27 18:55:41,11,23.211,8993.413938,9.514436,2.0579848,10.56732317,178.2,0,0,976,1024,1062,1024,0,0,95,3.865,3.88,3.867,3.859,3.87,3.839,6,GPS_Atti,
37.61336415,-119.0210452,8993.085854,9.186352,1.006623,10.6803153,16100,2017/07/27 18:55:41,11,23.211,8993.413938,9.514436,2.0579848,10.6803153,178.5,0,0,1003,1024,1056,1024,0,0,95,3.865,3.88,3.867,3.859,3.87,3.839,6,GPS_Atti,
37.61336454,-119.0210448,8993.085854,9.186352,1.006623,10.79534155,16200,2017/07/27 18:55:41,10,23.211,8993.413938,9.514436,2.0579848,10.79534155,178.9,0,0,1024,1024,1053,1024,0,0,95,3.865,3.88,3.867,3.859,3.87,3.839,6,GPS_Atti,
37.61336492,-119.0210443,8993.085854,9.186352,1.006623,10.91194261,16300,2017/07/27 18:55:41,10,23.211,8993.413938,9.514436,2.0579848,10.91194261,179.3,0,0,1024,1024,1045,1024,0,0,95,3.865,3.88,3.867,3.859,3.87,3.839,6,GPS_Atti,
37.61336528,-119.0210438,8993.085854,9.186352,1.006623,11.01925888,16400,2017/07/27 18:55:41,11,23.211,8993.413938,9.514436,2.0579848,11.01925888,179.7,0,0,1024,1059,1042,1024,0,0,95,3.865,3.88,3.867,3.859,3.87,3.839,6,GPS_Atti,
37.61336559,-119.0210434,8993.085854,9.186352,0.8052984,11.11240193,16500,2017/07/27 18:55:41,11,23.19,8993.413938,9.514436,2.0579848,11.11240193,180.1,0,0,1024,1140,1038,1024,0,0,95,3.859,3.879,3.861,3.862,3.87,3.849,6,GPS_Atti,
37.61336588,-119.0210429,8993.085854,9.186352,0.8052984,11.19963947,16600,2017/07/27 18:55:41,11,23.19,8993.413938,9.514436,2.0579848,11.19963947,180.2,0,0,1024,1140,1038,1024,0,0,95,3.859,3.879,3.861,3.862,3.87,3.849,6,GPS_Atti,
37.61336615,-119.0210425,8993.085854,9.186352,0.7158208,11.28487569,16700,2017/07/27 18:55:41,11,23.19,8993.413938,9.514436,2.0579848,11.28487569,180.3,0,0,1024,1024,1031,1024,0,0,95,3.859,3.879,3.861,3.862,3.87,3.849,6,GPS_Atti,
37.61336641,-119.0210423,8993.085854,9.186352,0.447388,11.37273658,16800,2017/07/27 18:55:41,11,23.19,8993.413938,9.514436,2.0579848,11.37273658,180.2,0,0,1024,1024,1024,1024,0,0,95,3.859,3.879,3.861,3.862,3.87,3.849,6,GPS_Atti,
37.61336667,-119.0210422,8993.085854,9.186352,0.447388,11.46410798,16900,2017/07/27 18:55:41,11,23.19,8993.413938,9.514436,2.0579848,11.46410798,180.1,0,0,1024,1024,1024,1024,0,0,95,3.859,3.879,3.861,3.862,3.87,3.849,6,GPS_Atti,
37.61336694,-119.0210421,8993.085854,9.186352,0.447388,11.55977727,17000,2017/07/27 18:55:42,11,23.19,8993.413938,9.514436,2.0579848,11.55977727,179.6,0,0,1024,1024,1076,1024,0,0,95,3.859,3.879,3.861,3.862,3.87,3.849,6,GPS_Atti,
37.61336721,-119.021042,8993.085854,9.186352,0.447388,11.65505287,17100,2017/07/27 18:55:42,11,23.19,8993.413938,9.514436,2.0579848,11.65505287,179.2,0,0,1024,1024,1076,1024,0,0,95,3.859,3.879,3.861,3.862,3.87,3.849,6,GPS_Atti,
37.61336749,-119.0210418,8992.75777,8.858268,0.447388,11.75314998,17200,2017/07/27 18:55:42,11,23.19,8993.413938,9.514436,2.0579848,11.75314998,179,0,0,1024,1024,1116,1024,0,0,95,3.859,3.879,3.861,3.862,3.87,3.849,6,GPS_Atti,
37.61336802,-119.0210415,8993.085854,9.186352,0.223694,11.93694264,17400,2017/07/27 18:55:42,11,23.19,8993.413938,9.514436,2.0579848,11.93694264,178.7,0,0,1024,1024,1124,1024,0,0,95,3.859,3.879,3.861,3.862,3.87,3.849,6,GPS_Atti,
37.61336823,-119.0210413,8993.085854,9.186352,0.223694,12.00761193,17500,2017/07/27 18:55:42,11,23.19,8993.413938,9.514436,2.0579848,12.00761193,178.8,0,0,1024,1024,1124,1024,0,0,95,3.859,3.879,3.861,3.862,3.87,3.849,6,GPS_Atti,
37.61336842,-119.0210411,8993.085854,9.186352,0.223694,12.07237571,17600,2017/07/27 18:55:42,11,23.141,8993.413938,9.514436,2.0579848,12.07237571,178.8,0,0,1024,1024,1145,1024,0,0,95,3.859,3.879,3.861,3.862,3.87,3.849,6,GPS_Atti,
37.61336859,-119.021041,8993.085854,9.186352,0.223694,12.1324807,17700,2017/07/27 18:55:42,11,23.141,8993.413938,9.514436,2.0579848,12.1324807,178.9,0,0,1024,1024,1151,1024,0,0,95,3.859,3.879,3.861,3.862,3.87,3.849,6,GPS_Atti,
37.61336872,-119.0210408,8993.085854,9.186352,0,12.17627992,17800,2017/07/27 18:55:42,10,23.141,8993.413938,9.514436,2.0579848,12.17627992,178.9,0,0,1024,1024,1188,1024,0,0,95,3.859,3.879,3.861,3.862,3.87,3.849,6,GPS_Atti,
37.6133688,-119.0210407,8993.413938,9.514436,0,12.20577467,17900,2017/07/27 18:55:42,10,23.141,8993.413938,9.514436,2.0579848,12.20577467,178.9,0,0,1024,1024,1188,1024,0,0,95,3.859,3.879,3.861,3.862,3.87,3.849,6,GPS_Atti,
37.61336888,-119.0210406,8993.413938,9.514436,0,12.22998727,18000,2017/07/27 18:55:43,11,23.141,8993.413938,9.514436,2.0579848,12.22998727,178.8,0,0,1024,1024,1193,1024,0,0,95,3.859,3.879,3.861,3.862,3.87,3.849,6,GPS_Atti,
37.61336893,-119.0210405,8993.413938,9.514436,0,12.24904895,18100,2017/07/27 18:55:43,11,23.141,8993.413938,9.514436,2.0579848,12.24904895,178.8,0,0,1024,1024,1223,1024,0,0,95,3.859,3.879,3.861,3.862,3.87,3.849,6,GPS_Atti,
37.61336899,-119.0210405,8993.742022,9.84252,0,12.26896365,18200,2017/07/27 18:55:43,11,23.141,8993.742022,9.84252,2.0579848,12.26896365,178.8,0,0,1024,1024,1232,1024,0,0,95,3.859,3.879,3.861,3.862,3.87,3.849,6,GPS_Atti,
37.61336904,-119.0210404,8993.742022,9.84252,0,12.28668018,18300,2017/07/27 18:55:43,11,23.141,8993.742022,9.84252,2.0579848,12.28668018,179,0,0,1024,1024,1241,1024,0,0,95,3.859,3.879,3.861,3.862,3.87,3.849,6,GPS_Atti,
37.61336905,-119.0210404,8994.070106,10.170604,0,12.29038753,18400,2017/07/27 18:55:43,11,23.141,8994.070106,10.170604,2.0579848,12.29038753,179.1,0,0,1024,1024,1253,1024,0,0,95,3.859,3.879,3.861,3.862,3.87,3.849,6,GPS_Atti,
37.61336903,-119.0210405,8994.070106,10.170604,0,12.28271037,18500,2017/07/27 18:55:43,11,23.141,8994.070106,10.170604,2.0579848,12.29038753,179.3,0,0,1024,1024,1252,1024,0,0,95,3.859,3.879,3.861,3.862,3.87,3.849,6,GPS_Atti,
37.61336901,-119.0210406,8994.39819,10.498688,0,12.27867493,18600,2017/07/27 18:55:43,11,23.141,8994.39819,10.498688,2.0579848,12.29038753,179.3,0,0,1024,1024,1243,1024,0,0,95,3.829,3.868,3.857,3.884,3.886,3.847,6,GPS_Atti,
37.61336901,-119.0210407,8994.39819,10.498688,0,12.27887178,18700,2017/07/27 18:55:43,11,23.141,8994.39819,10.498688,2.0579848,12.29038753,179.3,0,0,1024,1024,1243,1024,0,0,95,3.829,3.868,3.857,3.884,3.886,3.847,6,GPS_Atti,
37.61336898,-119.0210408,8994.726274,10.826772,0,12.271129,18800,2017/07/27 18:55:43,11,23.141,8994.726274,10.826772,2.0579848,12.29038753,179.4,0,0,1024,1024,1242,1024,0,0,95,3.829,3.868,3.857,3.884,3.886,3.847,6,GPS_Atti,
37.61336893,-119.0210409,8995.054358,11.154856,0.223694,12.25479042,18900,2017/07/27 18:55:43,11,23.141,8995.054358,11.154856,2.0579848,12.29038753,179.3,0,0,1024,1024,1244,1024,0,0,95,3.829,3.868,3.857,3.884,3.886,3.847,6,GPS_Atti,
37.61336888,-119.021041,8995.382442,11.48294,0.223694,12.23799252,19000,2017/07/27 18:55:44,11,23.141,8995.382442,11.48294,2.0579848,12.29038753,179.2,0,0,1024,1024,1245,1024,0,0,95,3.829,3.868,3.857,3.884,3.886,3.847,6,GPS_Atti,
37.61336883,-119.0210412,8995.710526,11.811024,0.223694,12.2230975,19100,2017/07/27 18:55:44,11,23.141,8995.710526,11.811024,2.0579848,12.29038753,179,0,0,1024,1024,1229,1024,0,0,95,3.829,3.868,3.857,3.884,3.886,3.847,6,GPS_Atti,
37.61336879,-119.0210413,8996.03861,12.139108,0.223694,12.2109584,19200,2017/07/27 18:55:44,11,23.141,8996.03861,12.139108,2.0579848,12.29038753,178.8,0,0,1024,1024,1222,1024,0,0,95,3.829,3.868,3.857,3.884,3.886,3.847,6,GPS_Atti,
37.61336876,-119.0210414,8996.366694,12.467192,0,12.20124711,19300,2017/07/27 18:55:44,11,23.141,8996.366694,12.467192,2.0579848,12.29038753,178.7,0,0,1024,1024,1232,1024,0,0,95,3.829,3.868,3.857,3.884,3.886,3.847,6,GPS_Atti,
37.61336872,-119.0210414,8996.694778,12.795276,0,12.18976417,19400,2017/07/27 18:55:44,11,23.141,8996.694778,12.795276,2.0579848,12.29038753,178.8,0,0,1024,1024,1241,1024,0,0,95,3.829,3.868,3.857,3.884,3.886,3.847,6,GPS_Atti,
37.61336868,-119.0210415,8997.022862,13.12336,0,12.17680485,19500,2017/07/27 18:55:44,11,23.141,8997.022862,13.12336,2.0579848,12.29038753,178.9,0,0,1024,1024,1240,1024,0,0,95,3.829,3.868,3.857,3.884,3.886,3.847,6,GPS_Atti,
37.61336862,-119.0210416,8997.350946,13.451444,0,12.15761194,19600,2017/07/27 18:55:44,11,23.15,8997.350946,13.451444,2.0579848,12.29038753,179.1,0,0,1024,1024,1241,1024,0,0,94,3.846,3.878,3.839,3.869,3.862,3.847,6,GPS_Atti,
37.61336855,-119.0210416,8997.67903,13.779528,0,12.13307125,19700,2017/07/27 18:55:44,11,23.15,8997.67903,13.779528,2.0579848,12.29038753,179.4,0,0,1024,1024,1241,1024,0,0,94,3.846,3.878,3.839,3.869,3.862,3.847,6,GPS_Atti,
37.61336844,-119.0210416,8998.663282,14.76378,0,12.0926185,20000,2017/07/27 18:55:45,11,23.15,8998.663282,14.76378,2.0579848,12.29038753,179.7,0,0,1024,1024,1245,1024,0,0,94,3.846,3.878,3.839,3.869,3.862,3.847,6,GPS_Atti,
37.61336833,-119.0210416,8998.991366,15.091864,0,12.05147676,20100,2017/07/27 18:55:45,11,23.15,8998.991366,15.091864,2.0579848,12.29038753,179.6,0,0,1024,1024,1242,1024,0,0,94,3.846,3.878,3.839,3.869,3.862,3.847,6,GPS_Atti,
37.61336824,-119.0210416,8999.31945,15.419948,0,12.02044002,20200,2017/07/27 18:55:45,11,23.15,8999.31945,15.419948,2.0579848,12.29038753,179.6,0,0,1024,1024,1252,1024,0,0,94,3.846,3.878,3.839,3.869,3.862,3.847,6,GPS_Atti,
37.61336818,-119.0210416,8999.647534,15.748032,0,11.99678516,20300,2017/07/27 18:55:45,11,23.15,8999.647534,15.748032,2.0579848,12.29038753,179.4,0,0,1024,1024,1261,1024,0,0,94,3.846,3.878,3.839,3.869,3.862,3.847,6,GPS_Atti,
37.6133681,-119.0210416,8999.647534,15.748032,0,11.96597807,20400,2017/07/27 18:55:45,11,23.15,8999.647534,15.748032,2.0579848,12.29038753,179.3,0,0,1024,1024,1262,1024,0,0,94,3.846,3.878,3.839,3.869,3.862,3.847,6,GPS_Atti,
37.61336799,-119.0210416,8999.975618,16.076116,0,11.92660799,20500,2017/07/27 18:55:45,11,23.15,8999.975618,16.076116,2.0579848,12.29038753,179.2,0,0,1024,1024,1263,1024,0,0,94,3.846,3.878,3.839,3.869,3.862,3.847,6,GPS_Atti,
37.61336787,-119.0210415,9000.303702,16.4042,0,11.88228384,20600,2017/07/27 18:55:45,11,23.15,9000.303702,16.4042,2.0579848,12.29038753,179.2,0,0,1024,1024,1264,1024,0,0,94,3.846,3.878,3.839,3.869,3.862,3.847,6,GPS_Atti,
37.61336775,-119.0210413,9000.95987,17.060368,0,11.83481009,20700,2017/07/27 18:55:45,11,23.15,9000.95987,17.060368,2.0579848,12.29038753,179.2,0,0,1024,1024,1264,1024,0,0,94,3.846,3.878,3.839,3.869,3.862,3.847,6,GPS_Atti,
37.61336758,-119.0210412,9001.287954,17.388452,0,11.7711946,20800,2017/07/27 18:55:45,11,23.043,9001.287954,17.388452,2.0579848,12.29038753,179.3,0,0,1024,1024,1267,1024,0,0,94,3.847,3.863,3.858,3.849,3.867,3.838,6,GPS_Atti,
37.61336738,-119.0210411,9001.616038,17.716536,0,11.69452137,20900,2017/07/27 18:55:45,11,23.043,9001.616038,17.716536,2.0579848,12.29038753,179.3,0,0,1024,1024,1267,1024,0,0,94,3.847,3.863,3.858,3.849,3.867,3.838,6,GPS_Atti,
37.61336721,-119.021041,9001.944122,18.04462,0,11.62969197,21000,2017/07/27 18:55:46,11,23.043,9001.944122,18.04462,2.0579848,12.29038753,179.2,0,0,1024,1024,1271,1024,0,0,94,3.847,3.863,3.858,3.849,3.867,3.838,6,GPS_Atti,
37.61336707,-119.0210409,9002.272206,18.372704,0,11.5755253,21100,2017/07/27 18:55:46,11,23.043,9002.272206,18.372704,2.0579848,12.29038753,179.2,0,0,1024,1024,1275,1024,0,0,94,3.847,3.863,3.858,3.849,3.867,3.838,6,GPS_Atti,
37.61336694,-119.0210408,9002.272206,18.372704,0,11.52788751,21200,2017/07/27 18:55:46,11,23.043,9002.272206,18.372704,2.0579848,12.29038753,179.2,0,0,1024,1024,1280,1024,0,0,94,3.847,3.863,3.858,3.849,3.867,3.838,6,GPS_Atti,
37.61336683,-119.0210407,9002.60029,18.700788,0,11.48641769,21300,2017/07/27 18:55:46,11,23.043,9002.60029,18.700788,2.0579848,12.29038753,179.1,0,0,1024,1024,1282,1024,0,0,94,3.847,3.863,3.858,3.849,3.867,3.838,6,GPS_Atti,
37.61336673,-119.0210406,9002.60029,18.700788,0,11.44737569,21400,2017/07/27 18:55:46,11,23.043,9002.60029,18.700788,2.0579848,12.29038753,179.1,0,0,1024,1024,1288,1024,0,0,94,3.847,3.863,3.858,3.849,3.867,3.838,6,GPS_Atti,
37.61336664,-119.0210405,9002.928374,19.028872,0,11.41276283,21500,2017/07/27 18:55:46,11,23.043,9002.928374,19.028872,2.0579848,12.29038753,179.1,0,0,1024,1024,1307,1032,0,0,94,3.847,3.863,3.858,3.849,3.867,3.838,6,GPS_Atti,
37.61336656,-119.0210404,9003.256458,19.356956,0,11.38323527,21600,2017/07/27 18:55:46,11,23.043,9003.256458,19.356956,2.0579848,12.29038753,179.1,0,0,1024,1024,1305,1031,0,0,94,3.847,3.863,3.858,3.849,3.867,3.838,6,GPS_Atti,
37.6133665,-119.0210403,9003.584542,19.68504,0,11.36036782,21700,2017/07/27 18:55:46,11,23.043,9003.584542,19.68504,2.0579848,12.29038753,179.2,0,0,1024,1024,1300,1030,0,0,94,3.847,3.863,3.858,3.849,3.867,3.838,6,GPS_Atti,
37.61336646,-119.0210402,9003.912626,20.013124,0,11.3431106,21800,2017/07/27 18:55:46,11,23.155,9003.912626,20.013124,2.0579848,12.29038753,179.3,0,0,1024,1024,1307,1031,0,0,94,3.84,3.86,3.845,3.853,3.845,3.866,6,GPS_Atti,
37.61336642,-119.0210401,9004.24071,20.341208,0,11.32795312,21900,2017/07/27 18:55:46,11,23.155,9004.24071,20.341208,2.0579848,12.29038753,179.3,0,0,1024,1024,1311,1034,0,0,94,3.84,3.86,3.845,3.853,3.845,3.866,6,GPS_Atti,
37.61336641,-119.02104,9004.568794,20.669292,0,11.32313028,22000,2017/07/27 18:55:47,11,23.155,9004.568794,20.669292,2.0579848,12.29038753,179.3,0,0,1024,1024,1292,1024,0,0,94,3.84,3.86,3.845,3.853,3.845,3.866,6,GPS_Atti,
37.61336641,-119.0210397,9005.553046,21.653544,0,11.31988225,22200,2017/07/27 18:55:47,11,23.155,9005.553046,21.653544,2.0579848,12.29038753,179.2,0,0,1024,1024,1296,1024,0,0,94,3.84,3.86,3.845,3.853,3.845,3.866,6,GPS_Atti,
37.61336638,-119.0210396,9005.88113,21.981628,0,11.30511847,22300,2017/07/27 18:55:47,11,23.155,9005.88113,21.981628,2.0579848,12.29038753,179.1,0,0,1024,1024,1304,1027,0,0,94,3.84,3.86,3.845,3.853,3.845,3.866,6,GPS_Atti,
37.61336639,-119.0210395,9006.209214,22.309712,0,11.30944918,22400,2017/07/27 18:55:47,11,23.155,9006.209214,22.309712,2.0579848,12.29038753,179.1,0,0,1024,1024,1310,1032,0,0,94,3.84,3.86,3.845,3.853,3.845,3.866,6,GPS_Atti,
37.61336651,-119.0210391,9007.193466,23.293964,0.223694,11.35098462,22600,2017/07/27 18:55:47,11,23.155,9007.193466,23.293964,2.0579848,12.29038753,179.2,0,0,1024,1024,1306,1028,0,0,94,3.84,3.86,3.845,3.853,3.845,3.866,6,GPS_Atti,
37.61336656,-119.021039,9007.193466,23.293964,0.223694,11.36784813,22700,2017/07/27 18:55:47,11,23.155,9007.193466,23.293964,2.0579848,12.29038753,179.2,0,0,1024,1024,1301,1029,0,0,94,3.84,3.86,3.845,3.853,3.845,3.866,6,GPS_Atti,
37.61336663,-119.0210389,9007.52155,23.622048,0.223694,11.39386519,22800,2017/07/27 18:55:47,11,23.155,9007.52155,23.622048,2.0579848,12.29038753,179.2,0,0,1024,1024,1302,1031,0,0,94,3.84,3.86,3.845,3.853,3.845,3.866,6,GPS_Atti,
37.61336673,-119.0210389,9007.849634,23.950132,0.223694,11.42775627,22900,2017/07/27 18:55:47,11,23.155,9007.849634,23.950132,2.0579848,12.29038753,179.2,0,0,1024,1024,1303,1032,0,0,94,3.84,3.86,3.845,3.853,3.845,3.866,6,GPS_Atti,
37.61336684,-119.0210388,9008.177718,24.278216,0.223694,11.46712635,23000,2017/07/27 18:55:47,11,22.966,9008.177718,24.278216,2.0579848,12.29038753,179.3,0,0,1024,1024,1299,1032,0,0,94,3.84,3.86,3.845,3.853,3.845,3.866,6,GPS_Atti,
37.61336695,-119.0210388,9008.505802,24.6063,0.223694,11.5098757,23100,2017/07/27 18:55:48,11,22.966,9008.505802,24.6063,2.0579848,12.29038753,179.2,0,0,1024,1024,1303,1031,0,0,94,3.84,3.86,3.845,3.853,3.845,3.866,6,GPS_Atti,
37.61336705,-119.0210388,9009.16197,25.262468,0.3131716,11.54629302,23200,2017/07/27 18:55:48,11,22.966,9009.16197,25.262468,2.0579848,12.29038753,179.2,0,0,1024,1024,1296,1026,0,0,94,3.84,3.86,3.845,3.853,3.845,3.866,6,GPS_Atti,
37.61336713,-119.0210387,9009.490054,25.590552,0.3131716,11.57500037,23300,2017/07/27 18:55:48,11,22.966,9009.490054,25.590552,2.0579848,12.29038753,179.1,0,0,1024,1024,1288,1024,0,0,94,3.84,3.86,3.845,3.853,3.845,3.866,6,GPS_Atti,
37.61336724,-119.0210388,9009.818138,25.918636,0.3131716,11.61269722,23400,2017/07/27 18:55:48,11,22.966,9009.818138,25.918636,2.0579848,12.29038753,179.1,0,0,1024,1024,1287,1024,0,0,94,3.84,3.86,3.845,3.853,3.845,3.866,6,GPS_Atti,
37.61336736,-119.0210388,9010.146222,26.24672,0.3131716,11.6571526,23500,2017/07/27 18:55:48,11,22.966,9010.146222,26.24672,2.0579848,12.29038753,179.1,0,0,1024,1024,1288,1024,0,0,94,3.84,3.86,3.845,3.853,3.845,3.866,6,GPS_Atti,
37.61336749,-119.0210388,9010.474306,26.574804,0.3131716,11.70429827,23600,2017/07/27 18:55:48,11,22.966,9010.474306,26.574804,2.0579848,12.29038753,179,0,0,1024,1024,1294,1024,0,0,94,3.84,3.86,3.845,3.853,3.845,3.866,6,GPS_Atti,
37.61336762,-119.0210389,9010.80239,26.902888,0.3131716,11.75354368,23700,2017/07/27 18:55:48,11,22.966,9010.80239,26.902888,2.0579848,12.29038753,179,0,0,1024,1024,1298,1024,0,0,94,3.84,3.86,3.845,3.853,3.845,3.866,6,GPS_Atti,
37.61336775,-119.0210389,9011.458558,27.559056,0.3131716,11.80183765,23800,2017/07/27 18:55:48,11,22.966,9011.458558,27.559056,2.0579848,12.29038753,178.9,0,0,1024,1024,1298,1024,0,0,94,3.84,3.86,3.845,3.853,3.845,3.866,6,GPS_Atti,
37.61336788,-119.021039,9011.786642,27.88714,0.3131716,11.84934421,23900,2017/07/27 18:55:48,11,22.966,9011.786642,27.88714,2.0579848,12.29038753,178.9,0,0,1024,1024,1295,1024,0,0,94,3.84,3.86,3.845,3.853,3.845,3.866,6,GPS_Atti,
37.613368,-119.0210391,9012.114726,28.215224,0.223694,11.89363555,24000,2017/07/27 18:55:49,11,22.966,9012.114726,28.215224,2.0579848,12.29038753,179,0,0,1024,1024,1289,1024,0,0,94,3.809,3.868,3.832,3.844,3.833,3.829,6,GPS_Atti,
37.61336812,-119.0210392,9012.44281,28.543308,0.223694,11.93658175,24100,2017/07/27 18:55:49,11,22.966,9012.44281,28.543308,2.0579848,12.29038753,179,0,0,1024,1024,1294,1024,0,0,94,3.809,3.868,3.832,3.844,3.833,3.829,6,GPS_Atti,
37.61336825,-119.0210393,9013.098978,29.199476,0.223694,11.98674579,24200,2017/07/27 18:55:49,11,22.966,9013.098978,29.199476,2.0579848,12.29038753,179.2,0,0,1024,1024,1294,1024,0,0,94,3.809,3.868,3.832,3.844,3.833,3.829,6,GPS_Atti,
37.6133684,-119.0210394,9013.427062,29.52756,0.223694,12.04199514,24300,2017/07/27 18:55:49,11,22.966,9013.427062,29.52756,2.0579848,12.29038753,179.2,0,0,1024,1024,1279,1024,0,0,94,3.809,3.868,3.832,3.844,3.833,3.829,6,GPS_Atti,
37.61336851,-119.0210394,9013.755146,29.855644,0.223694,12.08159487,24400,2017/07/27 18:55:49,11,22.966,9013.755146,29.855644,2.0579848,12.29038753,179.3,0,0,1024,1024,1264,1024,0,0,94,3.809,3.868,3.832,3.844,3.833,3.829,6,GPS_Atti,
37.61336858,-119.0210395,9014.08323,30.183728,0.223694,12.10846495,24500,2017/07/27 18:55:49,11,22.966,9014.08323,30.183728,2.0579848,12.29038753,179.2,0,0,1024,1024,1264,1024,0,0,94,3.809,3.868,3.832,3.844,3.833,3.829,6,GPS_Atti,
37.61336866,-119.0210396,9014.411314,30.511812,0.223694,12.13907519,24600,2017/07/27 18:55:49,11,22.966,9014.411314,30.511812,2.0579848,12.29038753,179.2,0,0,1024,1024,1280,1024,0,0,94,3.809,3.868,3.832,3.844,3.833,3.829,6,GPS_Atti,
37.61336875,-119.0210398,9015.067482,31.16798,0.223694,12.17253976,24700,2017/07/27 18:55:49,11,22.966,9015.067482,31.16798,2.0579848,12.29038753,179.1,0,0,1024,1024,1288,1024,0,0,94,3.809,3.868,3.832,3.844,3.833,3.829,6,GPS_Atti,
37.61336883,-119.02104,9015.395566,31.496064,0.223694,12.20436391,24800,2017/07/27 18:55:49,11,22.966,9015.395566,31.496064,2.0579848,12.29038753,179.1,0,0,1024,1024,1282,1024,0,0,94,3.809,3.868,3.832,3.844,3.833,3.829,6,GPS_Atti,
37.61336891,-119.0210402,9015.72365,31.824148,0.223694,12.23497414,24900,2017/07/27 18:55:49,11,22.966,9015.72365,31.824148,2.0579848,12.29038753,179,0,0,1024,1024,1283,1024,0,0,94,3.809,3.868,3.832,3.844,3.833,3.829,6,GPS_Atti,
37.61336899,-119.0210404,9016.051734,32.152232,0.223694,12.26725761,25000,2017/07/27 18:55:50,11,22.989,9016.051734,32.152232,2.0579848,12.29038753,179,0,0,1024,1024,1282,1024,0,0,94,3.808,3.834,3.858,3.863,3.862,3.817,6,GPS_Atti,
37.61336906,-119.0210407,9016.379818,32.480316,0.223694,12.29901614,25100,2017/07/27 18:55:50,11,22.989,9016.379818,32.480316,2.0579848,12.29901614,179.1,0,0,1024,1024,1282,1024,0,0,94,3.808,3.834,3.858,3.863,3.862,3.817,6,GPS_Atti,
37.61336911,-119.0210409,9016.707902,32.8084,0.223694,12.32214606,25200,2017/07/27 18:55:50,11,22.989,9016.707902,32.8084,2.0579848,12.32214606,179.3,0,0,1024,1024,1282,1024,0,0,94,3.808,3.834,3.858,3.863,3.862,3.817,6,GPS_Atti,
37.61336914,-119.0210411,9017.035986,33.136484,0.223694,12.33786129,25300,2017/07/27 18:55:50,11,22.989,9017.035986,33.136484,2.0579848,12.33786129,179.4,0,0,1024,1024,1286,1024,0,0,94,3.808,3.834,3.858,3.863,3.862,3.817,6,GPS_Atti,
37.61336915,-119.0210414,9017.692154,33.792652,0.223694,12.34314344,25400,2017/07/27 18:55:50,11,22.989,9017.692154,33.792652,2.0579848,12.34314344,179.4,0,0,1024,1024,1291,1024,0,0,94,3.808,3.834,3.858,3.863,3.862,3.817,6,GPS_Atti,
37.61336913,-119.0210416,9018.020238,34.120736,0.223694,12.34176549,25500,2017/07/27 18:55:50,11,22.989,9018.020238,34.120736,2.0579848,12.34314344,179.4,0,0,1024,1024,1283,1024,0,0,94,3.808,3.834,3.858,3.863,3.862,3.817,6,GPS_Atti,
37.6133691,-119.0210419,9018.348322,34.44882,0.223694,12.33874711,25600,2017/07/27 18:55:50,11,22.989,9018.348322,34.44882,2.0579848,12.34314344,179.4,0,0,1024,1024,1282,1024,0,0,94,3.808,3.834,3.858,3.863,3.862,3.817,6,GPS_Atti,
37.61336907,-119.021042,9018.676406,34.776904,0.223694,12.33156207,25700,2017/07/27 18:55:50,11,22.989,9018.676406,34.776904,2.0579848,12.34314344,179.3,0,0,1024,1024,1283,1024,0,0,94,3.808,3.834,3.858,3.863,3.862,3.817,6,GPS_Atti,
37.61336902,-119.0210422,9019.00449,35.104988,0,12.31587966,25800,2017/07/27 18:55:50,10,22.989,9019.00449,35.104988,2.0579848,12.34314344,179.2,0,0,1024,1024,1284,1024,0,0,94,3.808,3.834,3.858,3.863,3.862,3.817,6,GPS_Atti,
37.61336895,-119.0210423,9019.332574,35.433072,0,12.29432454,25900,2017/07/27 18:55:50,10,22.989,9019.332574,35.433072,2.0579848,12.34314344,179.1,0,0,1024,1024,1284,1024,0,0,94,3.808,3.834,3.858,3.863,3.862,3.817,6,GPS_Atti,
37.61336884,-119.0210423,9019.660658,35.761156,0,12.25741509,26000,2017/07/27 18:55:51,11,23.061,9019.660658,35.761156,2.0579848,12.34314344,179,0,0,1024,1024,1295,1024,0,0,94,3.834,3.855,3.851,3.843,3.846,3.827,6,GPS_Atti,
37.6133687,-119.0210423,9019.988742,36.08924,0.223694,12.20508569,26100,2017/07/27 18:55:51,11,23.061,9019.988742,36.08924,2.0579848,12.34314344,179,0,0,1024,1024,1306,1024,0,0,94,3.834,3.855,3.851,3.843,3.846,3.827,6,GPS_Atti,
37.61336854,-119.0210424,9020.316826,36.417324,0.223694,12.14960669,26200,2017/07/27 18:55:51,11,23.061,9020.316826,36.417324,2.0579848,12.34314344,179,0,0,1024,1024,1298,1024,0,0,94,3.834,3.855,3.851,3.843,3.846,3.827,6,GPS_Atti,
37.61336838,-119.0210425,9020.972994,37.073492,0.223694,12.09350432,26300,2017/07/27 18:55:51,11,23.061,9020.972994,37.073492,2.0579848,12.34314344,179.1,0,0,1024,1024,1295,1024,0,0,94,3.834,3.855,3.851,3.843,3.846,3.827,6,GPS_Atti,
37.6133682,-119.0210425,9021.301078,37.401576,0.223694,12.02929829,26400,2017/07/27 18:55:51,11,23.061,9021.301078,37.401576,2.0579848,12.34314344,179.1,0,0,1024,1024,1293,1024,0,0,94,3.834,3.855,3.851,3.843,3.846,3.827,6,GPS_Atti,
37.61336802,-119.0210425,9021.629162,37.72966,0.223694,11.96118805,26500,2017/07/27 18:55:51,11,23.061,9021.629162,37.72966,2.0579848,12.34314344,179.2,0,0,1024,1024,1296,1024,0,0,94,3.834,3.855,3.851,3.843,3.846,3.827,6,GPS_Atti,
37.61336785,-119.0210425,9021.957246,38.057744,0.223694,11.9004597,26600,2017/07/27 18:55:51,11,23.061,9021.957246,38.057744,2.0579848,12.34314344,179.2,0,0,1024,1024,1307,1024,0,0,94,3.834,3.855,3.851,3.843,3.846,3.827,6,GPS_Atti,
37.61336771,-119.0210425,9022.28533,38.385828,0,11.84858962,26700,2017/07/27 18:55:51,11,23.061,9022.28533,38.385828,2.0579848,12.34314344,179.3,0,0,1024,1024,1302,1024,0,0,94,3.834,3.855,3.851,3.843,3.846,3.827,6,GPS_Atti,
37.61336753,-119.0210425,9022.613414,38.713912,0,11.78477728,26800,2017/07/27 18:55:51,11,23.061,9022.613414,38.713912,2.0579848,12.34314344,179.3,0,0,1024,1024,1293,1024,0,0,94,3.834,3.855,3.851,3.843,3.846,3.827,6,GPS_Atti,
37.61336732,-119.0210425,9022.941498,39.041996,0,11.71020379,26900,2017/07/27 18:55:51,11,23.061,9022.941498,39.041996,2.0579848,12.34314344,179.3,0,0,1024,1024,1299,1024,0,0,94,3.834,3.855,3.851,3.843,3.846,3.827,6,GPS_Atti,
37.61336714,-119.0210424,9023.269582,39.37008,0,11.64032189,27000,2017/07/27 18:55:52,11,23.062,9023.269582,39.37008,2.0579848,12.34314344,179.2,0,0,1024,1024,1298,1024,0,0,93,3.833,3.849,3.859,3.842,3.852,3.819,6,GPS_Atti,
37.6133668,-119.021042,9023.92575,40.026248,0.223694,11.50547937,27200,2017/07/27 18:55:52,11,23.062,9023.92575,40.026248,2.0579848,12.34314344,179,0,0,1024,1024,1299,1024,0,0,93,3.833,3.849,3.859,3.842,3.852,3.819,6,GPS_Atti,
37.61336663,-119.0210418,9024.253834,40.354332,0.223694,11.43697543,27300,2017/07/27 18:55:52,11,23.062,9024.253834,40.354332,2.0579848,12.34314344,179,0,0,1024,1024,1300,1024,0,0,93,3.833,3.849,3.859,3.842,3.852,3.819,6,GPS_Atti,
37.61336632,-119.0210413,9025.238086,41.338584,0.223694,11.31059747,27500,2017/07/27 18:55:52,11,23.062,9025.238086,41.338584,2.0579848,12.34314344,179,0,0,1024,1024,1298,1024,0,0,93,3.833,3.849,3.859,3.842,3.852,3.819,6,GPS_Atti,
37.61336618,-119.021041,9025.56617,41.666668,0.223694,11.25698855,27600,2017/07/27 18:55:52,11,23.062,9025.56617,41.666668,2.0579848,12.34314344,179,0,0,1024,1024,1288,1024,0,0,93,3.833,3.849,3.859,3.842,3.852,3.819,6,GPS_Atti,
37.61336607,-119.0210407,9025.56617,41.666668,0.223694,11.21082713,27700,2017/07/27 18:55:52,11,23.062,9025.56617,41.666668,2.0579848,12.34314344,179.1,0,0,1024,1024,1295,1024,0,0,93,3.833,3.849,3.859,3.842,3.852,3.819,6,GPS_Atti,
