latitude,longitude,altitude(feet),ascent(feet),speed(mph),distance(feet),time(millisecond),datetime(utc),satellites,voltage(v),max_altitude(feet),max_ascent(feet),max_speed(mph),max_distance(feet),compass_heading(degrees),isPhoto,isVideo,rc_elevator,rc_aileron,rc_throttle,rc_rudder,gimbal_heading(degrees),gimbal_pitch(degrees),battery_percent,voltageCell1,voltageCell2,voltageCell3,voltageCell4,voltageCell5,voltageCell6,flycStateRaw,flycState,message
37.61333459,-119.0210435,8983.981202,0,0,0,0,2017/07/27 19:18:37,12,0,8983.981202,0,0,0,172.5,0,0,364,1684,364,364,0,0,97,4.289,4.299,4.294,4.301,4.302,4.296,6,GPS_Atti,
37.6133346,-119.0210435,8983.981202,0,0,0.002613018,100,2017/07/27 19:18:37,12,0,8983.981202,0,0,0.002613018,172.5,0,0,364,1684,364,364,0,0,97,4.289,4.299,4.294,4.301,4.302,4.296,6,GPS_Atti,
37.6133346,-119.0210435,8983.981202,0,0,0.002613018,100,2017/07/27 19:18:37,12,0,8983.981202,0,0,0.002613018,172.5,0,0,364,1684,364,364,0,0,97,4.289,4.299,4.294,4.301,4.302,4.296,6,GPS_Atti,Home Point Recorded
37.61333461,-119.0210435,8983.981202,0,0,0.008060761,300,2017/07/27 19:18:37,12,0,8983.981202,0,0,0.008060761,172.5,0,0,364,1684,364,364,0,0,97,4.289,4.299,4.294,4.301,4.302,4.296,6,GPS_Atti,
37.61333461,-119.0210435,8983.981202,0,0,0.010812402,400,2017/07/27 19:18:38,12,0,8983.981202,0,0,0.010812402,172.5,0,0,804,1104,561,442,0,0,97,4.289,4.299,4.294,4.301,4.302,4.296,6,GPS_Atti,
37.61333462,-119.0210435,8983.981202,0,0,0.013381398,500,2017/07/27 19:18:38,12,0,8983.981202,0,0,0.013381398,172.5,0,0,1024,1024,1024,1024,0,0,97,4.289,4.299,4.294,4.301,4.302,4.296,6,GPS_Atti,
37.61333462,-119.0210435,8983.981202,0,0,0.01569006,600,2017/07/27 19:18:38,12,0,8983.981202,0,0,0.01569006,172.5,0,0,1024,1024,1024,1024,0,0,97,4.289,4.299,4.294,4.301,4.302,4.296,6,GPS_Atti,
37.61333463,-119.0210435,8983.981202,0,0,0.018034581,700,2017/07/27 19:18:38,12,0,8983.981202,0,0,0.018034581,172.5,0,0,1024,1024,1024,1024,0,0,97,4.289,4.299,4.294,4.301,4.302,4.296,6,GPS_Atti,
37.61333464,-119.0210435,8983.981202,0,0,0.020548951,800,2017/07/27 19:18:38,12,0,8983.981202,0,0,0.020548951,172.5,0,0,1024,1024,1024,1024,0,0,97,4.289,4.299,4.294,4.301,4.302,4.296,6,GPS_Atti,
37.61333464,-119.0210435,8983.981202,0,0,0.022978839,900,2017/07/27 19:18:38,12,25.782,8983.981202,0,0,0.022978839,172.5,0,0,1024,1024,1024,1024,0,0,97,4.289,4.299,4.294,4.301,4.302,4.296,6,GPS_Atti,
37.61333465,-119.0210435,8983.981202,0,0,0.025321097,1000,2017/07/27 19:18:38,12,25.782,8983.981202,0,0,0.025321097,172.5,0,0,1024,1024,1024,1024,0,0,97,4.289,4.299,4.294,4.301,4.302,4.296,6,GPS_Atti,
37.61333465,-119.0210435,8983.981202,0,0,0.027672934,1100,2017/07/27 19:18:38,12,25.782,8983.981202,0,0,0.027672934,172.5,0,0,1024,1024,1024,1024,0,0,97,4.289,4.299,4.294,4.301,4.302,4.296,6,GPS_Atti,
37.61333466,-119.0210435,8983.981202,0,0,0.029924476,1200,2017/07/27 19:18:38,12,25.782,8983.981202,0,0,0.029924476,172.5,0,0,1024,1024,1024,1024,0,0,97,4.289,4.299,4.294,4.301,4.302,4.296,6,GPS_Atti,
37.61333466,-119.0210435,8983.981202,0,0,0.032448459,1300,2017/07/27 19:18:38,12,25.782,8983.981202,0,0,0.032448459,172.5,0,0,1024,1024,1024,1024,0,0,97,4.289,4.299,4.294,4.301,4.302,4.296,6,GPS_Atti,
37.61333467,-119.0210435,8983.981202,0,0,0.036651248,1400,2017/07/27 19:18:39,12,25.782,8983.981202,0,0,0.036651248,172.5,0,0,1024,1024,1024,1024,0,0,97,4.289,4.299,4.294,4.301,4.302,4.296,6,GPS_Atti,
37.61333467,-119.0210435,8983.981202,0,0,0.040932416,1500,2017/07/27 19:18:39,12,25.782,8983.981202,0,0,0.040932416,172.5,0,0,1024,1024,1024,1024,0,0,97,4.289,4.299,4.294,4.301,4.302,4.296,6,GPS_Atti,
37.61333468,-119.0210434,8983.981202,0,0,0.046586944,1600,2017/07/27 19:18:39,12,25.782,8983.981202,0,0,0.046586944,172.5,0,0,1024,1024,1024,1024,0,0,97,4.289,4.299,4.294,4.301,4.302,4.296,6,GPS_Atti,
37.61333469,-119.0210434,8983.981202,0,0,0.051842849,1700,2017/07/27 19:18:39,12,25.782,8983.981202,0,0,0.051842849,172.5,0,0,1024,1024,1024,1024,0,0,97,4.289,4.299,4.294,4.301,4.302,4.296,6,GPS_Atti,
37.6133347,-119.0210434,8983.981202,0,0,0.05635302,1800,2017/07/27 19:18:39,12,25.782,8983.981202,0,0,0.05635302,172.5,0,0,1024,1024,1024,1024,0,0,97,4.289,4.299,4.294,4.301,4.302,4.296,6,GPS_Atti,
37.61333471,-119.0210434,8983.981202,0,0,0.059793309,1900,2017/07/27 19:18:39,12,25.776,8983.981202,0,0,0.059793309,172.5,0,0,1024,1024,1024,1024,0,0,97,4.286,4.299,4.292,4.296,4.298,4.294,6,GPS_Atti,
37.61333471,-119.0210434,8983.981202,0,0,0.061249346,2000,2017/07/27 19:18:39,12,25.776,8983.981202,0,0,0.061249346,172.5,0,0,1024,1024,1024,1024,0,0,97,4.286,4.299,4.292,4.296,4.298,4.294,10,Assisted_Takeoff,
37.61333471,-119.0210434,8983.981202,0,0,0.061840881,2100,2017/07/27 19:18:39,12,25.776,8983.981202,0,0,0.061840881,172.5,0,0,1024,1024,1024,1024,0,0,97,4.286,4.299,4.292,4.296,4.298,4.294,10,Assisted_Takeoff,
37.61333471,-119.0210434,8983.981202,0,0,0.061940947,2200,2017/07/27 19:18:39,12,25.776,8983.981202,0,0,0.061940947,172.5,0,0,1024,1024,1024,1024,0,0,97,4.286,4.299,4.292,4.296,4.298,4.294,10,Assisted_Takeoff,Return-to-Home Altitude:98FT
37.6133347,-119.0210434,8983.981202,0,0,0.061098755,2300,2017/07/27 19:18:40,12,25.776,8983.981202,0,0,0.061940947,172.5,0,0,1024,1024,1024,1024,0,0,97,4.286,4.299,4.292,4.296,4.298,4.294,10,Assisted_Takeoff,
37.6133347,-119.0210434,8983.981202,0,0,0.061991144,2400,2017/07/27 19:18:40,12,25.776,8983.981202,0,0,0.061991144,172.5,0,0,1024,1024,1024,1024,0,0,97,4.286,4.299,4.292,4.296,4.298,4.294,10,Assisted_Takeoff,
37.6133347,-119.0210434,8983.981202,0,0,0.063127627,2500,2017/07/27 19:18:40,12,25.776,8983.981202,0,0,0.063127627,172.5,0,0,1024,1024,1072,1024,0,0,97,4.286,4.299,4.292,4.296,4.298,4.294,10,Assisted_Takeoff,
37.61333471,-119.0210434,8983.981202,0,0,0.069734254,2600,2017/07/27 19:18:40,12,25.776,8983.981202,0,0,0.069734254,172.5,0,0,1024,1024,1070,1024,0,0,97,4.286,4.299,4.292,4.296,4.298,4.294,10,Assisted_Takeoff,
37.61333472,-119.0210434,8983.981202,0,0,0.074884189,2700,2017/07/27 19:18:40,12,25.776,8983.981202,0,0,0.074884189,172.5,0,0,1024,1024,1072,1024,0,0,97,4.286,4.299,4.292,4.296,4.298,4.294,10,Assisted_Takeoff,
37.61333473,-119.0210433,8983.981202,0,0,0.078955055,2800,2017/07/27 19:18:40,12,25.776,8983.981202,0,0,0.078955055,172.5,0,0,1024,1024,1079,1024,0,0,97,4.286,4.299,4.292,4.296,4.298,4.294,10,Assisted_Takeoff,
37.61333474,-119.0210433,8983.981202,0,0,0.081879924,2900,2017/07/27 19:18:40,12,25.755,8983.981202,0,0,0.081879924,172.5,0,0,1024,1024,1078,1024,0,0,97,4.286,4.299,4.292,4.296,4.298,4.294,10,Assisted_Takeoff,
37.61333475,-119.0210433,8983.981202,0,0,0.084178808,3000,2017/07/27 19:18:40,12,25.755,8983.981202,0,0,0.084178808,172.5,0,0,1024,1024,1083,1024,0,0,97,4.286,4.299,4.292,4.296,4.298,4.294,10,Assisted_Takeoff,
37.61333475,-119.0210433,8983.981202,0,0,0.086504268,3100,2017/07/27 19:18:40,12,25.755,8983.981202,0,0,0.086504268,172.5,0,0,1024,1024,1084,1024,0,0,97,4.286,4.299,4.292,4.296,4.298,4.294,10,Assisted_Takeoff,
37.61333475,-119.0210433,8983.981202,0,0,0.088989832,3200,2017/07/27 19:18:40,12,25.755,8983.981202,0,0,0.088989832,172.5,0,0,1024,1024,1097,1024,0,0,97,4.286,4.299,4.292,4.296,4.298,4.294,10,Assisted_Takeoff,
37.61333476,-119.0210433,8983.981202,0,0,0.091469491,3300,2017/07/27 19:18:41,12,25.755,8983.981202,0,0,0.091469491,172.5,0,0,1024,1024,1113,1024,0,0,97,4.286,4.299,4.292,4.296,4.298,4.294,10,Assisted_Takeoff,
37.61333476,-119.0210433,8983.981202,0,0,0.094496394,3400,2017/07/27 19:18:41,12,25.755,8983.981202,0,0,0.094496394,172.5,0,0,1024,1024,1128,1024,0,0,97,4.286,4.299,4.292,4.296,4.298,4.294,10,Assisted_Takeoff,
37.61333477,-119.0210433,8983.981202,0,0,0.101160436,3600,2017/07/27 19:18:41,12,25.755,8983.981202,0,0,0.101160436,172.5,0,0,1024,1024,1130,1024,0,0,97,4.286,4.299,4.292,4.296,4.298,4.294,10,Assisted_Takeoff,
37.61333479,-119.0210433,8983.981202,0,0,0.110071854,3800,2017/07/27 19:18:41,12,25.755,8983.981202,0,0,0.110071854,172.5,0,0,1024,1079,1126,1024,0,0,97,4.286,4.299,4.292,4.296,4.298,4.294,10,Assisted_Takeoff,
37.61333481,-119.0210433,8983.981202,0,0,0.113349085,3900,2017/07/27 19:18:41,12,25.755,8983.981202,0,0,0.113349085,172.4,0,0,1024,1073,1127,1024,0,0,97,4.286,4.299,4.292,4.296,4.298,4.294,10,Assisted_Takeoff,
37.61333482,-119.0210433,8983.981202,0,0,0.115251644,4000,2017/07/27 19:18:41,12,25.755,8983.981202,0,0,0.115251644,172.4,0,0,1024,1062,1139,1024,0,0,97,4.286,4.299,4.292,4.296,4.298,4.294,10,Assisted_Takeoff,
37.61333483,-119.0210433,8983.981202,0,0,0.118865161,4100,2017/07/27 19:18:41,12,25.676,8983.981202,0,0,0.118865161,172.3,0,0,1024,1058,1141,1024,0,0,97,4.284,4.295,4.223,4.296,4.297,4.291,10,Assisted_Takeoff,
37.61333485,-119.0210433,8983.981202,0,0,0.127412406,4200,2017/07/27 19:18:41,12,25.676,8983.981202,0,0,0.127412406,172.4,0,0,1024,1059,1145,1024,0,0,97,4.284,4.295,4.223,4.296,4.297,4.291,10,Assisted_Takeoff,
37.61333487,-119.0210432,8983.981202,0,0,0.138152563,4300,2017/07/27 19:18:41,12,25.676,8983.981202,0,0,0.138152563,172.2,0,0,1024,1052,1156,1024,0,0,97,4.284,4.295,4.223,4.296,4.297,4.291,10,Assisted_Takeoff,
37.61333486,-119.0210431,8983.981202,0,0,0.153582026,4400,2017/07/27 19:18:42,12,25.676,8983.981202,0,0,0.153582026,171.8,0,0,1024,1052,1164,1024,0,0,97,4.284,4.295,4.223,4.296,4.297,4.291,10,Assisted_Takeoff,
37.61333486,-119.021043,8983.981202,0,0.223694,0.183984258,4500,2017/07/27 19:18:42,12,25.676,8983.981202,0,0.223694,0.183984258,171.3,0,0,1024,1080,1167,1024,0,0,97,4.284,4.295,4.223,4.296,4.297,4.291,10,Assisted_Takeoff,
37.61333485,-119.0210428,8983.981202,0,0.447388,0.242889115,4600,2017/07/27 19:18:42,12,25.676,8983.981202,0,0.447388,0.242889115,170.9,0,0,1024,1094,1167,1024,0,0,97,4.284,4.295,4.223,4.296,4.297,4.291,6,GPS_Atti,
37.61333485,-119.0210424,8983.981202,0,0.671082,0.335590562,4700,2017/07/27 19:18:42,12,25.676,8983.981202,0,0.671082,0.335590562,170.6,0,0,1024,1102,1167,1024,0,0,97,4.284,4.295,4.223,4.296,4.297,4.291,6,GPS_Atti,
37.61333485,-119.021042,8983.981202,0,0.671082,0.447050539,4800,2017/07/27 19:18:42,12,25.676,8983.981202,0,0.671082,0.447050539,170.5,0,0,1024,1092,1166,1024,0,0,97,4.284,4.295,4.223,4.296,4.297,4.291,6,GPS_Atti,
37.61333484,-119.0210416,8983.981202,0,0.671082,0.556975083,4900,2017/07/27 19:18:42,12,25.676,8983.981202,0,0.671082,0.556975083,170.4,0,0,1024,1090,1167,1024,0,0,97,4.284,4.295,4.223,4.296,4.297,4.291,6,GPS_Atti,
37.61333481,-119.0210413,8984.309286,0.328084,0.671082,0.656318919,5000,2017/07/27 19:18:42,12,25.676,8984.309286,0.328084,0.671082,0.656318919,170.4,0,0,1024,1089,1167,1024,0,0,97,4.284,4.295,4.223,4.296,4.297,4.291,6,GPS_Atti,
37.61333477,-119.021041,8984.309286,0.328084,0.447388,0.745479026,5100,2017/07/27 19:18:42,12,25.676,8984.309286,0.328084,0.671082,0.745479026,170.7,0,0,1024,1090,1168,1024,0,0,97,4.279,4.264,4.28,4.293,4.282,4.284,6,GPS_Atti,
37.61333469,-119.0210407,8984.63737,0.656168,0.447388,0.813553176,5200,2017/07/27 19:18:42,12,25.676,8984.63737,0.656168,0.671082,0.813553176,171.3,0,0,1024,1091,1168,1024,0,0,97,4.279,4.264,4.28,4.293,4.282,4.284,6,GPS_Atti,
37.61333459,-119.0210405,8984.63737,0.656168,0.447388,0.876709346,5300,2017/07/27 19:18:42,11,25.676,8984.63737,0.656168,0.671082,0.876709346,172,0,0,1024,1089,1169,1024,0,0,97,4.279,4.264,4.28,4.293,4.282,4.284,6,GPS_Atti,
37.61333448,-119.0210403,8984.63737,0.656168,0.223694,0.949937694,5400,2017/07/27 19:18:43,11,25.676,8984.63737,0.656168,0.671082,0.949937694,172.7,0,0,1035,1092,1170,1024,0,0,97,4.279,4.264,4.28,4.293,4.282,4.284,6,GPS_Atti,
37.61333434,-119.02104,8984.965454,0.984252,0.3131716,1.019366831,5500,2017/07/27 19:18:43,11,25.676,8984.965454,0.984252,0.671082,1.019366831,173.1,0,0,1029,1096,1172,1024,0,0,97,4.279,4.264,4.28,4.293,4.282,4.284,6,GPS_Atti,
37.61333414,-119.0210398,8984.965454,0.984252,0.3131716,1.084363552,5600,2017/07/27 19:18:43,11,25.676,8984.965454,0.984252,0.671082,1.084363552,173.3,0,0,1024,1097,1171,1024,0,0,97,4.279,4.264,4.28,4.293,4.282,4.284,6,GPS_Atti,
37.61333392,-119.0210397,8985.293538,1.312336,0.447388,1.13907484,5700,2017/07/27 19:18:43,11,25.676,8985.293538,1.312336,0.671082,1.13907484,173,0,0,1024,1092,1170,1024,0,0,97,4.279,4.264,4.28,4.293,4.282,4.284,6,GPS_Atti,
37.61333368,-119.0210397,8985.293538,1.312336,0.447388,1.173366179,5800,2017/07/27 19:18:43,11,25.676,8985.293538,1.312336,0.671082,1.173366179,172.7,0,0,1024,1089,1170,1024,0,0,97,4.279,4.264,4.28,4.293,4.282,4.284,6,GPS_Atti,
37.61333342,-119.0210397,8985.293538,1.312336,0.447388,1.196000694,5900,2017/07/27 19:18:43,12,25.676,8985.293538,1.312336,0.671082,1.196000694,172.5,0,0,1024,1088,1172,1024,0,0,97,4.279,4.264,4.28,4.293,4.282,4.284,6,GPS_Atti,
37.61333316,-119.0210398,8985.293538,1.312336,0.447388,1.203490852,6000,2017/07/27 19:18:43,12,25.676,8985.293538,1.312336,0.671082,1.203490852,172.4,0,0,1024,1086,1172,1024,0,0,97,4.279,4.264,4.28,4.293,4.282,4.284,6,GPS_Atti,
37.61333293,-119.02104,8985.293538,1.312336,0.4921268,1.200652926,6100,2017/07/27 19:18:43,12,25.39,8985.293538,1.312336,0.671082,1.203490852,172.2,0,0,1024,1053,1172,1024,0,0,97,4.206,4.238,4.22,4.22,4.214,4.218,6,GPS_Atti,
37.61333279,-119.0210401,8985.293538,1.312336,0.4921268,1.183064342,6200,2017/07/27 19:18:43,12,25.39,8985.293538,1.312336,0.671082,1.203490852,171.9,0,0,1024,1024,1173,1024,0,0,97,4.206,4.238,4.22,4.22,4.214,4.218,6,GPS_Atti,
37.61333263,-119.0210404,8985.293538,1.312336,0.6263432,1.157299906,6300,2017/07/27 19:18:44,11,25.39,8985.293538,1.312336,0.671082,1.203490852,171.4,0,0,1024,1024,1173,1024,0,0,97,4.206,4.238,4.22,4.22,4.214,4.218,6,GPS_Atti,
37.61333241,-119.0210407,8985.621622,1.64042,0.6263432,1.137175233,6400,2017/07/27 19:18:44,11,25.39,8985.621622,1.64042,0.671082,1.203490852,171,0,0,998,1024,1171,1024,0,0,97,4.206,4.238,4.22,4.22,4.214,4.218,6,GPS_Atti,
37.61333221,-119.0210411,8985.621622,1.64042,0.6263432,1.124753973,6500,2017/07/27 19:18:44,12,25.39,8985.621622,1.64042,0.671082,1.203490852,170.6,0,0,998,1024,1163,1024,0,0,97,4.206,4.238,4.22,4.22,4.214,4.218,6,GPS_Atti,
37.61333205,-119.0210414,8985.949706,1.968504,0.6263432,1.114980351,6600,2017/07/27 19:18:44,12,25.39,8985.949706,1.968504,0.671082,1.203490852,170.4,0,0,1015,1024,1145,1024,0,0,97,4.206,4.238,4.22,4.22,4.214,4.218,6,GPS_Atti,
37.61333191,-119.0210417,8985.949706,1.968504,0.4921268,1.110547936,6700,2017/07/27 19:18:44,11,25.39,8985.949706,1.968504,0.671082,1.203490852,170.2,0,0,1024,1024,1144,1024,0,0,97,4.206,4.238,4.22,4.22,4.214,4.218,6,GPS_Atti,
37.6133318,-119.0210421,8986.27779,2.296588,0.4921268,1.10294951,6800,2017/07/27 19:18:44,11,25.39,8986.27779,2.296588,0.671082,1.203490852,170.3,0,0,1006,1024,1145,1024,0,0,97,4.206,4.238,4.22,4.22,4.214,4.218,6,GPS_Atti,
37.6133317,-119.0210424,8986.27779,2.296588,0.4921268,1.104147017,6900,2017/07/27 19:18:44,11,25.39,8986.27779,2.296588,0.671082,1.203490852,170.5,0,0,975,1024,1144,1024,0,0,97,4.206,4.238,4.22,4.22,4.214,4.218,6,GPS_Atti,
37.61333162,-119.0210426,8986.605874,2.624672,0.3131716,1.115147673,7000,2017/07/27 19:18:44,11,25.39,8986.605874,2.624672,0.671082,1.203490852,170.7,0,0,1018,1024,1130,1024,0,0,97,4.206,4.238,4.22,4.22,4.214,4.218,6,GPS_Atti,
37.61333155,-119.0210428,8986.605874,2.624672,0.3131716,1.131128645,7100,2017/07/27 19:18:44,12,24.559,8986.605874,2.624672,0.671082,1.203490852,171,0,0,1024,1024,1109,1024,0,0,97,3.997,4.063,4.026,4.071,4.061,4.026,6,GPS_Atti,
37.61333145,-119.021043,8986.933958,2.952756,0.3131716,1.158015129,7200,2017/07/27 19:18:44,12,24.559,8986.933958,2.952756,0.671082,1.203490852,171,0,0,1024,1024,1024,1024,0,0,97,3.997,4.063,4.026,4.071,4.061,4.026,6,GPS_Atti,
37.61333136,-119.0210431,8986.933958,2.952756,0.3131716,1.18602366,7300,2017/07/27 19:18:45,12,24.559,8986.933958,2.952756,0.671082,1.203490852,171.1,0,0,1024,1024,1024,1024,0,0,97,3.997,4.063,4.026,4.071,4.061,4.026,6,GPS_Atti,
37.61333126,-119.0210432,8987.262042,3.28084,0.223694,1.217611588,7400,2017/07/27 19:18:45,12,24.559,8987.262042,3.28084,0.671082,1.217611588,171.1,0,0,1024,1024,1024,1024,0,0,97,3.997,4.063,4.026,4.071,4.061,4.026,6,GPS_Atti,
37.61333116,-119.0210434,8987.262042,3.28084,0.223694,1.252677205,7500,2017/07/27 19:18:45,12,24.559,8987.262042,3.28084,0.671082,1.252677205,171,0,0,1024,1024,1024,1024,0,0,97,3.997,4.063,4.026,4.071,4.061,4.026,6,GPS_Atti,
37.61333105,-119.0210434,8987.590126,3.608924,0.223694,1.291896367,7600,2017/07/27 19:18:45,12,24.559,8987.590126,3.608924,0.671082,1.291896367,170.9,0,0,1024,1024,1024,1024,0,0,97,3.997,4.063,4.026,4.071,4.061,4.026,6,GPS_Atti,
37.61333092,-119.0210435,8987.590126,3.608924,0.223694,1.337352405,7700,2017/07/27 19:18:45,12,24.559,8987.590126,3.608924,0.671082,1.337352405,170.8,0,0,1024,1024,1024,1024,0,0,97,3.997,4.063,4.026,4.071,4.061,4.026,6,GPS_Atti,
37.61333075,-119.0210435,8987.590126,3.608924,0.223694,1.399517761,7800,2017/07/27 19:18:45,12,24.559,8987.590126,3.608924,0.671082,1.399517761,170.7,0,0,1024,1024,1024,1024,0,0,97,3.997,4.063,4.026,4.071,4.061,4.026,6,GPS_Atti,
37.61333059,-119.0210435,8987.590126,3.608924,0.223694,1.458661464,7900,2017/07/27 19:18:45,12,24.559,8987.590126,3.608924,0.671082,1.458661464,170.6,0,0,1024,1024,1024,1024,0,0,97,3.997,4.063,4.026,4.071,4.061,4.026,6,GPS_Atti,
37.61333047,-119.0210434,8987.91821,3.937008,0.223694,1.504022358,8000,2017/07/27 19:18:45,12,24.559,8987.91821,3.937008,0.671082,1.504022358,170.7,0,0,1024,1024,1024,1024,0,0,97,3.997,4.063,4.026,4.071,4.061,4.026,6,GPS_Atti,
37.61333035,-119.0210434,8987.91821,3.937008,0.223694,1.548011861,8100,2017/07/27 19:18:45,12,24.041,8987.91821,3.937008,0.671082,1.548011861,170.7,0,0,1024,1024,1024,1024,0,0,96,3.975,4.02,3.992,4.018,4.026,3.998,6,GPS_Atti,
37.61333023,-119.0210434,8987.91821,3.937008,0,1.589547295,8200,2017/07/27 19:18:45,12,24.041,8987.91821,3.937008,0.671082,1.589547295,170.4,0,0,1024,1024,1024,1024,0,0,96,3.975,4.02,3.992,4.018,4.026,3.998,6,GPS_Atti,
37.61333009,-119.0210434,8987.91821,3.937008,0,1.643697559,8400,2017/07/27 19:18:46,12,24.041,8987.91821,3.937008,0.671082,1.643697559,170.1,0,0,1024,1024,1024,1024,0,0,96,3.975,4.02,3.992,4.018,4.026,3.998,6,GPS_Atti,
37.61333005,-119.0210433,8988.246294,4.265092,0,1.658415407,8500,2017/07/27 19:18:46,12,24.041,8988.246294,4.265092,0.671082,1.658415407,170,0,0,1024,1024,1026,1024,0,0,96,3.975,4.02,3.992,4.018,4.026,3.998,6,GPS_Atti,
37.61333002,-119.0210432,8988.246294,4.265092,0,1.66994756,8600,2017/07/27 19:18:46,12,24.041,8988.246294,4.265092,0.671082,1.66994756,170,0,0,1024,1024,1024,1024,0,0,96,3.975,4.02,3.992,4.018,4.026,3.998,6,GPS_Atti,
37.61332997,-119.0210431,8988.246294,4.265092,0,1.691420658,8800,2017/07/27 19:18:46,12,24.041,8988.246294,4.265092,0.671082,1.691420658,170.2,0,0,1024,1024,1138,1024,0,0,96,3.975,4.02,3.992,4.018,4.026,3.998,6,GPS_Atti,
37.61332995,-119.021043,8988.246294,4.265092,0,1.699363571,8900,2017/07/27 19:18:46,12,24.041,8988.246294,4.265092,0.671082,1.699363571,170.4,0,0,1024,1024,1140,1024,0,0,96,3.975,4.02,3.992,4.018,4.026,3.998,6,GPS_Atti,
37.61332994,-119.021043,8988.246294,4.265092,0,1.70595806,9000,2017/07/27 19:18:46,12,24.041,8988.246294,4.265092,0.671082,1.70595806,170.5,0,0,1024,1024,1147,1024,0,0,96,3.975,4.02,3.992,4.018,4.026,3.998,6,GPS_Atti,
37.61332994,-119.0210429,8988.246294,4.265092,0,1.705114884,9100,2017/07/27 19:18:46,12,24.041,8988.246294,4.265092,0.671082,1.70595806,170.6,0,0,1024,1024,1148,1024,0,0,96,3.975,4.02,3.992,4.018,4.026,3.998,6,GPS_Atti,
37.61332998,-119.0210429,8987.91821,3.937008,0,1.689760553,9200,2017/07/27 19:18:46,12,24.041,8988.246294,4.265092,0.671082,1.70595806,170.9,0,0,1024,1024,1143,1024,0,0,96,3.975,4.02,3.992,4.018,4.026,3.998,6,GPS_Atti,
37.61333002,-119.0210429,8987.91821,3.937008,0,1.676433781,9300,2017/07/27 19:18:46,12,24.109,8988.246294,4.265092,0.671082,1.70595806,171.2,0,0,1024,1024,1139,1024,0,0,96,3.977,4.01,4.006,4.021,4.016,4.021,6,GPS_Atti,
37.61333003,-119.0210429,8987.91821,3.937008,0,1.672273676,9400,2017/07/27 19:18:47,12,24.109,8988.246294,4.265092,0.671082,1.70595806,171.5,0,0,1024,1024,1144,1024,0,0,96,3.977,4.01,4.006,4.021,4.016,4.021,6,GPS_Atti,
37.61333005,-119.0210429,8987.91821,3.937008,0,1.665383912,9500,2017/07/27 19:18:47,12,24.109,8988.246294,4.265092,0.671082,1.70595806,172,0,0,1024,1024,1141,1024,0,0,96,3.977,4.01,4.006,4.021,4.016,4.021,6,GPS_Atti,
37.61333009,-119.021043,8988.246294,4.265092,0,1.648307139,9600,2017/07/27 19:18:47,12,24.109,8988.246294,4.265092,0.671082,1.70595806,172.4,0,0,1024,1024,1139,1024,0,0,96,3.977,4.01,4.006,4.021,4.016,4.021,6,GPS_Atti,
37.61333014,-119.021043,8988.246294,4.265092,0,1.628605695,9700,2017/07/27 19:18:47,12,24.109,8988.246294,4.265092,0.671082,1.70595806,172.8,0,0,1024,1024,1128,1024,0,0,96,3.977,4.01,4.006,4.021,4.016,4.021,6,GPS_Atti,
37.61333021,-119.0210431,8988.246294,4.265092,0,1.604675248,9800,2017/07/27 19:18:47,12,24.109,8988.246294,4.265092,0.671082,1.70595806,172.9,0,0,1024,1024,1141,1024,0,0,96,3.977,4.01,4.006,4.021,4.016,4.021,6,GPS_Atti,
37.61333027,-119.0210431,8988.574378,4.593176,0,1.582900313,9900,2017/07/27 19:18:47,12,24.109,8988.574378,4.593176,0.671082,1.70595806,172.9,0,0,1024,1024,1137,1024,0,0,96,3.977,4.01,4.006,4.021,4.016,4.021,6,GPS_Atti,
37.6133303,-119.0210431,8988.574378,4.593176,0,1.57289047,10000,2017/07/27 19:18:47,12,24.109,8988.574378,4.593176,0.671082,1.70595806,172.6,0,0,1024,1024,1147,1024,0,0,96,3.977,4.01,4.006,4.021,4.016,4.021,6,GPS_Atti,
37.61333034,-119.021043,8988.902462,4.92126,0,1.559232333,10100,2017/07/27 19:18:47,12,24.109,8988.902462,4.92126,0.671082,1.70595806,171.9,0,0,1024,1024,1129,1024,0,0,96,3.977,4.01,4.006,4.021,4.016,4.021,6,GPS_Atti,
37.61333043,-119.0210429,8988.902462,4.92126,0,1.528503986,10200,2017/07/27 19:18:47,12,24.109,8988.902462,4.92126,0.671082,1.70595806,171.3,0,0,1024,1024,1140,1024,0,0,96,3.977,4.01,4.006,4.021,4.016,4.021,6,GPS_Atti,
37.61333052,-119.0210428,8989.230546,5.249344,0,1.499074851,10300,2017/07/27 19:18:47,12,23.916,8989.230546,5.249344,0.671082,1.70595806,170.8,0,0,1024,1024,1139,1024,0,0,96,3.934,3.959,3.955,3.962,3.966,3.987,6,GPS_Atti,
37.6133306,-119.0210428,8989.230546,5.249344,0.223694,1.473458052,10400,2017/07/27 19:18:48,12,23.916,8989.230546,5.249344,0.671082,1.70595806,170.6,0,0,1024,1024,1144,1024,0,0,96,3.934,3.959,3.955,3.962,3.966,3.987,6,GPS_Atti,
37.61333067,-119.0210427,8989.55863,5.577428,0.223694,1.453248078,10500,2017/07/27 19:18:48,12,23.916,8989.55863,5.577428,0.671082,1.70595806,170.7,0,0,1024,1024,1141,1024,0,0,96,3.934,3.959,3.955,3.962,3.966,3.987,6,GPS_Atti,
37.6133307,-119.0210425,8989.55863,5.577428,0.223694,1.447457395,10600,2017/07/27 19:18:48,12,23.916,8989.55863,5.577428,0.671082,1.70595806,170.8,0,0,1024,1024,1157,1024,0,0,96,3.934,3.959,3.955,3.962,3.966,3.987,6,GPS_Atti,
37.61333073,-119.0210424,8989.55863,5.577428,0,1.444488235,10700,2017/07/27 19:18:48,12,23.916,8989.55863,5.577428,0.671082,1.70595806,171,0,0,1024,1024,1172,1024,0,0,96,3.934,3.959,3.955,3.962,3.966,3.987,6,GPS_Atti,
37.61333077,-119.0210423,8989.55863,5.577428,0,1.436253327,10800,2017/07/27 19:18:48,12,23.916,8989.55863,5.577428,0.671082,1.70595806,171.2,0,0,1024,1024,1175,1024,0,0,96,3.934,3.959,3.955,3.962,3.966,3.987,6,GPS_Atti,
37.6133308,-119.0210423,8989.55863,5.577428,0,1.432112907,10900,2017/07/27 19:18:48,11,23.916,8989.55863,5.577428,0.671082,1.70595806,171.5,0,0,1024,1024,1179,1024,0,0,96,3.934,3.959,3.955,3.962,3.966,3.987,6,GPS_Atti,
37.6133308,-119.0210422,8989.55863,5.577428,0,1.437877343,11000,2017/07/27 19:18:48,11,23.916,8989.55863,5.577428,0.671082,1.70595806,171.7,0,0,1024,1024,1183,1024,0,0,96,3.934,3.959,3.955,3.962,3.966,3.987,6,GPS_Atti,
37.6133308,-119.0210421,8989.55863,5.577428,0,1.442732986,11100,2017/07/27 19:18:48,11,23.916,8989.55863,5.577428,0.671082,1.70595806,171.9,0,0,1024,1024,1185,1024,0,0,96,3.934,3.959,3.955,3.962,3.966,3.987,6,GPS_Atti,
37.6133308,-119.0210421,8989.55863,5.577428,0,1.443589285,11200,2017/07/27 19:18:48,11,23.916,8989.55863,5.577428,0.671082,1.70595806,172,0,0,1024,1024,1182,1024,0,0,96,3.934,3.959,3.955,3.962,3.966,3.987,6,GPS_Atti,
37.61333081,-119.0210421,8989.886714,5.905512,0,1.439448865,11300,2017/07/27 19:18:48,12,23.713,8989.886714,5.905512,0.671082,1.70595806,171.9,0,0,1024,1024,1183,1024,0,0,96,3.939,3.956,3.963,3.959,3.961,3.949,6,GPS_Atti,
37.61333084,-119.0210422,8989.886714,5.905512,0,1.422647683,11400,2017/07/27 19:18:49,12,23.713,8989.886714,5.905512,0.671082,1.70595806,171.8,0,0,1024,1024,1184,1024,0,0,96,3.939,3.956,3.963,3.959,3.961,3.949,6,GPS_Atti,
37.61333089,-119.0210423,8989.886714,5.905512,0,1.399347158,11500,2017/07/27 19:18:49,12,23.713,8989.886714,5.905512,0.671082,1.70595806,171.6,0,0,1024,1024,1185,1024,0,0,96,3.939,3.956,3.963,3.959,3.961,3.949,6,GPS_Atti,
37.61333098,-119.0210422,8990.214798,6.233596,0,1.369668679,11600,2017/07/27 19:18:49,12,23.713,8990.214798,6.233596,0.671082,1.70595806,171.5,0,0,1024,1024,1185,1024,0,0,96,3.939,3.956,3.963,3.959,3.961,3.949,6,GPS_Atti,
37.61333108,-119.0210422,8990.214798,6.233596,0,1.335561066,11700,2017/07/27 19:18:49,12,23.713,8990.214798,6.233596,0.671082,1.70595806,171.3,0,0,1024,1024,1187,1024,0,0,96,3.939,3.956,3.963,3.959,3.961,3.949,6,GPS_Atti,
37.61333119,-119.0210423,8990.542882,6.56168,0,1.295593873,11800,2017/07/27 19:18:49,12,23.713,8990.542882,6.56168,0.671082,1.70595806,171.1,0,0,1024,1024,1186,1024,0,0,96,3.939,3.956,3.963,3.959,3.961,3.949,6,GPS_Atti,
37.61333131,-119.0210423,8990.870966,6.889764,0.223694,1.252588623,11900,2017/07/27 19:18:49,12,23.713,8990.870966,6.889764,0.671082,1.70595806,170.9,0,0,1024,1024,1187,1024,0,0,96,3.939,3.956,3.963,3.959,3.961,3.949,6,GPS_Atti,
37.61333144,-119.0210422,8991.19905,7.217848,0.223694,1.211876679,12000,2017/07/27 19:18:49,12,23.713,8991.19905,7.217848,0.671082,1.70595806,170.9,0,0,1024,1024,1189,1024,0,0,96,3.939,3.956,3.963,3.959,3.961,3.949,6,GPS_Atti,
37.61333157,-119.0210422,8991.19905,7.217848,0.223694,1.169340589,12100,2017/07/27 19:18:49,12,23.713,8991.19905,7.217848,0.671082,1.70595806,170.9,0,0,1024,1024,1191,1024,0,0,96,3.939,3.956,3.963,3.959,3.961,3.949,6,GPS_Atti,
37.61333171,-119.0210421,8991.527134,7.545932,0.223694,1.125101742,12200,2017/07/27 19:18:49,12,23.713,8991.527134,7.545932,0.671082,1.70595806,171,0,0,1024,1024,1192,1024,0,0,96,3.939,3.956,3.963,3.959,3.961,3.949,6,GPS_Atti,
37.61333185,-119.0210421,8991.855218,7.874016,0.223694,1.083372738,12300,2017/07/27 19:18:49,12,23.622,8991.855218,7.874016,0.671082,1.70595806,171.1,0,0,1024,1024,1191,1024,0,0,96,3.901,3.943,3.936,3.943,3.949,3.934,6,GPS_Atti,
37.61333198,-119.0210421,8991.855218,7.874016,0,1.043497409,12400,2017/07/27 19:18:50,12,23.622,8991.855218,7.874016,0.671082,1.70595806,171.3,0,0,1024,1024,1152,1024,0,0,96,3.901,3.943,3.936,3.943,3.949,3.934,6,GPS_Atti,
37.61333209,-119.021042,8992.183302,8.2021,0,1.012693602,12500,2017/07/27 19:18:50,12,23.622,8992.183302,8.2021,0.671082,1.70595806,171.5,0,0,1024,1024,1024,1024,0,0,96,3.901,3.943,3.936,3.943,3.949,3.934,6,GPS_Atti,
37.61333217,-119.0210419,8992.511386,8.530184,0,1.00147641,12600,2017/07/27 19:18:50,12,23.622,8992.511386,8.530184,0.671082,1.70595806,171.5,0,0,1035,1024,1024,1024,0,0,96,3.901,3.943,3.936,3.943,3.949,3.934,6,GPS_Atti,
37.61333224,-119.0210418,8992.511386,8.530184,0,0.993454756,12700,2017/07/27 19:18:50,12,23.622,8992.511386,8.530184,0.671082,1.70595806,171.5,0,0,1095,1024,1024,1024,0,0,96,3.901,3.943,3.936,3.943,3.949,3.934,6,GPS_Atti,
37.61333228,-119.0210418,8992.511386,8.530184,0,0.980167354,12800,2017/07/27 19:18:50,12,23.622,8992.511386,8.530184,0.671082,1.70595806,171.4,0,0,1127,1024,1024,1024,0,0,96,3.901,3.943,3.936,3.943,3.949,3.934,6,GPS_Atti,
37.61333231,-119.0210418,8992.511386,8.530184,0,0.971896357,12900,2017/07/27 19:18:50,12,23.622,8992.511386,8.530184,0.671082,1.70595806,171.3,0,0,1127,1024,1024,1024,0,0,96,3.901,3.943,3.936,3.943,3.949,3.934,6,GPS_Atti,
37.61333234,-119.0210417,8992.511386,8.530184,0,0.972627984,13000,2017/07/27 19:18:50,12,23.622,8992.511386,8.530184,0.671082,1.70595806,171.1,0,0,1107,1024,1069,1024,0,0,96,3.901,3.943,3.936,3.943,3.949,3.934,6,GPS_Atti,
37.61333223,-119.0210416,8992.83947,8.858268,0.447388,1.034980348,13200,2017/07/27 19:18:50,11,23.622,8992.83947,8.858268,0.671082,1.70595806,170.7,0,0,1094,1024,1121,1024,0,0,96,3.901,3.943,3.936,3.943,3.949,3.934,6,GPS_Atti,
37.61333178,-119.0210413,8992.83947,8.858268,0.7158208,1.207998726,13400,2017/07/27 19:18:50,11,23.622,8992.83947,8.858268,0.7158208,1.70595806,170.3,0,0,1098,1024,1143,1024,0,0,96,3.901,3.943,3.936,3.943,3.949,3.934,6,GPS_Atti,
37.61333146,-119.0210412,8992.511386,8.530184,0.9171454,1.328773008,13500,2017/07/27 19:18:51,11,23.694,8992.83947,8.858268,0.9171454,1.70595806,170.2,0,0,1109,1024,1144,1024,0,0,96,3.901,3.943,3.936,3.943,3.949,3.934,6,GPS_Atti,
37.6133307,-119.021041,8992.511386,8.530184,1.1408394,1.60647971,13700,2017/07/27 19:18:51,11,23.694,8992.83947,8.858268,1.1408394,1.70595806,170.2,0,0,1113,1024,1144,1024,0,0,96,3.901,3.943,3.936,3.943,3.949,3.934,6,GPS_Atti,
37.61333022,-119.0210408,8992.511386,8.530184,1.1408394,1.778087327,13800,2017/07/27 19:18:51,11,23.694,8992.83947,8.858268,1.1408394,1.778087327,170.4,0,0,1103,1024,1057,1024,0,0,96,3.901,3.943,3.936,3.943,3.949,3.934,6,GPS_Atti,
37.61332968,-119.0210407,8992.511386,8.530184,1.3645334,1.96967526,13900,2017/07/27 19:18:51,11,23.694,8992.83947,8.858268,1.3645334,1.96967526,170.6,0,0,1108,1024,1024,1024,0,0,96,3.901,3.943,3.936,3.943,3.949,3.934,6,GPS_Atti,
37.61332907,-119.0210407,8992.83947,8.858268,1.3645334,2.178294033,14000,2017/07/27 19:18:51,11,23.694,8992.83947,8.858268,1.3645334,2.178294033,170.9,0,0,1120,1024,1024,1024,0,0,96,3.901,3.943,3.936,3.943,3.949,3.934,6,GPS_Atti,
37.6133284,-119.0210407,8992.83947,8.858268,1.5882274,2.403736954,14100,2017/07/27 19:18:51,12,23.694,8992.83947,8.858268,1.5882274,2.403736954,171.1,0,0,1120,989,1024,1024,0,0,96,3.901,3.943,3.936,3.943,3.949,3.934,6,GPS_Atti,
37.61332767,-119.0210407,8992.83947,8.858268,1.5882274,2.650846542,14200,2017/07/27 19:18:51,12,23.694,8992.83947,8.858268,1.5882274,2.650846542,171.2,0,0,1121,974,1024,1024,0,0,96,3.901,3.943,3.936,3.943,3.949,3.934,6,GPS_Atti,
37.61332689,-119.0210408,8993.167554,9.186352,1.8119214,2.917221222,14300,2017/07/27 19:18:51,12,23.694,8993.167554,9.186352,1.8119214,2.917221222,171.3,0,0,1120,958,1024,1024,0,0,96,3.901,3.943,3.936,3.943,3.949,3.934,6,GPS_Atti,
37.61332608,-119.0210409,8993.167554,9.186352,1.8119214,3.201614276,14400,2017/07/27 19:18:52,12,23.694,8993.167554,9.186352,1.8119214,3.201614276,171.3,0,0,1107,922,1024,1024,0,0,96,3.901,3.943,3.936,3.943,3.949,3.934,6,GPS_Atti,
37.61332522,-119.0210408,8993.167554,9.186352,2.0356154,3.50475733,14500,2017/07/27 19:18:52,12,23.694,8993.167554,9.186352,2.0356154,3.50475733,171.4,0,0,1109,944,1024,1024,0,0,96,3.901,3.943,3.936,3.943,3.949,3.934,6,GPS_Atti,
37.61332433,-119.0210407,8993.167554,9.186352,2.0579848,3.83100406,14600,2017/07/27 19:18:52,12,23.723,8993.167554,9.186352,2.0579848,3.83100406,171.4,0,0,1098,950,1024,1024,0,0,96,3.921,3.954,3.95,3.957,3.961,3.952,6,GPS_Atti,
37.61332341,-119.0210405,8993.495638,9.514436,2.125093,4.172178611,14700,2017/07/27 19:18:52,12,23.723,8993.495638,9.514436,2.125093,4.172178611,171.4,0,0,1112,982,1024,1024,0,0,96,3.921,3.954,3.95,3.957,3.961,3.952,6,GPS_Atti,
37.61332246,-119.0210402,8993.495638,9.514436,2.125093,4.529166812,14800,2017/07/27 19:18:52,12,23.723,8993.495638,9.514436,2.125093,4.529166812,171.4,0,0,1129,982,1024,1024,0,0,96,3.921,3.954,3.95,3.957,3.961,3.952,6,GPS_Atti,
37.61332149,-119.0210399,8993.495638,9.514436,2.3264176,4.895078897,14900,2017/07/27 19:18:52,12,23.723,8993.495638,9.514436,2.3264176,4.895078897,171.5,0,0,1133,975,1026,1024,0,0,96,3.921,3.954,3.95,3.957,3.961,3.952,6,GPS_Atti,
37.61332049,-119.0210395,8993.495638,9.514436,2.3264176,5.272769198,15000,2017/07/27 19:18:52,12,23.723,8993.495638,9.514436,2.3264176,5.272769198,171.7,0,0,1125,970,1024,1024,0,0,96,3.921,3.954,3.95,3.957,3.961,3.952,6,GPS_Atti,
37.61331943,-119.0210392,8993.495638,9.514436,2.6172198,5.672113042,15100,2017/07/27 19:18:52,12,23.723,8993.495638,9.514436,2.6172198,5.672113042,172,0,0,1111,1001,1024,1024,0,0,96,3.921,3.954,3.95,3.957,3.961,3.952,6,GPS_Atti,
37.61331829,-119.0210388,8993.495638,9.514436,2.6172198,6.103412269,15200,2017/07/27 19:18:52,12,23.723,8993.495638,9.514436,2.6172198,6.103412269,172.1,0,0,1108,1020,1024,1024,0,0,96,3.921,3.954,3.95,3.957,3.961,3.952,6,GPS_Atti,
37.6133171,-119.0210384,8993.495638,9.514436,2.8185444,6.553641942,15300,2017/07/27 19:18:52,12,23.723,8993.495638,9.514436,2.8185444,6.553641942,172.2,0,0,1117,1020,1024,1024,0,0,96,3.921,3.954,3.95,3.957,3.961,3.952,6,GPS_Atti,
37.61331585,-119.021038,8993.167554,9.186352,2.8185444,7.02427844,15400,2017/07/27 19:18:53,12,23.723,8993.495638,9.514436,2.8185444,7.02427844,172.1,0,0,1106,1024,1024,1024,0,0,96,3.921,3.954,3.95,3.957,3.961,3.952,6,GPS_Atti,
37.61331457,-119.0210376,8993.167554,9.186352,2.8185444,7.50554486,15500,2017/07/27 19:18:53,12,23.723,8993.495638,9.514436,2.8185444,7.50554486,171.9,0,0,1105,1024,1024,1024,0,0,96,3.921,3.954,3.95,3.957,3.961,3.952,6,GPS_Atti,
37.61331325,-119.0210372,8993.167554,9.186352,2.9751302,7.997539626,15600,2017/07/27 19:18:53,12,23.723,8993.495638,9.514436,2.9751302,7.997539626,171.6,0,0,1024,1024,1024,1024,0,0,96,3.902,3.978,3.935,3.976,3.952,3.937,6,GPS_Atti,
37.6133119,-119.0210369,8993.167554,9.186352,2.9751302,8.499311296,15700,2017/07/27 19:18:53,12,23.723,8993.495638,9.514436,2.9751302,8.499311296,171.5,0,0,1024,1024,1024,1024,0,0,96,3.902,3.978,3.935,3.976,3.952,3.937,6,GPS_Atti,
37.61331056,-119.0210365,8993.167554,9.186352,2.9751302,9.001017348,15800,2017/07/27 19:18:53,12,23.723,8993.495638,9.514436,2.9751302,9.001017348,171.4,0,0,1024,1024,1024,1024,0,0,96,3.902,3.978,3.935,3.976,3.952,3.937,6,GPS_Atti,
37.61330927,-119.0210361,8993.167554,9.186352,2.7738056,9.48471159,15900,2017/07/27 19:18:53,12,23.723,8993.495638,9.514436,2.9751302,9.48471159,171.5,0,0,1024,1024,1024,1024,0,0,96,3.902,3.978,3.935,3.976,3.952,3.937,6,GPS_Atti,
37.61330805,-119.0210358,8993.167554,9.186352,2.5501116,9.935925515,16000,2017/07/27 19:18:53,12,23.723,8993.495638,9.514436,2.9751302,9.935925515,171.6,0,0,1039,1024,1024,1024,0,0,96,3.902,3.978,3.935,3.976,3.952,3.937,6,GPS_Atti,
37.61330696,-119.0210355,8992.83947,8.858268,2.0579848,10.34337303,16100,2017/07/27 19:18:53,12,23.723,8993.495638,9.514436,2.9751302,10.34337303,171.8,0,0,1066,1024,1024,1024,0,0,96,3.902,3.978,3.935,3.976,3.952,3.937,6,GPS_Atti,
37.613306,-119.0210353,8992.83947,8.858268,1.8342908,10.69911452,16200,2017/07/27 19:18:53,12,23.723,8993.495638,9.514436,2.9751302,10.69911452,171.8,0,0,1087,1024,1024,1024,0,0,96,3.902,3.978,3.935,3.976,3.952,3.937,6,GPS_Atti,
37.61330511,-119.021035,8992.83947,8.858268,1.8342908,11.03290718,16300,2017/07/27 19:18:53,12,23.723,8993.495638,9.514436,2.9751302,11.03290718,171.7,0,0,1087,1024,1024,1024,0,0,96,3.902,3.978,3.935,3.976,3.952,3.937,6,GPS_Atti,
37.61330417,-119.0210348,8993.167554,9.186352,1.8342908,11.38408829,16400,2017/07/27 19:18:54,12,23.723,8993.495638,9.514436,2.9751302,11.38408829,171.6,0,0,1044,1024,1024,1024,0,0,96,3.902,3.978,3.935,3.976,3.952,3.937,6,GPS_Atti,
37.61330319,-119.0210345,8993.167554,9.186352,1.8342908,11.75259224,16500,2017/07/27 19:18:54,12,23.723,8993.495638,9.514436,2.9751302,11.75259224,171.5,0,0,1043,1024,1024,1024,0,0,96,3.902,3.978,3.935,3.976,3.952,3.937,6,GPS_Atti,
37.61330215,-119.0210341,8993.167554,9.186352,2.0579848,12.15032847,16600,2017/07/27 19:18:54,12,23.791,8993.495638,9.514436,2.9751302,12.15032847,171.5,0,0,1060,1024,1024,1024,0,0,96,3.944,3.985,3.953,3.981,3.972,3.967,6,GPS_Atti,
37.6133011,-119.0210336,8993.167554,9.186352,2.0579848,12.55045972,16700,2017/07/27 19:18:54,12,23.791,8993.495638,9.514436,2.9751302,12.55045972,171.4,0,0,1080,1024,1024,1024,0,0,96,3.944,3.985,3.953,3.981,3.972,3.967,6,GPS_Atti,
37.6133001,-119.0210331,8993.167554,9.186352,2.0579848,12.93966577,16800,2017/07/27 19:18:54,12,23.791,8993.495638,9.514436,2.9751302,12.93966577,171.3,0,0,1053,1024,1024,1024,0,0,96,3.944,3.985,3.953,3.981,3.972,3.967,6,GPS_Atti,
37.61329909,-119.0210326,8993.167554,9.186352,2.125093,13.33441644,16900,2017/07/27 19:18:54,12,23.791,8993.495638,9.514436,2.9751302,13.33441644,171.3,0,0,1030,1024,1024,1024,0,0,96,3.944,3.985,3.953,3.981,3.972,3.967,6,GPS_Atti,
37.61329807,-119.021032,8993.167554,9.186352,2.125093,13.73300569,17000,2017/07/27 19:18:54,12,23.791,8993.495638,9.514436,2.9751302,13.73300569,171.3,0,0,1028,1024,1024,1024,0,0,96,3.944,3.985,3.953,3.981,3.972,3.967,6,GPS_Atti,
37.61329707,-119.0210315,8993.167554,9.186352,2.125093,14.12605032,17100,2017/07/27 19:18:54,12,23.791,8993.495638,9.514436,2.9751302,14.12605032,171.3,0,0,1044,1024,1024,1024,0,0,96,3.944,3.985,3.953,3.981,3.972,3.967,6,GPS_Atti,
37.61329612,-119.0210309,8992.83947,8.858268,1.901399,14.5028876,17200,2017/07/27 19:18:54,12,23.791,8993.495638,9.514436,2.9751302,14.5028876,171.3,0,0,1077,1024,1024,1024,0,0,96,3.944,3.985,3.953,3.981,3.972,3.967,6,GPS_Atti,
37.6132952,-119.0210304,8992.83947,8.858268,1.901399,14.86565008,17300,2017/07/27 19:18:55,12,23.791,8993.495638,9.514436,2.9751302,14.86565008,171.3,0,0,1061,1024,1024,1024,0,0,96,3.944,3.985,3.953,3.981,3.972,3.967,6,GPS_Atti,
37.61329435,-119.0210299,8992.83947,8.858268,1.901399,15.20452805,17400,2017/07/27 19:18:55,12,23.791,8993.495638,9.514436,2.9751302,15.20452805,171.2,0,0,1039,1024,1024,1024,0,0,96,3.944,3.985,3.953,3.981,3.972,3.967,6,GPS_Atti,
37.61329351,-119.0210293,8993.167554,9.186352,1.901399,15.54051887,17500,2017/07/27 19:18:55,12,23.791,8993.495638,9.514436,2.9751302,15.54051887,171.1,0,0,1050,1024,1024,1024,0,0,96,3.944,3.985,3.953,3.981,3.972,3.967,6,GPS_Atti,
37.61329267,-119.0210288,8992.83947,8.858268,1.901399,15.87949526,17600,2017/07/27 19:18:55,12,23.648,8993.495638,9.514436,2.9751302,15.87949526,171.1,0,0,1048,1024,1024,1024,0,0,95,3.907,3.954,3.934,3.951,3.962,3.937,6,GPS_Atti,
37.61329185,-119.0210282,8993.167554,9.186352,1.7000744,16.21381285,17700,2017/07/27 19:18:55,12,23.648,8993.495638,9.514436,2.9751302,16.21381285,171.1,0,0,1059,1024,1024,1024,0,0,95,3.907,3.954,3.934,3.951,3.962,3.937,6,GPS_Atti,
37.61329107,-119.0210276,8993.167554,9.186352,1.7000744,16.53189029,17800,2017/07/27 19:18:55,12,23.648,8993.495638,9.514436,2.9751302,16.53189029,171.1,0,0,1055,1024,1024,1024,0,0,95,3.907,3.954,3.934,3.951,3.962,3.937,6,GPS_Atti,
37.61329032,-119.0210271,8992.83947,8.858268,1.7000744,16.83720526,17900,2017/07/27 19:18:55,12,23.648,8993.495638,9.514436,2.9751302,16.83720526,171.2,0,0,1024,1024,1024,1024,0,0,95,3.907,3.954,3.934,3.951,3.962,3.937,6,GPS_Atti,
37.61328964,-119.0210265,8992.83947,8.858268,1.7000744,17.12267115,18000,2017/07/27 19:18:55,12,23.648,8993.495638,9.514436,2.9751302,17.12267115,171.4,0,0,1043,1024,1024,1024,0,0,95,3.907,3.954,3.934,3.951,3.962,3.937,6,GPS_Atti,
37.6132883,-119.0210253,8992.83947,8.858268,1.4987498,17.69212655,18200,2017/07/27 19:18:55,12,23.648,8993.495638,9.514436,2.9751302,17.69212655,171.5,0,0,1059,1024,1024,1024,0,0,95,3.907,3.954,3.934,3.951,3.962,3.937,6,GPS_Atti,
37.61328765,-119.0210248,8992.83947,8.858268,1.4987498,17.96473155,18300,2017/07/27 19:18:55,12,23.648,8993.495638,9.514436,2.9751302,17.96473155,171.6,0,0,1059,1024,1024,1024,0,0,95,3.907,3.954,3.934,3.951,3.962,3.937,6,GPS_Atti,
37.61328655,-119.0210237,8992.511386,8.530184,1.2974252,18.44147041,18500,2017/07/27 19:18:56,12,23.648,8993.495638,9.514436,2.9751302,18.44147041,171.5,0,0,1082,1024,1024,1024,0,0,95,3.907,3.954,3.934,3.951,3.962,3.937,6,GPS_Atti,
37.61328603,-119.0210232,8992.511386,8.530184,1.2974252,18.66909509,18600,2017/07/27 19:18:56,12,23.648,8993.495638,9.514436,2.9751302,18.66909509,171.3,0,0,1058,1024,1024,1024,0,0,95,3.907,3.954,3.934,3.951,3.962,3.937,6,GPS_Atti,
37.6132855,-119.0210226,8992.511386,8.530184,1.2974252,18.90219877,18700,2017/07/27 19:18:56,12,23.648,8993.495638,9.514436,2.9751302,18.90219877,171.3,0,0,1086,1024,1024,1024,0,0,95,3.907,3.954,3.934,3.951,3.962,3.937,6,GPS_Atti,
37.61328495,-119.021022,8992.511386,8.530184,1.2974252,19.14586675,18800,2017/07/27 19:18:56,12,23.697,8993.495638,9.514436,2.9751302,19.14586675,171.2,0,0,1104,1024,1024,1024,0,0,95,3.921,3.957,3.951,3.961,3.961,3.953,6,GPS_Atti,
37.6132844,-119.0210214,8992.511386,8.530184,1.4987498,19.39278277,18900,2017/07/27 19:18:56,12,23.697,8993.495638,9.514436,2.9751302,19.39278277,171.1,0,0,1109,1024,1024,1024,0,0,95,3.921,3.957,3.951,3.961,3.961,3.953,6,GPS_Atti,
37.61328385,-119.0210208,8992.83947,8.858268,1.4987498,19.64019092,19000,2017/07/27 19:18:56,12,23.697,8993.495638,9.514436,2.9751302,19.64019092,171,0,0,1124,1024,1024,1024,0,0,95,3.921,3.957,3.951,3.961,3.961,3.953,6,GPS_Atti,
37.61328327,-119.0210202,8992.83947,8.858268,1.4987498,19.90016468,19100,2017/07/27 19:18:56,11,23.697,8993.495638,9.514436,2.9751302,19.90016468,170.9,0,0,1133,1024,1024,1024,0,0,95,3.921,3.957,3.951,3.961,3.961,3.953,6,GPS_Atti,
37.61328266,-119.0210196,8993.167554,9.186352,1.7000744,20.17152296,19200,2017/07/27 19:18:56,11,23.697,8993.495638,9.514436,2.9751302,20.17152296,170.8,0,0,1129,1024,1024,1024,0,0,95,3.921,3.957,3.951,3.961,3.961,3.953,6,GPS_Atti,
37.613282,-119.021019,8993.167554,9.186352,1.7000744,20.45426575,19300,2017/07/27 19:18:56,11,23.697,8993.495638,9.514436,2.9751302,20.45426575,170.8,0,0,1130,1024,1024,1024,0,0,95,3.921,3.957,3.951,3.961,3.961,3.953,6,GPS_Atti,
37.61328134,-119.0210184,8992.83947,8.858268,1.901399,20.738813,19400,2017/07/27 19:18:57,11,23.697,8993.495638,9.514436,2.9751302,20.738813,170.8,0,0,1127,1024,1024,1024,0,0,95,3.921,3.957,3.951,3.961,3.961,3.953,6,GPS_Atti,
37.61328063,-119.0210179,8992.83947,8.858268,1.901399,21.04061747,19500,2017/07/27 19:18:57,11,23.697,8993.495638,9.514436,2.9751302,21.04061747,170.7,0,0,1118,1024,1024,1024,0,0,95,3.921,3.957,3.951,3.961,3.961,3.953,6,GPS_Atti,
37.61327985,-119.0210173,8993.167554,9.186352,2.125093,21.36614242,19600,2017/07/27 19:18:57,11,23.697,8993.495638,9.514436,2.9751302,21.36614242,170.7,0,0,1088,1024,1024,1024,0,0,95,3.921,3.957,3.951,3.961,3.961,3.953,6,GPS_Atti,
37.61327904,-119.0210167,8993.167554,9.186352,2.125093,21.70285503,19700,2017/07/27 19:18:57,12,23.697,8993.495638,9.514436,2.9751302,21.70285503,170.7,0,0,1069,1024,1024,1024,0,0,95,3.921,3.957,3.951,3.961,3.961,3.953,6,GPS_Atti,
37.61327822,-119.0210162,8993.167554,9.186352,2.125093,22.03612275,19800,2017/07/27 19:18:57,12,23.625,8993.495638,9.514436,2.9751302,22.03612275,170.8,0,0,1079,1024,1024,1024,0,0,95,3.905,3.937,3.947,3.937,3.942,3.938,6,GPS_Atti,
37.61327742,-119.0210157,8993.167554,9.186352,2.125093,22.3628288,19900,2017/07/27 19:18:57,12,23.625,8993.495638,9.514436,2.9751302,22.3628288,170.9,0,0,1101,1024,1024,1024,0,0,95,3.905,3.937,3.947,3.937,3.942,3.938,6,GPS_Atti,
37.61327666,-119.0210152,8993.167554,9.186352,2.125093,22.6709981,20000,2017/07/27 19:18:57,12,23.625,8993.495638,9.514436,2.9751302,22.6709981,170.9,0,0,1106,1024,1024,1024,0,0,95,3.905,3.937,3.947,3.937,3.942,3.938,6,GPS_Atti,
37.61327593,-119.0210147,8993.167554,9.186352,2.125093,22.96847186,20100,2017/07/27 19:18:57,12,23.625,8993.495638,9.514436,2.9751302,22.96847186,170.9,0,0,1110,1024,1024,1024,0,0,95,3.905,3.937,3.947,3.937,3.942,3.938,6,GPS_Atti,
37.61327522,-119.0210143,8993.495638,9.514436,2.125093,23.2553157,20200,2017/07/27 19:18:57,12,23.625,8993.495638,9.514436,2.9751302,23.2553157,171,0,0,1117,1024,1024,1024,0,0,95,3.905,3.937,3.947,3.937,3.942,3.938,6,GPS_Atti,
37.6132745,-119.0210138,8993.495638,9.514436,2.125093,23.54445613,20300,2017/07/27 19:18:57,12,23.625,8993.495638,9.514436,2.9751302,23.54445613,171,0,0,1102,1024,1024,1024,0,0,95,3.905,3.937,3.947,3.937,3.942,3.938,6,GPS_Atti,
37.61327375,-119.0210134,8993.167554,9.186352,2.125093,23.84698239,20400,2017/07/27 19:18:58,12,23.625,8993.495638,9.514436,2.9751302,23.84698239,171.1,0,0,1109,1024,1024,1024,0,0,95,3.905,3.937,3.947,3.937,3.942,3.938,6,GPS_Atti,
37.61327297,-119.0210129,8993.167554,9.186352,2.125093,24.15961363,20500,2017/07/27 19:18:58,12,23.625,8993.495638,9.514436,2.9751302,24.15961363,171.1,0,0,1128,1024,1024,1024,0,0,95,3.905,3.937,3.947,3.937,3.942,3.938,6,GPS_Atti,
37.61327215,-119.0210125,8993.167554,9.186352,2.125093,24.4859916,20600,2017/07/27 19:18:58,12,23.625,8993.495638,9.514436,2.9751302,24.4859916,171.2,0,0,1128,1024,1024,1024,0,0,95,3.905,3.937,3.947,3.937,3.942,3.938,6,GPS_Atti,
37.6132713,-119.0210121,8993.167554,9.186352,2.3264176,24.81984988,20700,2017/07/27 19:18:58,12,23.625,8993.495638,9.514436,2.9751302,24.81984988,171.2,0,0,1110,1024,1024,1024,0,0,95,3.905,3.937,3.947,3.937,3.942,3.938,6,GPS_Atti,
37.61327041,-119.0210116,8992.83947,8.858268,2.3264176,25.16417403,20800,2017/07/27 19:18:58,12,23.544,8993.495638,9.514436,2.9751302,25.16417403,171.2,0,0,1080,1024,1024,1024,0,0,95,3.885,3.946,3.915,3.938,3.941,3.917,6,GPS_Atti,
37.61326949,-119.0210113,8993.167554,9.186352,2.3264176,25.51837352,20900,2017/07/27 19:18:58,12,23.544,8993.495638,9.514436,2.9751302,25.51837352,171.3,0,0,1087,1024,1024,1024,0,0,95,3.885,3.946,3.915,3.938,3.941,3.917,6,GPS_Atti,
37.61326856,-119.0210109,8992.83947,8.858268,2.2816788,25.86837353,21000,2017/07/27 19:18:58,12,23.544,8993.495638,9.514436,2.9751302,25.86837353,171.4,0,0,1111,1024,1024,1024,0,0,95,3.885,3.946,3.915,3.938,3.941,3.917,6,GPS_Atti,
37.61326764,-119.0210106,8992.83947,8.858268,2.2816788,26.21292735,21100,2017/07/27 19:18:58,12,23.544,8993.495638,9.514436,2.9751302,26.21292735,171.5,0,0,1112,1024,1024,1024,0,0,95,3.885,3.946,3.915,3.938,3.941,3.917,6,GPS_Atti,
37.61326669,-119.0210104,8992.83947,8.858268,2.2816788,26.56358353,21200,2017/07/27 19:18:58,12,23.544,8993.495638,9.514436,2.9751302,26.56358353,171.5,0,0,1086,1024,1024,1024,0,0,95,3.885,3.946,3.915,3.938,3.941,3.917,6,GPS_Atti,
37.61326574,-119.0210101,8993.167554,9.186352,2.2816788,26.91312422,21300,2017/07/27 19:18:59,12,23.544,8993.495638,9.514436,2.9751302,26.91312422,171.6,0,0,1063,1024,1024,1024,0,0,95,3.885,3.946,3.915,3.938,3.941,3.917,6,GPS_Atti,
37.61326482,-119.0210099,8993.167554,9.186352,2.2816788,27.24908224,21400,2017/07/27 19:18:59,12,23.544,8993.495638,9.514436,2.9751302,27.24908224,171.7,0,0,1068,1024,1024,1024,0,0,95,3.885,3.946,3.915,3.938,3.941,3.917,6,GPS_Atti,
37.61326391,-119.0210097,8993.167554,9.186352,2.23694,27.58369511,21500,2017/07/27 19:18:59,12,23.544,8993.495638,9.514436,2.9751302,27.58369511,171.7,0,0,1032,1024,1024,1024,0,0,95,3.885,3.946,3.915,3.938,3.941,3.917,6,GPS_Atti,
37.61326298,-119.0210095,8993.167554,9.186352,2.0356154,27.92109669,21600,2017/07/27 19:18:59,12,23.544,8993.495638,9.514436,2.9751302,27.92109669,171.6,0,0,1035,1024,1024,1024,0,0,95,3.885,3.946,3.915,3.938,3.941,3.917,6,GPS_Atti,
37.6132621,-119.0210093,8993.167554,9.186352,2.0356154,28.23933817,21700,2017/07/27 19:18:59,12,23.544,8993.495638,9.514436,2.9751302,28.23933817,171.5,0,0,1064,1024,1025,1024,0,0,95,3.885,3.946,3.915,3.938,3.941,3.917,6,GPS_Atti,
37.61326129,-119.0210091,8993.167554,9.186352,1.8119214,28.53251404,21800,2017/07/27 19:18:59,12,23.618,8993.495638,9.514436,2.9751302,28.53251404,171.3,0,0,1087,1024,1031,1024,0,0,95,3.91,3.937,3.933,3.947,3.932,3.94,6,GPS_Atti,
37.61326056,-119.021009,8993.167554,9.186352,1.565858,28.79662166,21900,2017/07/27 19:18:59,12,23.618,8993.495638,9.514436,2.9751302,28.79662166,171.2,0,0,1083,1024,1050,1024,0,0,95,3.91,3.937,3.933,3.947,3.932,3.94,6,GPS_Atti,
37.6132599,-119.0210088,8992.83947,8.858268,1.565858,29.03750093,22000,2017/07/27 19:18:59,12,23.618,8993.495638,9.514436,2.9751302,29.03750093,171.1,0,0,1091,1024,1034,1024,0,0,95,3.91,3.937,3.933,3.947,3.932,3.94,6,GPS_Atti,
37.61325924,-119.0210087,8992.83947,8.858268,1.565858,29.27890514,22100,2017/07/27 19:18:59,12,23.618,8993.495638,9.514436,2.9751302,29.27890514,171.1,0,0,1087,1024,1024,1024,0,0,95,3.91,3.937,3.933,3.947,3.932,3.94,6,GPS_Atti,
37.61325854,-119.0210085,8993.167554,9.186352,1.5882274,29.53861643,22200,2017/07/27 19:18:59,12,23.618,8993.495638,9.514436,2.9751302,29.53861643,171.1,0,0,1108,1024,1026,1024,0,0,95,3.91,3.937,3.933,3.947,3.932,3.94,6,GPS_Atti,
37.61325782,-119.0210083,8993.167554,9.186352,1.5882274,29.80951539,22300,2017/07/27 19:19:00,12,23.618,8993.495638,9.514436,2.9751302,29.80951539,171.1,0,0,1103,1024,1024,1024,0,0,95,3.91,3.937,3.933,3.947,3.932,3.94,6,GPS_Atti,
37.61325707,-119.021008,8993.167554,9.186352,1.5882274,30.09380018,22400,2017/07/27 19:19:00,12,23.618,8993.495638,9.514436,2.9751302,30.09380018,171.1,0,0,1112,1024,1024,1024,0,0,95,3.91,3.937,3.933,3.947,3.932,3.94,6,GPS_Atti,
37.6132563,-119.0210077,8993.167554,9.186352,1.8119214,30.39051935,22500,2017/07/27 19:19:00,12,23.618,8993.495638,9.514436,2.9751302,30.39051935,171,0,0,1111,1024,1024,1024,0,0,95,3.91,3.937,3.933,3.947,3.932,3.94,6,GPS_Atti,
37.61325549,-119.0210073,8993.167554,9.186352,1.8119214,30.69973852,22600,2017/07/27 19:19:00,12,23.618,8993.495638,9.514436,2.9751302,30.69973852,171,0,0,1123,1024,1024,1024,0,0,95,3.91,3.937,3.933,3.947,3.932,3.94,6,GPS_Atti,
37.61325465,-119.021007,8993.167554,9.186352,1.8342908,31.02021097,22700,2017/07/27 19:19:00,12,23.618,8993.495638,9.514436,2.9751302,31.02021097,171,0,0,1087,1024,1024,1024,0,0,95,3.91,3.937,3.933,3.947,3.932,3.94,6,GPS_Atti,
37.61325378,-119.0210067,8993.495638,9.514436,2.0579848,31.34731071,22800,2017/07/27 19:19:00,12,23.525,8993.495638,9.514436,2.9751302,31.34731071,171,0,0,1065,1024,1024,1024,0,0,95,3.879,3.931,3.906,3.932,3.933,3.92,6,GPS_Atti,
37.61325289,-119.0210064,8993.495638,9.514436,2.0356154,31.68018474,22900,2017/07/27 19:19:00,12,23.525,8993.495638,9.514436,2.9751302,31.68018474,171,0,0,1062,1024,1072,1024,0,0,95,3.879,3.931,3.906,3.932,3.933,3.92,6,GPS_Atti,
37.61325114,-119.021006,8993.495638,9.514436,2.0356154,32.31778319,23100,2017/07/27 19:19:00,12,23.525,8993.495638,9.514436,2.9751302,32.31778319,171.1,0,0,1042,1024,1106,1024,0,0,95,3.879,3.931,3.906,3.932,3.933,3.92,6,GPS_Atti,
37.61325032,-119.0210059,8993.167554,9.186352,2.0356154,32.61456797,23200,2017/07/27 19:19:00,12,23.525,8993.495638,9.514436,2.9751302,32.61456797,171.3,0,0,1041,1024,1097,1024,0,0,95,3.879,3.931,3.906,3.932,3.933,3.92,6,GPS_Atti,
37.61324955,-119.0210057,8993.167554,9.186352,1.8119214,32.89698268,23300,2017/07/27 19:19:00,12,23.525,8993.495638,9.514436,2.9751302,32.89698268,171.6,0,0,1049,1024,1095,1024,0,0,95,3.879,3.931,3.906,3.932,3.933,3.92,6,GPS_Atti,
37.61324881,-119.0210056,8993.167554,9.186352,1.5882274,33.16535539,23400,2017/07/27 19:19:01,12,23.525,8993.495638,9.514436,2.9751302,33.16535539,171.9,0,0,1039,1024,1106,1024,0,0,95,3.879,3.931,3.906,3.932,3.933,3.92,6,GPS_Atti,
37.61324812,-119.0210054,8993.167554,9.186352,1.5882274,33.41601157,23500,2017/07/27 19:19:01,12,23.525,8993.495638,9.514436,2.9751302,33.41601157,172.4,0,0,1037,1024,1106,1024,0,0,95,3.879,3.931,3.906,3.932,3.933,3.92,6,GPS_Atti,
37.61324746,-119.0210053,8993.495638,9.514436,1.342164,33.65682522,23600,2017/07/27 19:19:01,12,23.525,8993.495638,9.514436,2.9751302,33.65682522,172.8,0,0,1043,1024,1107,1024,0,0,95,3.879,3.931,3.906,3.932,3.933,3.92,6,GPS_Atti,
37.61324686,-119.0210052,8993.495638,9.514436,1.11847,33.87336066,23700,2017/07/27 19:19:01,12,23.525,8993.495638,9.514436,2.9751302,33.87336066,173,0,0,1042,1024,1077,1024,0,0,95,3.879,3.931,3.906,3.932,3.933,3.92,6,GPS_Atti,
37.61324637,-119.021005,8993.495638,9.514436,1.11847,34.05643154,23800,2017/07/27 19:19:01,12,23.525,8993.495638,9.514436,2.9751302,34.05643154,172.9,0,0,1048,1024,1057,1024,0,0,95,3.879,3.931,3.906,3.932,3.933,3.92,6,GPS_Atti,
37.61324594,-119.0210049,8993.495638,9.514436,0.894776,34.21358377,23900,2017/07/27 19:19:01,12,23.507,8993.495638,9.514436,2.9751302,34.21358377,172.6,0,0,1045,1001,1047,1024,0,0,95,3.885,3.922,3.931,3.916,3.935,3.916,6,GPS_Atti,
37.61324555,-119.0210049,8993.495638,9.514436,0.671082,34.35564414,24000,2017/07/27 19:19:01,12,23.507,8993.495638,9.514436,2.9751302,34.35564414,172.2,0,0,1041,961,1047,1024,0,0,95,3.885,3.922,3.931,3.916,3.935,3.916,6,GPS_Atti,
37.61324518,-119.0210048,8993.495638,9.514436,0.671082,34.4898305,24100,2017/07/27 19:19:01,12,23.507,8993.495638,9.514436,2.9751302,34.4898305,171.8,0,0,1035,943,1031,1024,0,0,95,3.885,3.922,3.931,3.916,3.935,3.916,6,GPS_Atti,
37.61324479,-119.0210047,8993.495638,9.514436,0.671082,34.63845255,24200,2017/07/27 19:19:01,12,23.507,8993.495638,9.514436,2.9751302,34.63845255,171.3,0,0,1036,961,1027,1024,0,0,95,3.885,3.922,3.931,3.916,3.935,3.916,6,GPS_Atti,
37.61324443,-119.0210044,8993.495638,9.514436,0.7158208,34.78477802,24300,2017/07/27 19:19:01,12,23.507,8993.495638,9.514436,2.9751302,34.78477802,171.1,0,0,1034,1005,1024,1024,0,0,95,3.885,3.922,3.931,3.916,3.935,3.916,6,GPS_Atti,
37.6132441,-119.0210041,8993.495638,9.514436,0.6263432,34.92815072,24400,2017/07/27 19:19:02,12,23.507,8993.495638,9.514436,2.9751302,34.92815072,170.9,0,0,1035,1024,1024,1024,0,0,95,3.885,3.922,3.931,3.916,3.935,3.916,6,GPS_Atti,
37.61324381,-119.0210037,8993.495638,9.514436,0.6263432,35.06791451,24500,2017/07/27 19:19:02,12,23.507,8993.495638,9.514436,2.9751302,35.06791451,171,0,0,1036,1024,1024,1024,0,0,95,3.885,3.922,3.931,3.916,3.935,3.916,6,GPS_Atti,
37.61324354,-119.0210033,8993.167554,9.186352,0.6263432,35.2014447,24600,2017/07/27 19:19:02,12,23.507,8993.495638,9.514436,2.9751302,35.2014447,171.4,0,0,1039,1024,1024,1024,0,0,95,3.885,3.922,3.931,3.916,3.935,3.916,6,GPS_Atti,
37.6132433,-119.0210029,8993.167554,9.186352,0.4921268,35.32053919,24700,2017/07/27 19:19:02,12,23.507,8993.495638,9.514436,2.9751302,35.32053919,171.7,0,0,1041,991,1024,1024,0,0,95,3.885,3.922,3.931,3.916,3.935,3.916,6,GPS_Atti,
37.61324312,-119.0210025,8993.167554,9.186352,0.4921268,35.41305888,24800,2017/07/27 19:19:02,12,23.507,8993.495638,9.514436,2.9751302,35.41305888,171.9,0,0,1047,963,1024,1024,0,0,95,3.885,3.922,3.931,3.916,3.935,3.916,6,GPS_Atti,
37.61324297,-119.0210022,8993.167554,9.186352,0.4921268,35.49475179,24900,2017/07/27 19:19:02,12,23.526,8993.495638,9.514436,2.9751302,35.49475179,172,0,0,1053,962,1024,1024,0,0,95,3.885,3.922,3.931,3.916,3.935,3.916,6,GPS_Atti,
37.61324286,-119.0210019,8993.167554,9.186352,0.4921268,35.56496177,25000,2017/07/27 19:19:02,12,23.526,8993.495638,9.514436,2.9751302,35.56496177,171.9,0,0,1106,1010,1025,1024,0,0,95,3.885,3.922,3.931,3.916,3.935,3.916,6,GPS_Atti,
37.61324277,-119.0210015,8993.167554,9.186352,0.447388,35.63156282,25100,2017/07/27 19:19:02,12,23.526,8993.495638,9.514436,2.9751302,35.63156282,171.8,0,0,1169,1024,1028,1024,0,0,95,3.885,3.922,3.931,3.916,3.935,3.916,6,GPS_Atti,
37.61324271,-119.0210011,8992.83947,8.858268,0.671082,35.69652345,25200,2017/07/27 19:19:02,12,23.526,8993.495638,9.514436,2.9751302,35.69652345,171.7,0,0,1184,1024,1026,1024,0,0,95,3.885,3.922,3.931,3.916,3.935,3.916,6,GPS_Atti,
37.61324264,-119.0210006,8992.83947,8.858268,0.7158208,35.76673343,25300,2017/07/27 19:19:02,12,23.526,8993.495638,9.514436,2.9751302,35.76673343,171.6,0,0,1184,1024,1026,1024,0,0,95,3.885,3.922,3.931,3.916,3.935,3.916,6,GPS_Atti,
37.61324249,-119.0210002,8992.83947,8.858268,0.8052984,35.86384629,25400,2017/07/27 19:19:03,12,23.526,8993.495638,9.514436,2.9751302,35.86384629,171.3,0,0,1172,1024,1026,1024,0,0,95,3.885,3.922,3.931,3.916,3.935,3.916,6,GPS_Atti,
37.61324221,-119.0209997,8992.83947,8.858268,1.11847,36.00689092,25500,2017/07/27 19:19:03,12,23.526,8993.495638,9.514436,2.9751302,36.00689092,171,0,0,1169,1024,1026,1024,0,0,95,3.885,3.922,3.931,3.916,3.935,3.916,6,GPS_Atti,
37.61324178,-119.0209992,8992.83947,8.858268,1.2974252,36.20242898,25600,2017/07/27 19:19:03,12,23.526,8993.495638,9.514436,2.9751302,36.20242898,170.7,0,0,1164,1024,1026,1024,0,0,95,3.885,3.922,3.931,3.916,3.935,3.916,6,GPS_Atti,
37.61324122,-119.0209988,8992.83947,8.858268,1.7000744,36.44127413,25700,2017/07/27 19:19:03,12,23.526,8993.495638,9.514436,2.9751302,36.44127413,170.5,0,0,1154,1024,1027,1024,0,0,95,3.885,3.922,3.931,3.916,3.935,3.916,6,GPS_Atti,
37.61324056,-119.0209983,8992.83947,8.858268,1.901399,36.71292768,25800,2017/07/27 19:19:03,12,23.526,8993.495638,9.514436,2.9751302,36.71292768,170.3,0,0,1151,1024,1026,1024,0,0,95,3.885,3.922,3.931,3.916,3.935,3.916,6,GPS_Atti,
37.61323979,-119.0209979,8992.83947,8.858268,2.125093,37.02001431,25900,2017/07/27 19:19:03,12,23.547,8993.495638,9.514436,2.9751302,37.02001431,170.1,0,0,1145,1024,1026,1024,0,0,95,3.884,3.934,3.896,3.916,3.911,3.913,6,GPS_Atti,
37.61323892,-119.0209975,8992.83947,8.858268,2.3264176,37.3503949,26000,2017/07/27 19:19:03,12,23.547,8993.495638,9.514436,2.9751302,37.3503949,170.1,0,0,1126,1024,1025,1024,0,0,95,3.884,3.934,3.896,3.916,3.911,3.913,6,GPS_Atti,
37.61323801,-119.0209972,8992.511386,8.530184,2.5501116,37.69422693,26100,2017/07/27 19:19:03,12,23.547,8993.495638,9.514436,2.9751302,37.69422693,170.1,0,0,1074,1024,1024,1024,0,0,95,3.884,3.934,3.896,3.916,3.911,3.913,6,GPS_Atti,
37.61323713,-119.020997,8992.83947,8.858268,2.5501116,38.01771775,26200,2017/07/27 19:19:03,12,23.547,8993.495638,9.514436,2.9751302,38.01771775,170.2,0,0,1024,1024,1024,1024,0,0,95,3.884,3.934,3.896,3.916,3.911,3.913,6,GPS_Atti,
37.6132362,-119.0209968,8992.83947,8.858268,2.5053728,38.35564427,26300,2017/07/27 19:19:03,12,23.547,8993.495638,9.514436,2.9751302,38.35564427,170.4,0,0,1024,1062,1024,1024,0,0,95,3.884,3.934,3.896,3.916,3.911,3.913,6,GPS_Atti,
37.61323519,-119.0209966,8992.83947,8.858268,2.5053728,38.71522434,26400,2017/07/27 19:19:04,12,23.547,8993.495638,9.514436,2.9751302,38.71522434,170.6,0,0,1024,1024,1024,1024,0,0,95,3.884,3.934,3.896,3.916,3.911,3.913,6,GPS_Atti,
37.61323427,-119.0209965,8992.83947,8.858268,2.23694,39.04363642,26500,2017/07/27 19:19:04,12,23.547,8993.495638,9.514436,2.9751302,39.04363642,170.7,0,0,1024,1024,1024,1024,0,0,95,3.884,3.934,3.896,3.916,3.911,3.913,6,GPS_Atti,
37.61323348,-119.0209965,8993.167554,9.186352,2.0356154,39.31660231,26600,2017/07/27 19:19:04,12,23.547,8993.495638,9.514436,2.9751302,39.31660231,170.7,0,0,1024,1024,1024,1024,0,0,95,3.884,3.934,3.896,3.916,3.911,3.913,6,GPS_Atti,
37.61323279,-119.0209965,8993.167554,9.186352,1.789552,39.55446321,26700,2017/07/27 19:19:04,12,23.547,8993.495638,9.514436,2.9751302,39.55446321,170.9,0,0,1024,1077,1024,1024,0,0,95,3.884,3.934,3.896,3.916,3.911,3.913,6,GPS_Atti,
37.61323217,-119.0209965,8993.167554,9.186352,1.565858,39.76049996,26800,2017/07/27 19:19:04,12,23.547,8993.495638,9.514436,2.9751302,39.76049996,171,0,0,1024,1097,1024,1024,0,0,95,3.884,3.934,3.896,3.916,3.911,3.913,6,GPS_Atti,
37.61323162,-119.0209966,8993.167554,9.186352,1.342164,39.94389892,26900,2017/07/27 19:19:04,12,23.547,8993.495638,9.514436,2.9751302,39.94389892,171.1,0,0,1024,1086,1024,1024,0,0,94,3.906,3.93,3.915,3.932,3.916,3.929,6,GPS_Atti,
37.61323106,-119.0209966,8993.167554,9.186352,1.342164,40.13714039,27000,2017/07/27 19:19:04,12,23.547,8993.495638,9.514436,2.9751302,40.13714039,171.1,0,0,1024,1063,1024,1024,0,0,94,3.906,3.93,3.915,3.932,3.916,3.929,6,GPS_Atti,
37.61323054,-119.0209966,8993.167554,9.186352,1.11847,40.3133215,27100,2017/07/27 19:19:04,12,23.547,8993.495638,9.514436,2.9751302,40.3133215,171.3,0,0,1024,1055,1024,1024,0,0,94,3.906,3.93,3.915,3.932,3.916,3.929,6,GPS_Atti,
37.61323003,-119.0209967,8993.167554,9.186352,1.1408394,40.4773635,27200,2017/07/27 19:19:04,12,23.547,8993.495638,9.514436,2.9751302,40.4773635,171.5,0,0,1024,1037,1024,1024,0,0,94,3.906,3.93,3.915,3.932,3.916,3.929,6,GPS_Atti,
37.61322957,-119.0209969,8993.167554,9.186352,1.2079476,40.62467322,27300,2017/07/27 19:19:04,12,23.547,8993.495638,9.514436,2.9751302,40.62467322,171.7,0,0,1024,1024,1024,1024,0,0,94,3.906,3.93,3.915,3.932,3.916,3.929,6,GPS_Atti,
37.61322913,-119.020997,8993.167554,9.186352,1.006623,40.75689107,27400,2017/07/27 19:19:05,12,23.547,8993.495638,9.514436,2.9751302,40.75689107,171.9,0,0,1024,1024,1025,1024,0,0,94,3.906,3.93,3.915,3.932,3.916,3.929,6,GPS_Atti,
