latitude,longitude,altitude(feet),ascent(feet),speed(mph),distance(feet),time(millisecond),datetime(utc),satellites,voltage(v),max_altitude(feet),max_ascent(feet),max_speed(mph),max_distance(feet),compass_heading(degrees),isPhoto,isVideo,rc_elevator,rc_aileron,rc_throttle,rc_rudder,gimbal_heading(degrees),gimbal_pitch(degrees),battery_percent,voltageCell1,voltageCell2,voltageCell3,voltageCell4,voltageCell5,voltageCell6,flycStateRaw,flycState,message
37.61330537,-119.0210577,8984.146205,0,0,0,4200,2017/07/27 20:59:47,13,0,8984.146205,0,0,0,174.8,0,0,364,1684,364,364,0,0,95,4.282,4.291,4.288,4.291,4.293,4.288,6,GPS_Atti,
37.61330537,-119.0210577,8984.146205,0,0,0.000437205,4300,2017/07/27 20:59:47,13,0,8984.146205,0,0,0.000437205,174.8,0,0,364,1684,364,364,0,0,95,4.282,4.291,4.288,4.291,4.293,4.288,6,GPS_Atti,
37.61330537,-119.0210577,8984.146205,0,0,0.00094188,4400,2017/07/27 20:59:48,13,0,8984.146205,0,0,0.00094188,174.7,0,0,364,1684,364,364,0,0,95,4.282,4.291,4.288,4.291,4.293,4.288,6,GPS_Atti,
37.61330537,-119.0210577,8984.146205,0,0,0.001608524,4500,2017/07/27 20:59:48,13,0,8984.146205,0,0,0.001608524,174.7,0,0,364,1684,364,364,0,0,95,4.282,4.291,4.288,4.291,4.293,4.288,6,GPS_Atti,
37.61330537,-119.0210577,8984.146205,0,0,0.002593901,4600,2017/07/27 20:59:48,13,0,8984.146205,0,0,0.002593901,174.7,0,0,364,1684,364,364,0,0,95,4.282,4.291,4.288,4.291,4.293,4.288,6,GPS_Atti,
37.61330538,-119.0210577,8984.146205,0,0,0.003546424,4700,2017/07/27 20:59:48,13,0,8984.146205,0,0,0.003546424,174.7,0,0,364,1684,364,364,0,0,95,4.282,4.291,4.288,4.291,4.293,4.288,6,GPS_Atti,
37.61330538,-119.0210577,8984.146205,0,0,0.005065026,4800,2017/07/27 20:59:48,13,0,8984.146205,0,0,0.005065026,174.7,0,0,410,1684,364,364,0,0,95,4.282,4.291,4.288,4.291,4.293,4.288,6,GPS_Atti,
37.61330539,-119.0210577,8984.146205,0,0,0.006967553,4900,2017/07/27 20:59:48,13,0,8984.146205,0,0,0.006967553,174.7,0,0,863,1405,762,521,0,0,95,4.282,4.291,4.288,4.291,4.293,4.288,6,GPS_Atti,
37.61330539,-119.0210577,8984.146205,0,0,0.009940617,5000,2017/07/27 20:59:48,13,0,8984.146205,0,0,0.009940617,174.7,0,0,1024,1024,1024,1024,0,0,95,4.282,4.291,4.288,4.291,4.293,4.288,6,GPS_Atti,
37.6133054,-119.0210577,8984.146205,0,0,0.012810729,5100,2017/07/27 20:59:48,13,25.734,8984.146205,0,0,0.012810729,174.7,0,0,1024,1024,1024,1024,0,0,95,4.282,4.291,4.288,4.291,4.293,4.288,6,GPS_Atti,
37.61330541,-119.0210577,8984.146205,0,0,0.015365552,5200,2017/07/27 20:59:48,13,25.734,8984.146205,0,0,0.015365552,174.7,0,0,1024,1024,1024,1024,0,0,95,4.282,4.291,4.288,4.291,4.293,4.288,6,GPS_Atti,
37.61330541,-119.0210577,8984.146205,0,0,0.015644357,5300,2017/07/27 20:59:48,13,25.734,8984.146205,0,0,0.015644357,174.7,0,0,1024,1024,1024,1024,0,0,95,4.282,4.291,4.288,4.291,4.293,4.288,6,GPS_Atti,
37.61330541,-119.0210577,8984.146205,0,0,0.014316831,5400,2017/07/27 20:59:49,13,25.734,8984.146205,0,0,0.015644357,174.7,0,0,1024,1024,1024,1024,0,0,95,4.282,4.291,4.288,4.291,4.293,4.288,6,GPS_Atti,
37.61330541,-119.0210577,8984.146205,0,0,0.014251838,5500,2017/07/27 20:59:49,13,25.734,8984.146205,0,0,0.015644357,174.7,0,0,1024,1024,1024,1024,0,0,95,4.282,4.291,4.288,4.291,4.293,4.288,6,GPS_Atti,
37.61330541,-119.0210577,8984.146205,0,0,0.016882973,5600,2017/07/27 20:59:49,13,25.734,8984.146205,0,0,0.016882973,174.7,0,0,1024,1024,1024,1024,0,0,95,4.282,4.291,4.288,4.291,4.293,4.288,6,GPS_Atti,
37.61330541,-119.0210577,8984.146205,0,0,0.016813288,5700,2017/07/27 20:59:49,13,25.734,8984.146205,0,0,0.016882973,174.7,0,0,1024,1024,1024,1024,0,0,95,4.282,4.291,4.288,4.291,4.293,4.288,6,GPS_Atti,
37.61330541,-119.0210577,8984.146205,0,0,0.017185368,5800,2017/07/27 20:59:49,13,25.734,8984.146205,0,0,0.017185368,174.7,0,0,1024,1024,1024,1024,0,0,95,4.282,4.291,4.288,4.291,4.293,4.288,6,GPS_Atti,
37.61330541,-119.0210577,8984.146205,0,0,0.017723295,5900,2017/07/27 20:59:49,13,25.734,8984.146205,0,0,0.017723295,174.7,0,0,1024,1024,1024,1024,0,0,95,4.282,4.291,4.288,4.291,4.293,4.288,6,GPS_Atti,
37.61330542,-119.0210577,8984.146205,0,0,0.018581169,6000,2017/07/27 20:59:49,13,25.734,8984.146205,0,0,0.018581169,174.7,0,0,1024,1024,1024,1024,0,0,95,4.282,4.291,4.288,4.291,4.293,4.288,6,GPS_Atti,
37.61330542,-119.0210577,8984.146205,0,0,0.019322212,6100,2017/07/27 20:59:49,13,25.726,8984.146205,0,0,0.019322212,174.7,0,0,1024,1024,1024,1024,0,0,95,4.28,4.289,4.285,4.29,4.291,4.287,6,GPS_Atti,
37.61330542,-119.0210577,8984.146205,0,0,0.020852396,6200,2017/07/27 20:59:49,13,25.726,8984.146205,0,0,0.020852396,174.7,0,0,1024,1024,1024,1024,0,0,95,4.28,4.289,4.285,4.29,4.291,4.287,10,Assisted_Takeoff,
37.61330542,-119.0210577,8984.146205,0,0,0.023844915,6300,2017/07/27 20:59:50,13,25.726,8984.146205,0,0,0.023844915,174.7,0,0,1024,1024,1024,1024,0,0,95,4.28,4.289,4.285,4.29,4.291,4.287,10,Assisted_Takeoff,Return-to-Home Altitude:98FT
37.61330543,-119.0210577,8984.146205,0,0,0.026816832,6400,2017/07/27 20:59:50,13,25.726,8984.146205,0,0,0.026816832,174.7,0,0,1024,1024,1024,1024,0,0,95,4.28,4.289,4.285,4.29,4.291,4.287,10,Assisted_Takeoff,
37.61330543,-119.0210577,8984.146205,0,0,0.029008826,6500,2017/07/27 20:59:50,13,25.726,8984.146205,0,0,0.029008826,174.7,0,0,1024,1024,1024,1024,0,0,95,4.28,4.289,4.285,4.29,4.291,4.287,10,Assisted_Takeoff,
37.61330543,-119.0210577,8984.146205,0,0,0.032687501,6600,2017/07/27 20:59:50,13,25.726,8984.146205,0,0,0.032687501,174.7,0,0,1024,1024,1024,1024,0,0,95,4.28,4.289,4.285,4.29,4.291,4.287,10,Assisted_Takeoff,
37.61330544,-119.0210577,8984.474289,0.328084,0,0.037958335,6700,2017/07/27 20:59:50,13,25.726,8984.474289,0.328084,0,0.037958335,174.7,0,0,1024,1024,1024,1024,0,0,95,4.28,4.289,4.285,4.29,4.291,4.287,10,Assisted_Takeoff,
37.61330544,-119.0210577,8984.474289,0.328084,0,0.036661418,6800,2017/07/27 20:59:50,13,25.726,8984.474289,0.328084,0,0.037958335,174.7,0,0,1024,1024,1065,1024,0,0,95,4.28,4.289,4.285,4.29,4.291,4.287,10,Assisted_Takeoff,
37.61330542,-119.0210577,8984.474289,0.328084,0,0.025748164,6900,2017/07/27 20:59:50,13,25.726,8984.474289,0.328084,0,0.037958335,174.7,0,0,1024,1024,1117,1024,0,0,95,4.28,4.289,4.285,4.29,4.291,4.287,10,Assisted_Takeoff,
37.61330541,-119.0210577,8984.474289,0.328084,0,0.020604069,7100,2017/07/27 20:59:50,13,25.726,8984.474289,0.328084,0,0.037958335,174.7,0,0,1024,1024,1123,1024,0,0,95,4.28,4.289,4.285,4.29,4.291,4.287,10,Assisted_Takeoff,
37.61330541,-119.0210577,8984.474289,0.328084,0,0.020815289,7200,2017/07/27 20:59:50,13,25.59,8984.474289,0.328084,0,0.037958335,174.7,0,0,1024,1024,1145,1024,0,0,95,4.277,4.287,4.275,4.231,4.279,4.26,10,Assisted_Takeoff,
37.61330541,-119.0210577,8984.474289,0.328084,0,0.021773229,7400,2017/07/27 20:59:51,13,25.59,8984.474289,0.328084,0,0.037958335,174.7,0,0,1024,1024,1160,1024,0,0,95,4.277,4.287,4.275,4.231,4.279,4.26,10,Assisted_Takeoff,
37.61330541,-119.0210577,8984.474289,0.328084,0,0.022693833,7500,2017/07/27 20:59:51,13,25.59,8984.474289,0.328084,0,0.037958335,174.7,0,0,1024,1024,1169,1024,0,0,95,4.277,4.287,4.275,4.231,4.279,4.26,10,Assisted_Takeoff,
37.61330541,-119.0210577,8984.474289,0.328084,0,0.023686779,7600,2017/07/27 20:59:51,13,25.59,8984.474289,0.328084,0,0.037958335,174.7,0,0,1024,1024,1179,1024,0,0,95,4.277,4.287,4.275,4.231,4.279,4.26,10,Assisted_Takeoff,
37.61330541,-119.0210577,8984.474289,0.328084,0,0.024910992,7700,2017/07/27 20:59:51,13,25.59,8984.474289,0.328084,0,0.037958335,174.7,0,0,1024,1024,1186,1024,0,0,95,4.277,4.287,4.275,4.231,4.279,4.26,10,Assisted_Takeoff,
37.61330541,-119.0210577,8984.474289,0.328084,0,0.026470408,7800,2017/07/27 20:59:51,13,25.59,8984.474289,0.328084,0,0.037958335,174.7,0,0,1024,1024,1198,1024,0,0,95,4.277,4.287,4.275,4.231,4.279,4.26,10,Assisted_Takeoff,
37.61330542,-119.0210577,8984.474289,0.328084,0,0.028013682,7900,2017/07/27 20:59:51,13,25.59,8984.474289,0.328084,0,0.037958335,174.7,0,0,1024,1024,1204,1024,0,0,95,4.277,4.287,4.275,4.231,4.279,4.26,10,Assisted_Takeoff,
37.61330542,-119.0210577,8984.474289,0.328084,0,0.029946294,8000,2017/07/27 20:59:51,13,25.59,8984.474289,0.328084,0,0.037958335,174.7,0,0,1024,1024,1204,1024,0,0,95,4.277,4.287,4.275,4.231,4.279,4.26,10,Assisted_Takeoff,
37.61330542,-119.0210577,8984.474289,0.328084,0,0.03177884,8100,2017/07/27 20:59:51,13,25.59,8984.474289,0.328084,0,0.037958335,174.7,0,0,1024,1024,1205,1024,0,0,95,4.277,4.287,4.275,4.231,4.279,4.26,10,Assisted_Takeoff,
37.61330543,-119.0210577,8984.146205,0,0,0.033403872,8200,2017/07/27 20:59:51,13,25.59,8984.474289,0.328084,0,0.037958335,174.8,0,0,1024,1034,1205,1024,0,0,95,4.277,4.287,4.275,4.231,4.279,4.26,10,Assisted_Takeoff,
37.61330543,-119.0210576,8984.146205,0,0,0.037074476,8300,2017/07/27 20:59:51,13,25.672,8984.474289,0.328084,0,0.037958335,174.7,0,0,1024,1024,1211,1024,0,0,95,4.267,4.28,4.279,4.281,4.285,4.277,10,Assisted_Takeoff,
37.61330544,-119.0210576,8984.146205,0,0,0.041167652,8400,2017/07/27 20:59:52,13,25.672,8984.474289,0.328084,0,0.041167652,174.7,0,0,1024,1024,1216,1024,0,0,95,4.267,4.28,4.279,4.281,4.285,4.277,10,Assisted_Takeoff,
37.61330546,-119.0210576,8984.146205,0,0,0.049741471,8500,2017/07/27 20:59:52,13,25.672,8984.474289,0.328084,0,0.049741471,174.8,0,0,1024,1024,1215,1024,0,0,95,4.267,4.28,4.279,4.281,4.285,4.277,10,Assisted_Takeoff,
37.61330552,-119.0210576,8984.146205,0,0,0.068965553,8600,2017/07/27 20:59:52,13,25.672,8984.474289,0.328084,0,0.068965553,175,0,0,1024,1024,1220,1024,0,0,95,4.267,4.28,4.279,4.281,4.285,4.277,10,Assisted_Takeoff,
37.61330561,-119.0210575,8984.146205,0,0.223694,0.106851709,8700,2017/07/27 20:59:52,13,25.672,8984.474289,0.328084,0.223694,0.106851709,175.1,0,0,1024,1024,1218,1024,0,0,95,4.267,4.28,4.279,4.281,4.285,4.277,6,GPS_Atti,
37.61330576,-119.0210575,8984.146205,0,0.223694,0.166777892,8800,2017/07/27 20:59:52,13,25.672,8984.474289,0.328084,0.223694,0.166777892,175.2,0,0,1077,1062,1219,1024,0,0,95,4.267,4.28,4.279,4.281,4.285,4.277,6,GPS_Atti,
37.61330595,-119.0210573,8984.146205,0,0.447388,0.243635178,8900,2017/07/27 20:59:52,13,25.672,8984.474289,0.328084,0.447388,0.243635178,175.1,0,0,1132,1076,1217,1025,0,0,95,4.267,4.28,4.279,4.281,4.285,4.277,6,GPS_Atti,
37.61330617,-119.0210572,8984.146205,0,0.447388,0.329084656,9000,2017/07/27 20:59:52,13,25.672,8984.474289,0.328084,0.447388,0.329084656,174.9,0,0,1128,1069,1212,1024,0,0,95,4.267,4.28,4.279,4.281,4.285,4.277,6,GPS_Atti,
37.61330634,-119.0210571,8984.474289,0.328084,0.223694,0.397545944,9100,2017/07/27 20:59:52,13,25.672,8984.474289,0.328084,0.447388,0.397545944,174.8,0,0,1103,1053,1211,1024,0,0,95,4.267,4.28,4.279,4.281,4.285,4.277,6,GPS_Atti,
37.61330643,-119.0210571,8984.474289,0.328084,0,0.433205394,9200,2017/07/27 20:59:52,13,25.672,8984.474289,0.328084,0.447388,0.433205394,174.7,0,0,1067,1024,1211,1024,0,0,95,4.267,4.28,4.279,4.281,4.285,4.277,6,GPS_Atti,
37.61330643,-119.021057,8984.802373,0.656168,0,0.437434397,9300,2017/07/27 20:59:52,13,25.489,8984.802373,0.656168,0.447388,0.437434397,174.7,0,0,1054,1024,1222,1025,0,0,95,4.211,4.223,4.228,4.236,4.235,4.236,6,GPS_Atti,
37.61330637,-119.021057,8985.130457,0.984252,0,0.421499357,9400,2017/07/27 20:59:53,13,25.489,8985.130457,0.984252,0.447388,0.437434397,174.8,0,0,1057,1024,1224,1025,0,0,95,4.211,4.223,4.228,4.236,4.235,4.236,6,GPS_Atti,
37.6133063,-119.021057,8985.130457,0.984252,0,0.397290039,9500,2017/07/27 20:59:53,13,25.489,8985.130457,0.984252,0.447388,0.437434397,175,0,0,1066,1024,1224,1024,0,0,95,4.211,4.223,4.228,4.236,4.235,4.236,6,GPS_Atti,
37.61330624,-119.0210571,8985.458541,1.312336,0,0.374334001,9600,2017/07/27 20:59:53,13,25.489,8985.458541,1.312336,0.447388,0.437434397,175,0,0,1076,1024,1222,1024,0,0,95,4.211,4.223,4.228,4.236,4.235,4.236,6,GPS_Atti,
37.61330618,-119.0210571,8986.114709,1.968504,0,0.348303817,9800,2017/07/27 20:59:53,13,25.489,8986.114709,1.968504,0.447388,0.437434397,175.1,0,0,1082,1025,1228,1024,0,0,95,4.211,4.223,4.228,4.236,4.235,4.236,6,GPS_Atti,
37.61330615,-119.0210571,8986.442793,2.296588,0,0.335820221,9900,2017/07/27 20:59:53,13,25.489,8986.442793,2.296588,0.447388,0.437434397,175,0,0,1080,1024,1235,1024,0,0,95,4.211,4.223,4.228,4.236,4.235,4.236,6,GPS_Atti,
37.61330609,-119.0210571,8986.770877,2.624672,0,0.315666021,10000,2017/07/27 20:59:53,13,25.489,8986.770877,2.624672,0.447388,0.437434397,174.8,0,0,1072,1024,1240,1025,0,0,95,4.211,4.223,4.228,4.236,4.235,4.236,6,GPS_Atti,
37.61330609,-119.0210571,8986.770877,2.624672,0,0.315666021,10000,2017/07/27 20:59:53,13,25.489,8986.770877,2.624672,0.447388,0.437434397,174.8,0,0,1047,1024,1240,1026,0,0,95,4.211,4.223,4.228,4.236,4.235,4.236,6,GPS_Atti,
37.61330591,-119.0210573,8987.427045,3.28084,0.223694,0.242596464,10200,2017/07/27 20:59:53,13,25.489,8987.427045,3.28084,0.447388,0.437434397,174.5,0,0,1036,1024,1243,1026,0,0,95,4.211,4.223,4.228,4.236,4.235,4.236,6,GPS_Atti,
37.61330591,-119.0210573,8987.427045,3.28084,0.223694,0.242596464,10200,2017/07/27 20:59:53,13,25.489,8987.427045,3.28084,0.447388,0.437434397,174.5,0,0,1032,1024,1248,1028,0,0,95,4.211,4.223,4.228,4.236,4.235,4.236,6,GPS_Atti,
37.61330583,-119.0210573,8987.755129,3.608924,0,0.206282815,10300,2017/07/27 20:59:54,13,24.779,8987.755129,3.608924,0.447388,0.437434397,174.5,0,0,1033,1024,1255,1029,0,0,95,4.101,4.134,4.119,4.124,4.131,4.15,6,GPS_Atti,
37.61330578,-119.0210575,8988.411297,4.265092,0,0.166854992,10500,2017/07/27 20:59:54,13,24.779,8988.411297,4.265092,0.447388,0.437434397,174.8,0,0,1031,1024,1256,1032,0,0,95,4.101,4.134,4.119,4.124,4.131,4.15,6,GPS_Atti,
37.61330582,-119.0210576,8988.739381,4.593176,0,0.168109914,10600,2017/07/27 20:59:54,13,24.779,8988.739381,4.593176,0.447388,0.437434397,175.1,0,0,1032,1024,1261,1035,0,0,95,4.101,4.134,4.119,4.124,4.131,4.15,6,GPS_Atti,
37.61330582,-119.0210576,8988.739381,4.593176,0,0.168109914,10600,2017/07/27 20:59:54,13,24.779,8988.739381,4.593176,0.447388,0.437434397,175.1,0,0,1030,1024,1263,1037,0,0,95,4.101,4.134,4.119,4.124,4.131,4.15,6,GPS_Atti,
37.61330588,-119.0210578,8989.395549,5.249344,0.223694,0.186647972,10700,2017/07/27 20:59:54,13,24.779,8989.395549,5.249344,0.447388,0.437434397,175.3,0,0,1032,1024,1263,1039,0,0,95,4.101,4.134,4.119,4.124,4.131,4.15,6,GPS_Atti,
37.61330607,-119.0210582,8990.051717,5.905512,0.3131716,0.286630915,10900,2017/07/27 20:59:54,13,24.779,8990.051717,5.905512,0.447388,0.437434397,175.6,0,0,1029,1024,1265,1043,0,0,95,4.101,4.134,4.119,4.124,4.131,4.15,6,GPS_Atti,
37.61330621,-119.0210584,8990.051717,5.905512,0.3131716,0.361564972,11000,2017/07/27 20:59:54,13,24.779,8990.051717,5.905512,0.447388,0.437434397,175.7,0,0,1029,1024,1269,1046,0,0,95,4.101,4.134,4.119,4.124,4.131,4.15,6,GPS_Atti,
37.61330636,-119.0210586,8990.379801,6.233596,0.3131716,0.44349739,11100,2017/07/27 20:59:54,13,24.779,8990.379801,6.233596,0.447388,0.44349739,175.8,0,0,1028,1024,1272,1050,0,0,95,4.101,4.134,4.119,4.124,4.131,4.15,6,GPS_Atti,
37.61330652,-119.0210588,8990.707885,6.56168,0.3131716,0.526197523,11200,2017/07/27 20:59:54,13,24.779,8990.707885,6.56168,0.447388,0.526197523,175.9,0,0,1028,1024,1272,1050,0,0,95,4.101,4.134,4.119,4.124,4.131,4.15,6,GPS_Atti,
37.61330652,-119.0210588,8990.707885,6.56168,0.3131716,0.526197523,11200,2017/07/27 20:59:54,13,24.779,8990.707885,6.56168,0.447388,0.526197523,175.9,0,0,1029,1024,1286,1062,0,0,95,4.101,4.134,4.119,4.124,4.131,4.15,6,GPS_Atti,
37.61330666,-119.021059,8991.035969,6.889764,0.3131716,0.600183746,11300,2017/07/27 20:59:55,13,24.638,8991.035969,6.889764,0.447388,0.600183746,176.1,0,0,1030,1024,1293,1063,0,0,95,4.101,4.134,4.119,4.124,4.131,4.15,6,GPS_Atti,
37.61330679,-119.0210592,8991.364053,7.217848,0.223694,0.670088604,11400,2017/07/27 20:59:55,13,24.638,8991.364053,7.217848,0.447388,0.670088604,176.4,0,0,1032,1024,1296,1065,0,0,95,4.101,4.134,4.119,4.124,4.131,4.15,6,GPS_Atti,
37.61330698,-119.0210593,8991.692137,7.545932,0.223694,0.7451411,11500,2017/07/27 20:59:55,13,24.638,8991.692137,7.545932,0.447388,0.7451411,176.7,0,0,1033,1024,1299,1066,0,0,95,4.101,4.134,4.119,4.124,4.131,4.15,6,GPS_Atti,
37.61330717,-119.0210594,8992.020221,7.874016,0.223694,0.807467217,11600,2017/07/27 20:59:55,13,24.638,8992.020221,7.874016,0.447388,0.807467217,176.9,0,0,1033,1024,1299,1066,0,0,95,4.101,4.134,4.119,4.124,4.131,4.15,6,GPS_Atti,
37.61330738,-119.0210595,8993.004473,8.858268,0.223694,0.892500029,11800,2017/07/27 20:59:55,13,24.638,8993.004473,8.858268,0.447388,0.892500029,177.3,0,0,1033,1024,1302,1066,0,0,95,4.101,4.134,4.119,4.124,4.131,4.15,6,GPS_Atti,
37.61330744,-119.0210595,8993.332557,9.186352,0,0.916919321,11900,2017/07/27 20:59:55,13,24.638,8993.332557,9.186352,0.447388,0.916919321,177.5,0,0,1036,1024,1300,1067,0,0,95,4.101,4.134,4.119,4.124,4.131,4.15,6,GPS_Atti,
37.61330748,-119.0210595,8993.332557,9.186352,0,0.930282182,12000,2017/07/27 20:59:55,13,24.638,8993.332557,9.186352,0.447388,0.930282182,177.6,0,0,1039,1024,1279,1071,0,0,95,4.101,4.134,4.119,4.124,4.131,4.15,6,GPS_Atti,
37.61330757,-119.0210596,8993.988725,9.84252,0,0.966181133,12200,2017/07/27 20:59:55,13,24.638,8993.988725,9.84252,0.447388,0.966181133,178.1,0,0,1036,1024,1169,1187,0,0,95,4.101,4.134,4.119,4.124,4.131,4.15,6,GPS_Atti,
37.61330756,-119.0210596,8994.316809,10.170604,0,0.960223128,12300,2017/07/27 20:59:56,13,24.638,8994.316809,10.170604,0.447388,0.966181133,178.5,0,0,1032,1024,1122,1258,0,0,95,4.101,4.134,4.119,4.124,4.131,4.15,6,GPS_Atti,
37.61330753,-119.0210595,8994.644893,10.498688,0,0.944626014,12400,2017/07/27 20:59:56,13,24.638,8994.644893,10.498688,0.447388,0.966181133,179.6,0,0,1034,1024,1075,1324,0,0,95,4.101,4.134,4.119,4.124,4.131,4.15,6,GPS_Atti,
37.61330751,-119.0210596,8994.972977,10.826772,0,0.947906854,12500,2017/07/27 20:59:56,13,24.638,8994.972977,10.826772,0.447388,0.966181133,181.3,0,0,1036,1024,1071,1348,0,0,95,4.092,4.114,4.108,4.105,4.119,4.1,6,GPS_Atti,
37.61330751,-119.0210597,8994.972977,10.826772,0,0.957916697,12600,2017/07/27 20:59:56,13,24.638,8994.972977,10.826772,0.447388,0.966181133,183.9,0,0,1053,1024,1083,1357,0,0,95,4.092,4.114,4.108,4.105,4.119,4.1,6,GPS_Atti,
37.61330745,-119.0210597,8995.301061,11.154856,0,0.953809086,12700,2017/07/27 20:59:56,13,24.638,8995.301061,11.154856,0.447388,0.966181133,186.8,0,0,1048,1024,1175,1309,0,0,95,4.092,4.114,4.108,4.105,4.119,4.1,6,GPS_Atti,
37.61330737,-119.0210598,8995.301061,11.154856,0,0.947946225,12800,2017/07/27 20:59:56,13,24.638,8995.301061,11.154856,0.447388,0.966181133,190.2,0,0,1045,1024,1221,1277,0,0,95,4.092,4.114,4.108,4.105,4.119,4.1,6,GPS_Atti,
37.61330736,-119.0210599,8995.301061,11.154856,0,0.955357642,12900,2017/07/27 20:59:56,13,24.638,8995.301061,11.154856,0.447388,0.966181133,193.2,0,0,1045,1024,1241,1273,0,0,95,4.092,4.114,4.108,4.105,4.119,4.1,6,GPS_Atti,
37.61330738,-119.02106,8995.301061,11.154856,0,0.979304493,13000,2017/07/27 20:59:56,13,24.638,8995.301061,11.154856,0.447388,0.979304493,196.4,0,0,1051,1024,1260,1270,0,0,95,4.092,4.114,4.108,4.105,4.119,4.1,6,GPS_Atti,
37.61330746,-119.0210602,8995.629145,11.48294,0,1.039261844,13100,2017/07/27 20:59:56,13,24.638,8995.629145,11.48294,0.447388,1.039261844,199.3,0,0,1073,1024,1262,1270,0,0,95,4.092,4.114,4.108,4.105,4.119,4.1,6,GPS_Atti,
37.6133076,-119.0210604,8995.629145,11.48294,0.3131716,1.121984944,13200,2017/07/27 20:59:56,13,24.638,8995.629145,11.48294,0.447388,1.121984944,202.3,0,0,1119,1024,1259,1268,0,0,95,4.092,4.114,4.108,4.105,4.119,4.1,6,GPS_Atti,
37.61330773,-119.0210606,8995.957229,11.811024,0.3131716,1.187434421,13300,2017/07/27 20:59:57,13,24.638,8995.957229,11.811024,0.447388,1.187434421,205.1,0,0,1163,1024,1255,1259,0,0,95,4.092,4.114,4.108,4.105,4.119,4.1,6,GPS_Atti,
37.61330784,-119.0210607,8996.285313,12.139108,0.3131716,1.249199515,13400,2017/07/27 20:59:57,13,24.638,8996.285313,12.139108,0.447388,1.249199515,208.3,0,0,1198,1024,1245,1258,0,0,95,4.092,4.114,4.108,4.105,4.119,4.1,6,GPS_Atti,
37.61330788,-119.0210609,8996.285313,12.139108,0.447388,1.2921818,13500,2017/07/27 20:59:57,13,24.542,8996.285313,12.139108,0.447388,1.2921818,211.2,0,0,1204,1024,1240,1254,0,0,95,4.071,4.097,4.086,4.093,4.087,4.095,6,GPS_Atti,
37.61330783,-119.0210611,8996.613397,12.467192,0.671082,1.331597812,13600,2017/07/27 20:59:57,13,24.542,8996.613397,12.467192,0.671082,1.331597812,214.6,0,0,1204,1024,1240,1250,0,0,95,4.071,4.097,4.086,4.093,4.087,4.095,6,GPS_Atti,
37.61330769,-119.0210615,8996.941481,12.795276,0.9171454,1.380853063,13700,2017/07/27 20:59:57,13,24.542,8996.941481,12.795276,0.9171454,1.380853063,217.5,0,0,1204,1024,1241,1248,0,0,95,4.071,4.097,4.086,4.093,4.087,4.095,6,GPS_Atti,
37.61330744,-119.021062,8996.941481,12.795276,1.2974252,1.450866188,13800,2017/07/27 20:59:57,13,24.542,8996.941481,12.795276,1.2974252,1.450866188,220.7,0,0,1201,1024,1238,1242,0,0,95,4.071,4.097,4.086,4.093,4.087,4.095,6,GPS_Atti,
37.61330714,-119.0210628,8997.269565,13.12336,1.8119214,1.586095851,13900,2017/07/27 20:59:57,13,24.542,8997.269565,13.12336,1.8119214,1.586095851,223.5,0,0,1169,1024,1228,1231,0,0,95,4.071,4.097,4.086,4.093,4.087,4.095,6,GPS_Atti,
37.61330676,-119.0210636,8997.597649,13.451444,2.1027236,1.779904913,14000,2017/07/27 20:59:57,13,24.542,8997.597649,13.451444,2.1027236,1.779904913,226.6,0,0,1086,1024,1175,1138,0,0,95,4.071,4.097,4.086,4.093,4.087,4.095,6,GPS_Atti,
37.61330634,-119.0210646,8997.925733,13.779528,2.3040482,2.026394422,14100,2017/07/27 20:59:57,13,24.542,8997.925733,13.779528,2.3040482,2.026394422,229.1,0,0,1092,1024,1173,1101,0,0,95,4.071,4.097,4.086,4.093,4.087,4.095,6,GPS_Atti,
37.61330589,-119.0210658,8998.253817,14.107612,2.5053728,2.323241544,14200,2017/07/27 20:59:57,13,24.542,8998.253817,14.107612,2.5053728,2.323241544,231.3,0,0,1081,1024,1151,1033,0,0,95,4.071,4.097,4.086,4.093,4.087,4.095,6,GPS_Atti,
37.61330551,-119.0210671,8998.253817,14.107612,2.5053728,2.696125414,14300,2017/07/27 20:59:58,13,24.542,8998.253817,14.107612,2.5053728,2.696125414,232.9,0,0,1051,1024,1105,1024,0,0,95,4.071,4.097,4.086,4.093,4.087,4.095,6,GPS_Atti,
37.61330518,-119.0210685,8998.581901,14.435696,2.6172198,3.099406267,14400,2017/07/27 20:59:58,13,24.542,8998.581901,14.435696,2.6172198,3.099406267,234.1,0,0,1043,1024,1079,1024,0,0,95,4.071,4.097,4.086,4.093,4.087,4.095,6,GPS_Atti,
37.61330494,-119.0210698,8998.909985,14.76378,2.6172198,3.47687019,14500,2017/07/27 20:59:58,13,24.45,8998.909985,14.76378,2.6172198,3.47687019,234.7,0,0,1042,1024,1073,993,0,0,95,4.041,4.08,4.086,4.108,4.095,4.098,6,GPS_Atti,
37.61330476,-119.021071,8998.909985,14.76378,2.5501116,3.846227157,14600,2017/07/27 20:59:58,13,24.45,8998.909985,14.76378,2.6172198,3.846227157,235.3,0,0,1035,1024,1039,899,0,0,95,4.041,4.08,4.086,4.108,4.095,4.098,6,GPS_Atti,
37.61330463,-119.0210724,8998.909985,14.76378,2.5053728,4.236909584,14700,2017/07/27 20:59:58,13,24.45,8998.909985,14.76378,2.6172198,4.236909584,235.5,0,0,1037,1024,1026,862,0,0,95,4.041,4.08,4.086,4.108,4.095,4.098,6,GPS_Atti,
37.61330456,-119.0210737,8998.909985,14.76378,2.23694,4.626017208,14800,2017/07/27 20:59:58,13,24.45,8998.909985,14.76378,2.6172198,4.626017208,234.8,0,0,1032,1024,1025,861,0,0,95,4.041,4.08,4.086,4.108,4.095,4.098,6,GPS_Atti,
37.6133045,-119.0210749,8998.909985,14.76378,2.23694,4.983267876,14900,2017/07/27 20:59:58,13,24.45,8998.909985,14.76378,2.6172198,4.983267876,233.8,0,0,1035,1024,1028,959,0,0,95,4.041,4.08,4.086,4.108,4.095,4.098,6,GPS_Atti,
37.61330447,-119.0210761,8998.909985,14.76378,2.013246,5.313025104,15000,2017/07/27 20:59:58,13,24.45,8998.909985,14.76378,2.6172198,5.313025104,232.4,0,0,1024,1024,1038,1023,0,0,95,4.041,4.08,4.086,4.108,4.095,4.098,6,GPS_Atti,
37.6133044,-119.0210771,8998.909985,14.76378,1.789552,5.617946374,15100,2017/07/27 20:59:58,13,24.45,8998.909985,14.76378,2.6172198,5.617946374,231.5,0,0,1027,1024,1081,1024,0,0,95,4.041,4.08,4.086,4.108,4.095,4.098,6,GPS_Atti,
37.61330435,-119.021078,8998.581901,14.435696,1.342164,5.878937196,15200,2017/07/27 20:59:58,13,24.45,8998.909985,14.76378,2.6172198,5.878937196,230.9,0,0,1024,1024,1097,1024,0,0,95,4.041,4.08,4.086,4.108,4.095,4.098,6,GPS_Atti,
37.61330427,-119.0210787,8998.581901,14.435696,1.11847,6.081463449,15300,2017/07/27 20:59:59,13,24.45,8998.909985,14.76378,2.6172198,6.081463449,230.5,0,0,1069,1024,1167,1024,0,0,95,4.041,4.08,4.086,4.108,4.095,4.098,6,GPS_Atti,
37.61330421,-119.0210793,8998.581901,14.435696,0.894776,6.234383402,15400,2017/07/27 20:59:59,13,24.45,8998.909985,14.76378,2.6172198,6.234383402,230.2,0,0,1095,1024,1167,1024,0,0,95,4.041,4.08,4.086,4.108,4.095,4.098,6,GPS_Atti,
37.61330409,-119.0210797,8998.581901,14.435696,0.671082,6.364140624,15500,2017/07/27 20:59:59,13,24.403,8998.909985,14.76378,2.6172198,6.364140624,229.9,0,0,1104,1024,1167,1024,0,0,95,4.043,4.075,4.07,4.079,4.081,4.066,6,GPS_Atti,
37.61330395,-119.0210801,8998.581901,14.435696,0.447388,6.47473774,15600,2017/07/27 20:59:59,13,24.403,8998.909985,14.76378,2.6172198,6.47473774,229.4,0,0,1098,1024,1114,1015,0,0,95,4.043,4.075,4.07,4.079,4.081,4.066,6,GPS_Atti,
37.61330372,-119.0210805,8998.253817,14.107612,0.447388,6.591338794,15700,2017/07/27 20:59:59,13,24.403,8998.909985,14.76378,2.6172198,6.591338794,228.9,0,0,1057,1024,1106,944,0,0,95,4.043,4.075,4.07,4.079,4.081,4.066,6,GPS_Atti,
37.61330342,-119.0210808,8998.253817,14.107612,0.447388,6.716273181,15800,2017/07/27 20:59:59,13,24.403,8998.909985,14.76378,2.6172198,6.716273181,228.1,0,0,1024,1024,1084,924,0,0,95,4.043,4.075,4.07,4.079,4.081,4.066,6,GPS_Atti,
37.61330262,-119.0210817,8998.253817,14.107612,0.7158208,7.003510723,16000,2017/07/27 20:59:59,13,24.403,8998.909985,14.76378,2.6172198,7.003510723,225.7,0,0,1024,1024,1085,933,0,0,95,4.043,4.075,4.07,4.079,4.081,4.066,6,GPS_Atti,
37.61330221,-119.0210821,8998.253817,14.107612,0.6263432,7.139567158,16100,2017/07/27 20:59:59,13,24.403,8998.909985,14.76378,2.6172198,7.139567158,224.7,0,0,1024,1024,1079,902,0,0,95,4.043,4.075,4.07,4.079,4.081,4.066,6,GPS_Atti,
37.6133018,-119.0210825,8998.253817,14.107612,0.6263432,7.266502857,16200,2017/07/27 20:59:59,13,24.403,8998.909985,14.76378,2.6172198,7.266502857,223.4,0,0,1024,1024,1059,816,0,0,95,4.043,4.075,4.07,4.079,4.081,4.066,6,GPS_Atti,
37.6133014,-119.0210828,8998.253817,14.107612,0.4921268,7.383924121,16300,2017/07/27 21:00:00,13,24.403,8998.909985,14.76378,2.6172198,7.383924121,221.8,0,0,1024,1024,1043,808,0,0,95,4.043,4.075,4.07,4.079,4.081,4.066,6,GPS_Atti,
37.613301,-119.0210831,8998.253817,14.107612,0.3131716,7.490256145,16400,2017/07/27 21:00:00,13,24.403,8998.909985,14.76378,2.6172198,7.490256145,220.2,0,0,1024,1024,1043,860,0,0,95,4.043,4.075,4.07,4.079,4.081,4.066,6,GPS_Atti,
37.61330064,-119.0210833,8998.253817,14.107612,0.3131716,7.578674783,16500,2017/07/27 21:00:00,13,24.403,8998.909985,14.76378,2.6172198,7.578674783,219.2,0,0,1024,1024,1044,898,0,0,95,4.043,4.075,4.07,4.079,4.081,4.066,6,GPS_Atti,
37.61330031,-119.0210834,8998.253817,14.107612,0.3131716,7.655741715,16600,2017/07/27 21:00:00,13,24.515,8998.909985,14.76378,2.6172198,7.655741715,218.1,0,0,1024,1024,1044,985,0,0,95,4.056,4.096,4.086,4.101,4.11,4.099,6,GPS_Atti,
37.61329999,-119.0210836,8997.925733,13.779528,0,7.721325706,16700,2017/07/27 21:00:00,13,24.515,8998.909985,14.76378,2.6172198,7.721325706,217.3,0,0,1024,1024,1038,1023,0,0,95,4.056,4.096,4.086,4.101,4.11,4.099,6,GPS_Atti,
37.61329968,-119.0210837,8997.925733,13.779528,0,7.77211311,16800,2017/07/27 21:00:00,13,24.515,8998.909985,14.76378,2.6172198,7.77211311,216.7,0,0,1024,1024,1085,1024,0,0,95,4.056,4.096,4.086,4.101,4.11,4.099,6,GPS_Atti,
37.61329939,-119.0210837,8997.925733,13.779528,0,7.818340145,16900,2017/07/27 21:00:00,13,24.515,8998.909985,14.76378,2.6172198,7.818340145,216.3,0,0,1024,1024,1142,1024,0,0,95,4.056,4.096,4.086,4.101,4.11,4.099,6,GPS_Atti,
37.61329912,-119.0210838,8997.925733,13.779528,0,7.858858519,17000,2017/07/27 21:00:00,13,24.515,8998.909985,14.76378,2.6172198,7.858858519,216,0,0,1039,1024,1145,1024,0,0,95,4.056,4.096,4.086,4.101,4.11,4.099,6,GPS_Atti,
37.61329885,-119.0210838,8997.925733,13.779528,0,7.887729911,17100,2017/07/27 21:00:00,13,24.515,8998.909985,14.76378,2.6172198,7.887729911,215.8,0,0,1101,1024,1160,1024,0,0,95,4.056,4.096,4.086,4.101,4.11,4.099,6,GPS_Atti,
37.61329856,-119.0210837,8997.925733,13.779528,0,7.904954321,17200,2017/07/27 21:00:00,13,24.515,8998.909985,14.76378,2.6172198,7.904954321,215.6,0,0,1134,1024,1147,1024,0,0,95,4.056,4.096,4.086,4.101,4.11,4.099,6,GPS_Atti,
37.61329827,-119.0210836,8998.253817,14.107612,0.223694,7.911483193,17300,2017/07/27 21:00:01,13,24.515,8998.909985,14.76378,2.6172198,7.911483193,215.5,0,0,1172,1024,1152,1024,0,0,95,4.056,4.096,4.086,4.101,4.11,4.099,6,GPS_Atti,
37.61329791,-119.0210835,8998.253817,14.107612,0.447388,7.92650944,17400,2017/07/27 21:00:01,13,24.515,8998.909985,14.76378,2.6172198,7.92650944,215.4,0,0,1154,1024,1154,1024,0,0,95,4.056,4.096,4.086,4.101,4.11,4.099,6,GPS_Atti,
37.61329747,-119.0210834,8998.253817,14.107612,0.671082,7.967651174,17500,2017/07/27 21:00:01,13,24.515,8998.909985,14.76378,2.6172198,7.967651174,215.4,0,0,1167,1024,1147,1024,0,0,95,4.056,4.096,4.086,4.101,4.11,4.099,6,GPS_Atti,
37.61329693,-119.0210835,8998.581901,14.435696,0.894776,8.046227292,17600,2017/07/27 21:00:01,13,24.413,8998.909985,14.76378,2.6172198,8.046227292,215.5,0,0,1166,1024,1147,1024,0,0,94,4.028,4.059,4.049,4.054,4.059,4.062,6,GPS_Atti,
37.61329631,-119.0210836,8998.581901,14.435696,1.1408394,8.16046614,17700,2017/07/27 21:00:01,13,24.413,8998.909985,14.76378,2.6172198,8.16046614,215.5,0,0,1149,1024,1121,1024,0,0,94,4.028,4.059,4.049,4.054,4.059,4.062,6,GPS_Atti,
37.61329559,-119.0210837,8998.581901,14.435696,1.3645334,8.3130252,17800,2017/07/27 21:00:01,13,24.413,8998.909985,14.76378,2.6172198,8.3130252,215.4,0,0,1154,1024,1104,1024,0,0,94,4.028,4.059,4.049,4.054,4.059,4.062,6,GPS_Atti,
37.61329489,-119.021084,8998.581901,14.435696,1.6329662,8.484941216,17900,2017/07/27 21:00:01,13,24.413,8998.909985,14.76378,2.6172198,8.484941216,215.5,0,0,1161,1024,1060,1024,0,0,94,4.028,4.059,4.049,4.054,4.059,4.062,6,GPS_Atti,
37.61329415,-119.0210842,8998.909985,14.76378,1.6329662,8.681168257,18000,2017/07/27 21:00:01,13,24.413,8998.909985,14.76378,2.6172198,8.681168257,215.5,0,0,1164,1024,1027,1024,0,0,94,4.028,4.059,4.049,4.054,4.059,4.062,6,GPS_Atti,
37.61329335,-119.0210846,8998.909985,14.76378,1.901399,8.907972726,18100,2017/07/27 21:00:01,13,24.413,8998.909985,14.76378,2.6172198,8.907972726,215.7,0,0,1169,1024,1024,1024,0,0,94,4.028,4.059,4.049,4.054,4.059,4.062,6,GPS_Atti,
37.61329251,-119.0210849,8999.238069,15.091864,1.901399,9.156496356,18200,2017/07/27 21:00:01,13,24.413,8999.238069,15.091864,2.6172198,9.156496356,215.9,0,0,1173,1024,1024,1024,0,0,94,4.028,4.059,4.049,4.054,4.059,4.062,6,GPS_Atti,
37.61329169,-119.0210854,8999.238069,15.091864,2.125093,9.42667353,18300,2017/07/27 21:00:02,13,24.413,8999.238069,15.091864,2.6172198,9.42667353,215.9,0,0,1197,1027,1024,1024,0,0,94,4.028,4.059,4.049,4.054,4.059,4.062,6,GPS_Atti,
37.61329084,-119.021086,8999.238069,15.091864,2.1922012,9.726411072,18400,2017/07/27 21:00:02,13,24.413,8999.238069,15.091864,2.6172198,9.726411072,215.8,0,0,1203,1024,1024,1024,0,0,94,4.028,4.059,4.049,4.054,4.059,4.062,6,GPS_Atti,
37.61328993,-119.0210866,8999.566153,15.419948,2.5053728,10.05892421,18500,2017/07/27 21:00:02,13,24.413,8999.566153,15.419948,2.6172198,10.05892421,215.7,0,0,1204,1024,1024,1024,0,0,94,4.028,4.059,4.049,4.054,4.059,4.062,6,GPS_Atti,
37.61328895,-119.0210873,8999.566153,15.419948,2.796175,10.4307418,18600,2017/07/27 21:00:02,13,24.389,8999.566153,15.419948,2.796175,10.4307418,215.6,0,0,1204,1024,1025,1024,0,0,94,4.041,4.078,4.073,4.073,4.083,4.058,6,GPS_Atti,
37.61328788,-119.0210881,8999.566153,15.419948,3.1093466,10.84662108,18700,2017/07/27 21:00:02,13,24.389,8999.566153,15.419948,3.1093466,10.84662108,215.3,0,0,1185,1024,1029,1024,0,0,94,4.041,4.078,4.073,4.073,4.083,4.058,6,GPS_Atti,
37.61328673,-119.021089,8999.566153,15.419948,3.3106712,11.30754629,18800,2017/07/27 21:00:02,13,24.389,8999.566153,15.419948,3.3106712,11.30754629,214.7,0,0,1163,1024,1031,1024,0,0,94,4.041,4.078,4.073,4.073,4.083,4.058,6,GPS_Atti,
37.61328548,-119.02109,8999.566153,15.419948,3.6014734,11.82208043,18900,2017/07/27 21:00:02,13,24.389,8999.566153,15.419948,3.6014734,11.82208043,214.2,0,0,1128,1024,1040,1024,0,0,94,4.041,4.078,4.073,4.073,4.083,4.058,6,GPS_Atti,
37.61328415,-119.0210911,8999.894237,15.748032,3.7133204,12.37444265,19000,2017/07/27 21:00:02,13,24.389,8999.894237,15.748032,3.7133204,12.37444265,213.7,0,0,1119,1024,1045,1024,0,0,94,4.041,4.078,4.073,4.073,4.083,4.058,6,GPS_Atti,
37.6132828,-119.0210923,8999.894237,15.748032,3.914645,12.95301879,19100,2017/07/27 21:00:02,13,24.389,8999.894237,15.748032,3.914645,12.95301879,213.5,0,0,1101,1024,1043,1024,0,0,94,4.041,4.078,4.073,4.073,4.083,4.058,6,GPS_Atti,
37.61328144,-119.0210935,8999.894237,15.748032,3.914645,13.53877996,19200,2017/07/27 21:00:02,13,24.389,8999.894237,15.748032,3.914645,13.53877996,213.6,0,0,1085,1024,1041,1024,0,0,94,4.041,4.078,4.073,4.073,4.083,4.058,6,GPS_Atti,
37.61328007,-119.0210947,8999.894237,15.748032,3.6014734,14.11676554,19300,2017/07/27 21:00:03,13,24.389,8999.894237,15.748032,3.914645,14.11676554,214,0,0,1069,1031,1041,1024,0,0,94,4.041,4.078,4.073,4.073,4.083,4.058,6,GPS_Atti,
37.61327872,-119.0210958,8999.566153,15.419948,3.6014734,14.68467895,19400,2017/07/27 21:00:03,13,24.389,8999.894237,15.748032,3.914645,14.68467895,214.4,0,0,1089,1064,1040,1024,0,0,94,4.041,4.078,4.073,4.073,4.083,4.058,6,GPS_Atti,
37.6132774,-119.021097,8999.566153,15.419948,3.6014734,15.24993487,19500,2017/07/27 21:00:03,13,24.389,8999.894237,15.748032,3.914645,15.24993487,214.8,0,0,1096,1070,1039,1024,0,0,94,4.041,4.078,4.073,4.073,4.083,4.058,6,GPS_Atti,
37.61327611,-119.0210981,8999.566153,15.419948,3.6014734,15.80436402,19600,2017/07/27 21:00:03,13,24.288,8999.894237,15.748032,3.914645,15.80436402,215,0,0,1077,1024,1024,976,0,0,94,4.016,4.056,4.039,4.056,4.052,4.052,6,GPS_Atti,
37.61327479,-119.0210992,8999.894237,15.748032,3.4225182,16.36984961,19700,2017/07/27 21:00:03,13,24.288,8999.894237,15.748032,3.914645,16.36984961,215.4,0,0,1076,1024,1024,1024,0,0,94,4.016,4.056,4.039,4.056,4.052,4.052,6,GPS_Atti,
37.61327348,-119.0211004,8999.894237,15.748032,3.5343652,16.94498086,19800,2017/07/27 21:00:03,13,24.288,8999.894237,15.748032,3.914645,16.94498086,215.6,0,0,1076,1024,1024,1024,0,0,94,4.016,4.056,4.039,4.056,4.052,4.052,6,GPS_Atti,
37.61327213,-119.0211016,8999.894237,15.748032,3.5343652,17.55262523,19900,2017/07/27 21:00:03,13,24.288,8999.894237,15.748032,3.914645,17.55262523,215.9,0,0,1076,1024,1024,1024,0,0,94,4.016,4.056,4.039,4.056,4.052,4.052,6,GPS_Atti,
37.61327077,-119.021103,8999.894237,15.748032,3.5343652,18.17096515,20000,2017/07/27 21:00:03,13,24.288,8999.894237,15.748032,3.914645,18.17096515,216.3,0,0,1076,1024,1024,977,0,0,94,4.016,4.056,4.039,4.056,4.052,4.052,6,GPS_Atti,
37.61326941,-119.0211043,8999.894237,15.748032,3.4896264,18.79087987,20100,2017/07/27 21:00:03,13,24.288,8999.894237,15.748032,3.914645,18.79087987,216.7,0,0,1070,1024,1024,928,0,0,94,4.016,4.056,4.039,4.056,4.052,4.052,6,GPS_Atti,
37.61326808,-119.0211057,8999.894237,15.748032,3.4896264,19.41446913,20200,2017/07/27 21:00:03,13,24.288,8999.894237,15.748032,3.914645,19.41446913,216.8,0,0,1025,1024,1024,890,0,0,94,4.016,4.056,4.039,4.056,4.052,4.052,6,GPS_Atti,
37.61326677,-119.0211071,9000.222321,16.076116,3.6462122,20.03861613,20300,2017/07/27 21:00:04,13,24.288,9000.222321,16.076116,3.914645,20.03861613,216.6,0,0,1024,1024,1024,903,0,0,94,4.016,4.056,4.039,4.056,4.052,4.052,6,GPS_Atti,
37.61326548,-119.0211085,9000.222321,16.076116,3.4896264,20.66328806,20400,2017/07/27 21:00:04,13,24.288,9000.222321,16.076116,3.914645,20.66328806,216.2,0,0,1024,1024,1024,917,0,0,94,4.016,4.056,4.039,4.056,4.052,4.052,6,GPS_Atti,
37.61326422,-119.0211099,9000.550405,16.4042,3.4896264,21.26837338,20500,2017/07/27 21:00:04,13,24.288,9000.550405,16.4042,3.914645,21.26837338,215.8,0,0,1024,1024,1024,949,0,0,94,4.016,4.056,4.039,4.056,4.052,4.052,6,GPS_Atti,
37.61326301,-119.0211112,9000.878489,16.732284,3.3330406,21.85639834,20600,2017/07/27 21:00:04,13,24.335,9000.878489,16.732284,3.914645,21.85639834,215.1,0,0,1024,1027,1024,957,0,0,94,4.038,4.064,4.055,4.065,4.066,4.065,6,GPS_Atti,
37.61326187,-119.0211125,9000.878489,16.732284,3.019869,22.42073563,20700,2017/07/27 21:00:04,13,24.335,9000.878489,16.732284,3.914645,22.42073563,214.4,0,0,1024,1038,1024,965,0,0,94,4.038,4.064,4.055,4.065,4.066,4.065,6,GPS_Atti,
37.61325988,-119.0211149,9001.206573,17.060368,2.3711564,23.41968579,20900,2017/07/27 21:00:04,13,24.335,9001.206573,17.060368,3.914645,23.41968579,213,0,0,1024,1041,1024,966,0,0,94,4.038,4.064,4.055,4.065,4.066,4.065,6,GPS_Atti,
37.61325903,-119.0211159,9001.206573,17.060368,1.9237684,23.83169368,21000,2017/07/27 21:00:04,13,24.335,9001.206573,17.060368,3.914645,23.83169368,212.3,0,0,1024,1075,1024,993,0,0,94,4.038,4.064,4.055,4.065,4.066,4.065,6,GPS_Atti,
37.6132583,-119.0211166,9001.206573,17.060368,1.4316416,24.1688656,21100,2017/07/27 21:00:04,13,24.335,9001.206573,17.060368,3.914645,24.1688656,212,0,0,1024,1107,1024,1017,0,0,94,4.038,4.064,4.055,4.065,4.066,4.065,6,GPS_Atti,
37.61325766,-119.0211172,9001.206573,17.060368,1.2974252,24.45862939,21200,2017/07/27 21:00:04,13,24.335,9001.206573,17.060368,3.914645,24.45862939,211.5,0,0,1024,1119,1024,1015,0,0,94,4.038,4.064,4.055,4.065,4.066,4.065,6,GPS_Atti,
37.613257,-119.0211178,9000.878489,16.732284,1.2974252,24.75150998,21300,2017/07/27 21:00:04,13,24.335,9001.206573,17.060368,3.914645,24.75150998,211.2,0,0,1024,1099,1024,1021,0,0,94,4.038,4.064,4.055,4.065,4.066,4.065,6,GPS_Atti,
37.61325638,-119.0211184,9000.878489,16.732284,1.4092722,25.04389844,21400,2017/07/27 21:00:05,13,24.335,9001.206573,17.060368,3.914645,25.04389844,211,0,0,1024,1036,1024,1024,0,0,94,4.038,4.064,4.055,4.065,4.066,4.065,6,GPS_Atti,
37.6132558,-119.0211191,9000.878489,16.732284,1.4092722,25.32306511,21500,2017/07/27 21:00:05,13,24.335,9001.206573,17.060368,3.914645,25.32306511,211,0,0,1024,1024,1024,1024,0,0,94,4.038,4.064,4.055,4.065,4.066,4.065,6,GPS_Atti,
37.61325525,-119.0211197,9000.878489,16.732284,1.4092722,25.59724491,21600,2017/07/27 21:00:05,13,24.335,9001.206573,17.060368,3.914645,25.59724491,210.9,0,0,1024,1024,1024,1024,0,0,94,4.038,4.064,4.055,4.065,4.066,4.065,6,GPS_Atti,
37.6132547,-119.0211204,9000.550405,16.4042,1.2079476,25.8690297,21700,2017/07/27 21:00:05,13,24.453,9001.206573,17.060368,3.914645,25.8690297,210.8,0,0,1024,1024,1024,1024,0,0,94,4.059,4.079,4.064,4.057,4.074,4.057,6,GPS_Atti,
37.61325414,-119.0211209,9000.550405,16.4042,1.2079476,26.12608351,21800,2017/07/27 21:00:05,13,24.453,9001.206573,17.060368,3.914645,26.12608351,210.8,0,0,1024,1024,1028,1024,0,0,94,4.059,4.079,4.064,4.057,4.074,4.057,6,GPS_Atti,
37.61325362,-119.0211214,9000.550405,16.4042,1.006623,26.35108352,21900,2017/07/27 21:00:05,13,24.453,9001.206573,17.060368,3.914645,26.35108352,210.8,0,0,1024,1024,1062,1024,0,0,94,4.059,4.079,4.064,4.057,4.074,4.057,6,GPS_Atti,
37.61325312,-119.0211217,9000.550405,16.4042,0.7158208,26.55196935,22000,2017/07/27 21:00:05,13,24.453,9001.206573,17.060368,3.914645,26.55196935,210.9,0,0,1024,1024,1099,1024,0,0,94,4.059,4.079,4.064,4.057,4.074,4.057,6,GPS_Atti,
37.61325268,-119.021122,9000.550405,16.4042,0.4921268,26.72034206,22100,2017/07/27 21:00:05,13,24.453,9001.206573,17.060368,3.914645,26.72034206,211,0,0,1024,1024,1105,1024,0,0,94,4.059,4.079,4.064,4.057,4.074,4.057,6,GPS_Atti,
37.61325225,-119.0211221,9000.550405,16.4042,0.3131716,26.86532238,22200,2017/07/27 21:00:05,13,24.453,9001.206573,17.060368,3.914645,26.86532238,211.2,0,0,1024,1024,1100,1024,0,0,94,4.059,4.079,4.064,4.057,4.074,4.057,6,GPS_Atti,
37.61325184,-119.0211223,9000.222321,16.076116,0.3131716,27.00948249,22300,2017/07/27 21:00:05,13,24.453,9001.206573,17.060368,3.914645,27.00948249,211.4,0,0,1024,1024,1093,1024,0,0,94,4.059,4.079,4.064,4.057,4.074,4.057,6,GPS_Atti,
37.61325144,-119.0211224,8999.894237,15.748032,0.3131716,27.1431111,22400,2017/07/27 21:00:06,13,24.453,9001.206573,17.060368,3.914645,27.1431111,211.5,0,0,1024,1024,1090,1024,0,0,94,4.059,4.079,4.064,4.057,4.074,4.057,6,GPS_Atti,
37.61325106,-119.0211225,8999.894237,15.748032,0.223694,27.26548644,22500,2017/07/27 21:00:06,13,24.453,9001.206573,17.060368,3.914645,27.26548644,211.5,0,0,1024,1024,1097,1024,0,0,94,4.059,4.079,4.064,4.057,4.074,4.057,6,GPS_Atti,
37.61325068,-119.0211226,8999.566153,15.419948,0.223694,27.37906912,22600,2017/07/27 21:00:06,13,24.453,9001.206573,17.060368,3.914645,27.37906912,211.3,0,0,1024,1024,1098,1024,0,0,94,4.059,4.079,4.064,4.057,4.074,4.057,6,GPS_Atti,
37.61325027,-119.0211227,8999.238069,15.091864,0.223694,27.50324891,22700,2017/07/27 21:00:06,13,24.476,9001.206573,17.060368,3.914645,27.50324891,211.3,0,0,1024,1024,1096,1024,0,0,94,4.059,4.079,4.064,4.057,4.074,4.057,6,GPS_Atti,
37.61324986,-119.0211228,8999.238069,15.091864,0.223694,27.62877385,22800,2017/07/27 21:00:06,13,24.476,9001.206573,17.060368,3.914645,27.62877385,211.4,0,0,1024,1024,1090,1024,0,0,94,4.059,4.079,4.064,4.057,4.074,4.057,6,GPS_Atti,
37.61324945,-119.0211228,8998.909985,14.76378,0.223694,27.74071611,22900,2017/07/27 21:00:06,13,24.476,9001.206573,17.060368,3.914645,27.74071611,211.5,0,0,1024,1024,1070,1024,0,0,94,4.059,4.079,4.064,4.057,4.074,4.057,6,GPS_Atti,
37.61324908,-119.0211228,8998.909985,14.76378,0,27.84225811,23000,2017/07/27 21:00:06,13,24.476,9001.206573,17.060368,3.914645,27.84225811,211.5,0,0,1024,1024,1024,1024,0,0,94,4.059,4.079,4.064,4.057,4.074,4.057,6,GPS_Atti,
37.61324876,-119.0211228,8998.909985,14.76378,0,27.93152977,23100,2017/07/27 21:00:06,13,24.476,9001.206573,17.060368,3.914645,27.93152977,211.5,0,0,1024,1024,1028,1024,0,0,94,4.059,4.079,4.064,4.057,4.074,4.057,6,GPS_Atti,
37.61324848,-119.0211228,8998.581901,14.435696,0,28.00817019,23200,2017/07/27 21:00:06,13,24.476,9001.206573,17.060368,3.914645,28.00817019,211.3,0,0,1024,1024,1075,1024,0,0,94,4.059,4.079,4.064,4.057,4.074,4.057,6,GPS_Atti,
37.61324825,-119.0211228,8998.581901,14.435696,0,28.06440379,23300,2017/07/27 21:00:07,13,24.476,9001.206573,17.060368,3.914645,28.06440379,211.2,0,0,1024,1024,1079,1024,0,0,94,4.059,4.079,4.064,4.057,4.074,4.057,6,GPS_Atti,
37.61324807,-119.0211227,8998.581901,14.435696,0,28.10206783,23400,2017/07/27 21:00:07,13,24.476,9001.206573,17.060368,3.914645,28.10206783,211,0,0,1024,1024,1068,1024,0,0,94,4.059,4.079,4.064,4.057,4.074,4.057,6,GPS_Atti,
37.61324795,-119.0211226,8998.581901,14.435696,0.223694,28.11715969,23500,2017/07/27 21:00:07,13,24.476,9001.206573,17.060368,3.914645,28.11715969,211,0,0,1024,1024,1029,1024,0,0,94,4.059,4.079,4.064,4.057,4.074,4.057,6,GPS_Atti,
37.61324788,-119.0211225,8998.909985,14.76378,0.223694,28.11673318,23600,2017/07/27 21:00:07,13,24.476,9001.206573,17.060368,3.914645,28.11715969,211,0,0,1024,1024,1024,1005,0,0,94,4.059,4.079,4.064,4.057,4.074,4.057,6,GPS_Atti,
37.61324789,-119.0211225,8998.909985,14.76378,0.447388,28.10187098,23700,2017/07/27 21:00:07,13,24.476,9001.206573,17.060368,3.914645,28.11715969,211,0,0,1024,1024,1024,976,0,0,94,4.068,4.061,4.068,4.071,4.08,4.065,6,GPS_Atti,
37.61324795,-119.0211224,8999.238069,15.091864,0.671082,28.0734261,23800,2017/07/27 21:00:07,13,24.476,9001.206573,17.060368,3.914645,28.11715969,211,0,0,1024,1024,1024,946,0,0,94,4.068,4.061,4.068,4.071,4.08,4.065,6,GPS_Atti,
37.61324803,-119.0211223,8999.238069,15.091864,0.671082,28.02667413,23900,2017/07/27 21:00:07,13,24.476,9001.206573,17.060368,3.914645,28.11715969,211,0,0,1024,1024,1024,937,0,0,94,4.068,4.061,4.068,4.071,4.08,4.065,6,GPS_Atti,
37.61324815,-119.0211221,8999.238069,15.091864,0.894776,27.96794709,24000,2017/07/27 21:00:07,13,24.476,9001.206573,17.060368,3.914645,28.11715969,210.8,0,0,1024,1024,1024,910,0,0,94,4.068,4.061,4.068,4.071,4.08,4.065,6,GPS_Atti,
37.61324835,-119.021122,8999.238069,15.091864,0.894776,27.8965232,24100,2017/07/27 21:00:07,13,24.476,9001.206573,17.060368,3.914645,28.11715969,210.6,0,0,1024,1024,1024,899,0,0,94,4.068,4.061,4.068,4.071,4.08,4.065,6,GPS_Atti,
37.61324859,-119.021122,8999.238069,15.091864,0.894776,27.81522399,24200,2017/07/27 21:00:07,13,24.476,9001.206573,17.060368,3.914645,28.11715969,210.1,0,0,1024,1024,1024,886,0,0,94,4.068,4.061,4.068,4.071,4.08,4.065,6,GPS_Atti,
37.61324891,-119.0211218,8999.566153,15.419948,1.11847,27.70367543,24300,2017/07/27 21:00:08,13,24.476,9001.206573,17.060368,3.914645,28.11715969,209.3,0,0,1024,1024,1024,888,0,0,94,4.068,4.061,4.068,4.071,4.08,4.065,6,GPS_Atti,
37.61324928,-119.0211217,8999.566153,15.419948,1.11847,27.57956125,24400,2017/07/27 21:00:08,13,24.476,9001.206573,17.060368,3.914645,28.11715969,207.9,0,0,1024,1024,1024,906,0,0,94,4.068,4.061,4.068,4.071,4.08,4.065,6,GPS_Atti,
37.61324968,-119.0211216,8999.566153,15.419948,1.342164,27.45285521,24500,2017/07/27 21:00:08,13,24.476,9001.206573,17.060368,3.914645,28.11715969,206.4,0,0,1024,1024,1024,901,0,0,94,4.068,4.061,4.068,4.071,4.08,4.065,6,GPS_Atti,
37.61325012,-119.0211215,8999.566153,15.419948,1.342164,27.31752056,24600,2017/07/27 21:00:08,13,24.476,9001.206573,17.060368,3.914645,28.11715969,204.7,0,0,1024,1024,1024,1018,0,0,94,4.068,4.061,4.068,4.071,4.08,4.065,6,GPS_Atti,
37.61325059,-119.0211214,8999.566153,15.419948,1.342164,27.17385258,24700,2017/07/27 21:00:08,13,24.365,9001.206573,17.060368,3.914645,28.11715969,203.4,0,0,1024,1024,1024,1024,0,0,94,4.05,4.043,4.072,4.049,4.058,4.033,6,GPS_Atti,
37.61325104,-119.0211213,8999.894237,15.748032,1.342164,27.03290769,24800,2017/07/27 21:00:08,13,24.365,9001.206573,17.060368,3.914645,28.11715969,202.4,0,0,1024,1024,1024,1024,0,0,94,4.05,4.043,4.072,4.049,4.058,4.033,6,GPS_Atti,
37.6132515,-119.0211213,8999.894237,15.748032,1.342164,26.89255335,24900,2017/07/27 21:00:08,13,24.365,9001.206573,17.060368,3.914645,28.11715969,202,0,0,1024,1024,1061,1024,0,0,94,4.05,4.043,4.072,4.049,4.058,4.033,6,GPS_Atti,
37.61325194,-119.0211212,8999.894237,15.748032,1.11847,26.7599418,25000,2017/07/27 21:00:08,13,24.365,9001.206573,17.060368,3.914645,28.11715969,201.7,0,0,1024,1024,1105,1024,0,0,94,4.05,4.043,4.072,4.049,4.058,4.033,6,GPS_Atti,
37.61325234,-119.0211211,8999.894237,15.748032,1.11847,26.64399692,25100,2017/07/27 21:00:08,13,24.365,9001.206573,17.060368,3.914645,28.11715969,201.6,0,0,1024,1024,1115,1024,0,0,94,4.05,4.043,4.072,4.049,4.058,4.033,6,GPS_Atti,
37.61325269,-119.0211211,8999.566153,15.419948,0.894776,26.54399691,25200,2017/07/27 21:00:08,13,24.365,9001.206573,17.060368,3.914645,28.11715969,201.4,0,0,1024,1024,1117,1024,0,0,94,4.05,4.043,4.072,4.049,4.058,4.033,6,GPS_Atti,
37.61325302,-119.0211211,8999.566153,15.419948,0.894776,26.46263208,25300,2017/07/27 21:00:09,13,24.365,9001.206573,17.060368,3.914645,28.11715969,201.2,0,0,1024,1024,1117,1024,0,0,94,4.05,4.043,4.072,4.049,4.058,4.033,6,GPS_Atti,
37.61325332,-119.0211212,8999.894237,15.748032,0.671082,26.39104415,25400,2017/07/27 21:00:09,13,24.365,9001.206573,17.060368,3.914645,28.11715969,201.1,0,0,1024,1024,1116,1024,0,0,94,4.05,4.043,4.072,4.049,4.058,4.033,6,GPS_Atti,
37.61325354,-119.0211213,8999.894237,15.748032,0.447388,26.3576452,25500,2017/07/27 21:00:09,13,24.365,9001.206573,17.060368,3.914645,28.11715969,201.1,0,0,1024,1024,1116,1024,0,0,94,4.05,4.043,4.072,4.049,4.058,4.033,6,GPS_Atti,
37.61325381,-119.0211216,8999.566153,15.419948,0.223694,26.35574231,25700,2017/07/27 21:00:09,13,24.365,9001.206573,17.060368,3.914645,28.11715969,201.2,0,0,1037,1024,1110,1024,0,0,94,4.05,4.043,4.072,4.049,4.058,4.033,6,GPS_Atti,
37.61325391,-119.0211218,8999.566153,15.419948,0.223694,26.37106384,25800,2017/07/27 21:00:09,13,24.253,9001.206573,17.060368,3.914645,28.11715969,201.3,0,0,1047,1024,1106,1024,0,0,94,4.024,4.058,4.039,4.052,4.052,4.06,6,GPS_Atti,
37.61325399,-119.0211221,8999.566153,15.419948,0.223694,26.40144441,25900,2017/07/27 21:00:09,13,24.253,9001.206573,17.060368,3.914645,28.11715969,201.2,0,0,1075,1024,1104,1024,0,0,94,4.024,4.058,4.039,4.052,4.052,4.06,6,GPS_Atti,
37.61325407,-119.0211223,8999.566153,15.419948,0.223694,26.43861633,26000,2017/07/27 21:00:09,13,24.253,9001.206573,17.060368,3.914645,28.11715969,201.3,0,0,1085,1024,1099,1024,0,0,94,4.024,4.058,4.039,4.052,4.052,4.06,6,GPS_Atti,
37.61325416,-119.0211227,8999.566153,15.419948,0.223694,26.48697591,26100,2017/07/27 21:00:09,13,24.253,9001.206573,17.060368,3.914645,28.11715969,201.3,0,0,1073,1024,1092,1024,0,0,94,4.024,4.058,4.039,4.052,4.052,4.06,6,GPS_Atti,
37.61325427,-119.0211231,8999.566153,15.419948,0.223694,26.53878038,26200,2017/07/27 21:00:09,13,24.253,9001.206573,17.060368,3.914645,28.11715969,201.4,0,0,1084,1024,1098,1024,0,0,94,4.024,4.058,4.039,4.052,4.052,4.06,6,GPS_Atti,
37.61325438,-119.0211235,8999.566153,15.419948,0.3131716,26.58920689,26300,2017/07/27 21:00:09,13,24.253,9001.206573,17.060368,3.914645,28.11715969,201.6,0,0,1086,1024,1102,1024,0,0,94,4.024,4.058,4.039,4.052,4.052,4.06,6,GPS_Atti,
37.61325447,-119.0211239,8999.566153,15.419948,0.3131716,26.64836043,26400,2017/07/27 21:00:10,13,24.253,9001.206573,17.060368,3.914645,28.11715969,201.7,0,0,1088,1024,1100,1024,0,0,94,4.024,4.058,4.039,4.052,4.052,4.06,6,GPS_Atti,
37.61325451,-119.0211243,8999.566153,15.419948,0.223694,26.72221214,26500,2017/07/27 21:00:10,13,24.253,9001.206573,17.060368,3.914645,28.11715969,201.7,0,0,1095,1024,1100,1024,0,0,94,4.024,4.058,4.039,4.052,4.052,4.06,6,GPS_Atti,
37.61325452,-119.0211247,8999.238069,15.091864,0.223694,26.80849823,26600,2017/07/27 21:00:10,13,24.253,9001.206573,17.060368,3.914645,28.11715969,201.9,0,0,1100,1024,1100,1024,0,0,94,4.024,4.058,4.039,4.052,4.052,4.06,6,GPS_Atti,
37.61325446,-119.0211251,8999.238069,15.091864,0.223694,26.91079482,26700,2017/07/27 21:00:10,13,24.253,9001.206573,17.060368,3.914645,28.11715969,202.1,0,0,1097,1024,1103,1024,0,0,94,4.024,4.058,4.039,4.052,4.052,4.06,6,GPS_Atti,
37.61325432,-119.0211255,8999.238069,15.091864,0.3131716,27.03008617,26800,2017/07/27 21:00:10,13,24.353,9001.206573,17.060368,3.914645,28.11715969,202.1,0,0,1094,1024,1103,1024,0,0,93,4.037,4.077,4.045,4.071,4.056,4.063,6,GPS_Atti,
37.61325412,-119.0211259,8998.909985,14.76378,0.3131716,27.16689719,26900,2017/07/27 21:00:10,13,24.353,9001.206573,17.060368,3.914645,28.11715969,201.8,0,0,1089,1024,1103,1024,0,0,93,4.037,4.077,4.045,4.071,4.056,4.063,6,GPS_Atti,
37.61325387,-119.0211264,8998.909985,14.76378,0.4921268,27.31866885,27000,2017/07/27 21:00:10,13,24.353,9001.206573,17.060368,3.914645,28.11715969,201.4,0,0,1090,1024,1102,1024,0,0,93,4.037,4.077,4.045,4.071,4.056,4.063,6,GPS_Atti,
37.61325351,-119.0211267,8998.909985,14.76378,0.7158208,27.49035521,27100,2017/07/27 21:00:10,13,24.353,9001.206573,17.060368,3.914645,28.11715969,201.1,0,0,1093,1024,1100,1024,0,0,93,4.037,4.077,4.045,4.071,4.056,4.063,6,GPS_Atti,
37.61325309,-119.0211271,8998.909985,14.76378,0.7158208,27.67395102,27200,2017/07/27 21:00:10,13,24.353,9001.206573,17.060368,3.914645,28.11715969,201.1,0,0,1095,1024,1101,1024,0,0,93,4.037,4.077,4.045,4.071,4.056,4.063,6,GPS_Atti,
37.61325265,-119.0211275,8998.909985,14.76378,0.7158208,27.86719249,27300,2017/07/27 21:00:10,13,24.353,9001.206573,17.060368,3.914645,28.11715969,201.3,0,0,1091,1024,1098,1024,0,0,93,4.037,4.077,4.045,4.071,4.056,4.063,6,GPS_Atti,
37.61325218,-119.021128,8998.909985,14.76378,1.006623,28.07864263,27400,2017/07/27 21:00:11,13,24.353,9001.206573,17.060368,3.914645,28.11715969,201.2,0,0,1087,1024,1083,1024,0,0,93,4.037,4.077,4.045,4.071,4.056,4.063,6,GPS_Atti,
37.61325171,-119.0211285,8998.909985,14.76378,1.006623,28.3089576,27500,2017/07/27 21:00:11,13,24.353,9001.206573,17.060368,3.914645,28.3089576,201,0,0,1084,1024,1078,1024,0,0,93,4.037,4.077,4.045,4.071,4.056,4.063,6,GPS_Atti,
37.61325122,-119.0211291,8998.909985,14.76378,1.11847,28.55219908,27600,2017/07/27 21:00:11,13,24.353,9001.206573,17.060368,3.914645,28.55219908,200.7,0,0,1087,1024,1077,1024,0,0,93,4.037,4.077,4.045,4.071,4.056,4.063,6,GPS_Atti,
37.61325072,-119.0211296,8998.909985,14.76378,1.11847,28.80114922,27700,2017/07/27 21:00:11,13,24.353,9001.206573,17.060368,3.914645,28.80114922,200.5,0,0,1086,1024,1076,1024,0,0,93,4.037,4.077,4.045,4.071,4.056,4.063,6,GPS_Atti,
37.61325019,-119.0211303,8998.909985,14.76378,1.11847,29.05987626,27800,2017/07/27 21:00:11,13,24.222,9001.206573,17.060368,3.914645,29.05987626,200.5,0,0,1086,1024,1076,1024,0,0,93,4.024,4.053,4.031,4.042,4.063,4.043,6,GPS_Atti,
37.61324965,-119.0211309,8998.909985,14.76378,1.2974252,29.32155606,27900,2017/07/27 21:00:11,13,24.222,9001.206573,17.060368,3.914645,29.32155606,200.5,0,0,1079,1024,1074,1024,0,0,93,4.024,4.053,4.031,4.042,4.063,4.043,6,GPS_Atti,
37.61324908,-119.0211314,8998.909985,14.76378,1.2974252,29.58884609,28000,2017/07/27 21:00:11,13,24.222,9001.206573,17.060368,3.914645,29.58884609,200.5,0,0,1073,1024,1073,1024,0,0,93,4.024,4.053,4.031,4.042,4.063,4.043,6,GPS_Atti,
37.61324855,-119.021132,8998.909985,14.76378,1.2974252,29.84875424,28100,2017/07/27 21:00:11,13,24.222,9001.206573,17.060368,3.914645,29.84875424,200.6,0,0,1073,1024,1074,1024,0,0,93,4.024,4.053,4.031,4.042,4.063,4.043,6,GPS_Atti,
37.61324802,-119.0211327,8998.909985,14.76378,1.2974252,30.10784217,28200,2017/07/27 21:00:11,13,24.222,9001.206573,17.060368,3.914645,30.10784217,200.8,0,0,1067,1024,1072,1024,0,0,93,4.024,4.053,4.031,4.042,4.063,4.043,6,GPS_Atti,
37.61324747,-119.0211332,8999.238069,15.091864,1.2974252,30.37336055,28300,2017/07/27 21:00:11,13,24.222,9001.206573,17.060368,3.914645,30.37336055,200.9,0,0,1050,1024,1070,1024,0,0,93,4.024,4.053,4.031,4.042,4.063,4.043,6,GPS_Atti,
37.61324691,-119.0211339,8999.566153,15.419948,1.2974252,30.64012565,28400,2017/07/27 21:00:12,13,24.222,9001.206573,17.060368,3.914645,30.64012565,201,0,0,1033,1060,1051,1024,0,0,93,4.024,4.053,4.031,4.042,4.063,4.043,6,GPS_Atti,
37.61324638,-119.0211344,8999.566153,15.419948,1.11847,30.89475164,28500,2017/07/27 21:00:12,13,24.222,9001.206573,17.060368,3.914645,30.89475164,201,0,0,1024,1102,1040,1024,0,0,93,4.024,4.053,4.031,4.042,4.063,4.043,6,GPS_Atti,
37.61324588,-119.021135,8999.894237,15.748032,1.11847,31.13353118,28600,2017/07/27 21:00:12,13,24.222,9001.206573,17.060368,3.914645,31.13353118,200.9,0,0,1024,1112,1040,1024,0,0,93,4.024,4.053,4.031,4.042,4.063,4.043,6,GPS_Atti,
37.61324547,-119.0211355,8999.894237,15.748032,0.9395148,31.346064,28700,2017/07/27 21:00:12,13,24.222,9001.206573,17.060368,3.914645,31.346064,201,0,0,1024,1112,1041,1024,0,0,93,4.024,4.053,4.031,4.042,4.063,4.043,6,GPS_Atti,
37.61324511,-119.021136,9000.222321,16.076116,0.9395148,31.54383303,28800,2017/07/27 21:00:12,13,24.196,9001.206573,17.060368,3.914645,31.54383303,201.4,0,0,1024,1104,1042,1024,0,0,93,4.009,4.027,4.022,4.04,4.058,4.03,6,GPS_Atti,
37.61324476,-119.0211365,9000.222321,16.076116,0.8052984,31.72877398,28900,2017/07/27 21:00:12,13,24.196,9001.206573,17.060368,3.914645,31.72877398,201.7,0,0,1024,1103,1043,1024,0,0,93,4.009,4.027,4.022,4.04,4.058,4.03,6,GPS_Atti,
37.61324444,-119.0211369,9000.222321,16.076116,0.8052984,31.90282254,29000,2017/07/27 21:00:12,13,24.196,9001.206573,17.060368,3.914645,31.90282254,202.2,0,0,1024,1112,1046,1024,0,0,93,4.009,4.027,4.022,4.04,4.058,4.03,6,GPS_Atti,
37.61324416,-119.0211374,9000.222321,16.076116,0.7158208,32.06561782,29100,2017/07/27 21:00:12,13,24.196,9001.206573,17.060368,3.914645,32.06561782,202.5,0,0,1024,1112,1046,1024,0,0,93,4.009,4.027,4.022,4.04,4.058,4.03,6,GPS_Atti,
37.61324393,-119.0211378,9000.222321,16.076116,0.7158208,32.21850497,29200,2017/07/27 21:00:12,13,24.196,9001.206573,17.060368,3.914645,32.21850497,202.6,0,0,1024,1113,1048,1024,0,0,93,4.009,4.027,4.022,4.04,4.058,4.03,6,GPS_Atti,
37.61324377,-119.0211383,9000.222321,16.076116,0.894776,32.35013227,29300,2017/07/27 21:00:13,13,24.196,9001.206573,17.060368,3.914645,32.35013227,202.6,0,0,1024,1119,1057,1024,0,0,93,4.009,4.027,4.022,4.04,4.058,4.03,6,GPS_Atti,
37.61324368,-119.0211387,9000.222321,16.076116,0.894776,32.46775038,29400,2017/07/27 21:00:13,13,24.196,9001.206573,17.060368,3.914645,32.46775038,202.2,0,0,1024,1125,1057,1024,0,0,93,4.009,4.027,4.022,4.04,4.058,4.03,6,GPS_Atti,
37.61324362,-119.0211391,9000.222321,16.076116,0.894776,32.57336062,29500,2017/07/27 21:00:13,13,24.196,9001.206573,17.060368,3.914645,32.57336062,201.6,0,0,1024,1124,1057,1024,0,0,93,4.009,4.027,4.022,4.04,4.058,4.03,6,GPS_Atti,
37.61324359,-119.0211395,9000.222321,16.076116,0.9171454,32.66401023,29600,2017/07/27 21:00:13,13,24.196,9001.206573,17.060368,3.914645,32.66401023,201.3,0,0,1024,1122,1058,1024,0,0,93,4.009,4.027,4.022,4.04,4.058,4.03,6,GPS_Atti,
37.61324367,-119.0211399,9000.550405,16.4042,0.8052984,32.72175302,29700,2017/07/27 21:00:13,13,24.196,9001.206573,17.060368,3.914645,32.72175302,201.1,0,0,1024,1106,1058,1024,0,0,93,4.009,4.027,4.022,4.04,4.058,4.03,6,GPS_Atti,
37.61324382,-119.0211403,9000.550405,16.4042,1.006623,32.76368215,29800,2017/07/27 21:00:13,13,24.176,9001.206573,17.060368,3.914645,32.76368215,201.2,0,0,1044,1063,1059,1024,0,0,93,4.022,4.057,4.048,4.042,4.061,4.03,6,GPS_Atti,
37.61324401,-119.0211406,9000.550405,16.4042,1.11847,32.77772415,29900,2017/07/27 21:00:13,13,24.176,9001.206573,17.060368,3.914645,32.77772415,201.3,0,0,1073,1024,1058,1024,0,0,93,4.022,4.057,4.048,4.042,4.061,4.03,6,GPS_Atti,
37.61324425,-119.0211409,9000.550405,16.4042,1.11847,32.77883963,30000,2017/07/27 21:00:13,13,24.176,9001.206573,17.060368,3.914645,32.77883963,201.4,0,0,1092,1024,1057,1024,0,0,93,4.022,4.057,4.048,4.042,4.061,4.03,6,GPS_Atti,
37.61324453,-119.0211412,9000.878489,16.732284,0.9395148,32.77404961,30100,2017/07/27 21:00:13,13,24.176,9001.206573,17.060368,3.914645,32.77883963,201.4,0,0,1092,1024,1056,1024,0,0,93,4.022,4.057,4.048,4.042,4.061,4.03,6,GPS_Atti,
37.61324479,-119.0211414,9000.878489,16.732284,0.9395148,32.7591874,30200,2017/07/27 21:00:13,13,24.176,9001.206573,17.060368,3.914645,32.77883963,201.6,0,0,1092,1024,1056,1024,0,0,93,4.022,4.057,4.048,4.042,4.061,4.03,6,GPS_Atti,
37.61324502,-119.0211416,9000.878489,16.732284,0.8052984,32.73602467,30300,2017/07/27 21:00:14,13,24.176,9001.206573,17.060368,3.914645,32.77883963,201.7,0,0,1088,1024,1057,1024,0,0,93,4.022,4.057,4.048,4.042,4.061,4.03,6,GPS_Atti,
37.61324523,-119.0211417,9000.878489,16.732284,0.6263432,32.71236981,30400,2017/07/27 21:00:14,13,24.176,9001.206573,17.060368,3.914645,32.77883963,201.5,0,0,1090,1024,1057,1024,0,0,93,4.022,4.057,4.048,4.042,4.061,4.03,6,GPS_Atti,
37.61324558,-119.021142,9000.878489,16.732284,0.6263432,32.70196955,30600,2017/07/27 21:00:14,13,24.176,9001.206573,17.060368,3.914645,32.77883963,201,0,0,1087,1024,1056,1024,0,0,93,4.022,4.057,4.048,4.042,4.061,4.03,6,GPS_Atti,
37.61324573,-119.0211422,9000.878489,16.732284,0.4921268,32.69691706,30700,2017/07/27 21:00:14,13,24.176,9001.206573,17.060368,3.914645,32.77883963,200.6,0,0,1087,1024,1056,1024,0,0,93,4.022,4.057,4.048,4.042,4.061,4.03,6,GPS_Atti,
37.61324586,-119.0211423,9000.878489,16.732284,0.3131716,32.69156929,30800,2017/07/27 21:00:14,13,24.176,9001.206573,17.060368,3.914645,32.77883963,200.3,0,0,1072,1024,1058,1024,0,0,93,4.022,4.057,4.048,4.042,4.061,4.03,6,GPS_Atti,
37.61324596,-119.0211424,9000.878489,16.732284,0.223694,32.68943674,30900,2017/07/27 21:00:14,13,24.374,9001.206573,17.060368,3.914645,32.77883963,200.2,0,0,1040,1024,1060,1024,0,0,93,4.043,4.062,4.048,4.053,4.061,4.053,6,GPS_Atti,
37.61324604,-119.0211425,9000.878489,16.732284,0.223694,32.68159553,31000,2017/07/27 21:00:14,13,24.374,9001.206573,17.060368,3.914645,32.77883963,200.4,0,0,1035,1024,1059,1024,0,0,93,4.043,4.062,4.048,4.053,4.061,4.053,6,GPS_Atti,
37.61324615,-119.0211425,9000.878489,16.732284,0.223694,32.66515853,31100,2017/07/27 21:00:14,13,24.374,9001.206573,17.060368,3.914645,32.77883963,200.7,0,0,1035,1024,1058,1024,0,0,93,4.043,4.062,4.048,4.053,4.061,4.053,6,GPS_Atti,
