latitude,longitude,altitude(feet),ascent(feet),speed(mph),distance(feet),time(millisecond),datetime(utc),satellites,voltage(v),max_altitude(feet),max_ascent(feet),max_speed(mph),max_distance(feet),compass_heading(degrees),isPhoto,isVideo,rc_elevator,rc_aileron,rc_throttle,rc_rudder,gimbal_heading(degrees),gimbal_pitch(degrees),battery_percent,voltageCell1,voltageCell2,voltageCell3,voltageCell4,voltageCell5,voltageCell6,flycStateRaw,flycState,message
37.613318,-119.020975,9011.172756,27.56000744,4.720010508,0,210,2017/07/27 21:17:06,14,0,9011.172756,27.56000744,4.720010508,0,283.5,0,0,1024,1024,1024,1024,0,0,97,3.964,4.004,3.994,3.978,0,0,17,Joystick,
37.613318,-119.020972,9011.172756,27.56000744,4.720010508,0.867043991,350,2017/07/27 21:17:06,14,0,9011.172756,27.56000744,4.720010508,0.867043991,283.8,0,0,1024,1024,1024,1024,0,0,97,3.964,4.004,3.994,3.978,0,0,17,Joystick,
37.613317,-119.020967,9010.842736,27.22998775,4.720010508,2.340725141,490,2017/07/27 21:17:06,14,0,9011.172756,27.56000744,4.720010508,2.340725141,284.4,0,0,1024,1024,1024,1024,0,0,97,3.964,4.004,3.994,3.978,0,0,17,Joystick,
37.613316,-119.020964,9010.842736,27.22998775,4.720010508,3.261827532,660,2017/07/27 21:17:06,14,0,9011.172756,27.56000744,4.720010508,3.261827532,284.6,0,0,1024,1024,1024,1024,0,0,97,3.964,4.004,3.994,3.978,0,0,17,Joystick,
37.613316,-119.020958,9010.842736,27.22998775,4.940013557,4.967126143,840,2017/07/27 21:17:06,14,0,9011.172756,27.56000744,4.940013557,4.967126143,284.6,0,0,1024,1024,1024,1024,0,0,97,3.964,4.004,3.994,3.978,0,0,17,Joystick,
37.613315,-119.020956,9010.512749,26.90000086,4.940013557,5.599311203,950,2017/07/27 21:17:06,14,0,9011.172756,27.56000744,4.940013557,5.599311203,284.6,0,0,1024,1024,1024,1024,0,0,97,3.964,4.004,3.994,3.978,0,0,17,Joystick,
37.613315,-119.020953,9010.512749,26.90000086,4.970010923,6.451837477,1060,2017/07/27 21:17:07,14,0,9011.172756,27.56000744,4.970010923,6.451837477,284.5,0,0,1024,1024,1024,1024,0,0,97,3.964,4.004,3.994,3.978,0,0,17,Joystick,
37.613315,-119.02095,9010.512749,26.90000086,4.750007874,7.307808633,1170,2017/07/27 21:17:07,14,0,9011.172756,27.56000744,4.970010923,7.307808633,284.4,0,0,1024,1024,1024,1024,0,0,97,3.964,4.004,3.994,3.978,0,0,17,Joystick,
37.613314,-119.020945,9010.182762,26.57001397,4.390017119,8.792388733,1290,2017/07/27 21:17:07,14,0,9011.172756,27.56000744,4.970010923,8.792388733,284.8,0,0,1024,1024,1024,1024,0,0,97,3.964,4.004,3.994,3.978,0,0,17,Joystick,
37.613313,-119.020943,9010.182762,26.57001397,4.030003996,9.42667353,1470,2017/07/27 21:17:07,14,0,9011.172756,27.56000744,4.970010923,9.42667353,285.1,0,0,1024,1024,1024,1024,0,0,97,3.964,4.004,3.994,3.978,0,0,17,Joystick,
37.613312,-119.020941,9010.182762,26.57001397,3.410013705,10.06738877,1590,2017/07/27 21:17:07,14,0,9011.172756,27.56000744,4.970010923,10.06738877,284.4,0,0,1024,1024,1024,1024,0,0,97,3.964,4.004,3.994,3.978,0,0,17,Joystick,
37.613311,-119.020938,9010.182762,26.57001397,1.910002271,10.99429169,1700,2017/07/27 21:17:07,14,0,9011.172756,27.56000744,4.970010923,10.99429169,283.7,0,0,1024,1024,1024,1024,0,0,97,3.964,4.004,3.994,3.978,0,0,17,Joystick,
37.613311,-119.020937,9010.512749,26.90000086,1.200001989,11.27559091,1830,2017/07/27 21:17:07,14,0,9011.172756,27.56000744,4.970010923,11.27559091,283.9,0,0,1024,1024,1024,1024,0,0,97,3.964,4.004,3.994,3.978,0,0,17,Joystick,
37.613311,-119.020937,9010.512749,26.90000086,0.670001558,11.27559091,2000,2017/07/27 21:17:07,14,23.906,9011.172756,27.56000744,4.970010923,11.27559091,284.3,0,0,1024,1024,1024,1024,0,0,97,3.964,4.004,3.994,3.978,0,0,17,Joystick,
37.613312,-119.020936,9010.842736,27.22998775,0.220000365,11.48218541,2100,2017/07/27 21:17:08,14,23.906,9011.172756,27.56000744,4.970010923,11.48218541,285.5,0,0,1024,1024,1024,1024,0,0,97,3.964,4.004,3.994,3.978,0,0,17,Joystick,
37.613312,-119.020936,9010.842736,27.22998775,0.500000829,11.48218541,2280,2017/07/27 21:17:08,14,23.906,9011.172756,27.56000744,4.970010923,11.48218541,286.1,0,0,1024,1024,1024,1024,0,0,97,3.964,4.004,3.994,3.978,0,0,17,Joystick,
37.613312,-119.020936,9011.172756,27.56000744,1.000001658,11.48218541,2380,2017/07/27 21:17:08,14,23.906,9011.172756,27.56000744,4.970010923,11.48218541,286.6,0,0,1024,1024,1024,1024,0,0,97,3.964,4.004,3.994,3.978,0,0,17,Joystick,
37.613313,-119.020936,9011.172756,27.56000744,1.300002155,11.41824184,2490,2017/07/27 21:17:08,14,23.906,9011.172756,27.56000744,4.970010923,11.48218541,287.2,0,0,1024,1024,1024,1024,0,0,97,3.964,4.004,3.994,3.978,0,0,17,Joystick,
37.613313,-119.020937,9011.172756,27.56000744,1.500002486,11.13303841,2600,2017/07/27 21:17:08,14,23.906,9011.172756,27.56000744,4.970010923,11.48218541,287.7,0,0,1024,1024,1024,1024,0,0,97,3.964,4.004,3.994,3.978,0,0,17,Joystick,
37.613314,-119.020937,9011.172756,27.56000744,1.800002984,11.0791014,2700,2017/07/27 21:17:08,14,23.906,9011.172756,27.56000744,4.970010923,11.48218541,288,0,0,1024,1024,1024,1024,0,0,97,3.964,4.004,3.994,3.978,0,0,17,Joystick,
37.613315,-119.020939,9011.502743,27.88999433,2.200003647,10.46194259,2830,2017/07/27 21:17:08,14,23.906,9011.502743,27.88999433,4.970010923,11.48218541,288.3,0,0,1024,1024,1024,1024,0,0,97,3.964,4.004,3.994,3.978,0,0,17,Joystick,
37.613316,-119.02094,9011.502743,27.88999433,2.410012048,10.14179822,3010,2017/07/27 21:17:09,14,23.697,9011.502743,27.88999433,4.970010923,11.48218541,288.3,0,0,1024,1024,1024,1024,0,0,97,3.964,4.004,3.994,3.978,0,0,17,Joystick,
37.613316,-119.020941,9011.502743,27.88999433,2.619993606,9.853543622,3120,2017/07/27 21:17:09,14,23.697,9011.502743,27.88999433,4.970010923,11.48218541,288.2,0,0,1024,1024,1024,1024,0,0,97,3.964,4.004,3.994,3.978,0,0,17,Joystick,
37.613317,-119.020942,9011.502743,27.88999433,2.910012877,9.544455686,3210,2017/07/27 21:17:09,14,23.697,9011.502743,27.88999433,4.970010923,11.48218541,288.2,0,0,1024,1024,1024,1024,0,0,97,3.964,4.004,3.994,3.978,0,0,17,Joystick,
37.613319,-119.020945,9011.832762,28.22001403,3.329998362,8.678117076,3360,2017/07/27 21:17:09,14,23.697,9011.832762,28.22001403,4.970010923,11.48218541,288,0,0,1024,1024,1024,1024,0,0,97,3.964,4.004,3.994,3.978,0,0,17,Joystick,
37.61332,-119.020947,9011.832762,28.22001403,3.609996141,8.125229919,3520,2017/07/27 21:17:09,14,23.697,9011.832762,28.22001403,4.970010923,11.48218541,287.9,0,0,1024,1024,1024,1024,0,0,97,3.964,4.004,3.994,3.978,0,0,17,Joystick,
37.613321,-119.020949,9011.832762,28.22001403,3.609996141,7.593668222,3620,2017/07/27 21:17:09,14,23.697,9011.832762,28.22001403,4.970010923,11.48218541,287.7,0,0,1024,1024,1024,1024,0,0,97,3.964,4.004,3.994,3.978,0,0,17,Joystick,
37.613322,-119.020953,9012.152743,28.53999435,4.030003996,6.523655064,3810,2017/07/27 21:17:09,14,23.697,9012.152743,28.53999435,4.970010923,11.48218541,286.9,0,0,1024,1024,1024,1024,0,0,97,3.964,4.004,3.994,3.978,0,0,17,Joystick,
37.613324,-119.020957,9011.832762,28.22001403,4.180013192,5.644094669,3930,2017/07/27 21:17:09,14,23.697,9012.152743,28.53999435,4.970010923,11.48218541,285.6,0,0,1024,1024,1024,1024,0,0,97,3.964,4.004,3.994,3.978,0,0,17,Joystick,
37.613325,-119.02096,9011.832762,28.22001403,4.390017119,5.031561841,4080,2017/07/27 21:17:10,14,23.697,9012.152743,28.53999435,4.970010923,11.48218541,284.9,0,0,1024,1024,1024,1024,0,0,97,3.964,4.004,3.994,3.978,0,0,17,Joystick,
37.613326,-119.020965,9011.502743,27.88999433,4.56000219,4.107578872,4230,2017/07/27 21:17:10,14,23.697,9012.152743,28.53999435,4.970010923,11.48218541,283.5,0,0,1024,1024,1024,1024,0,0,97,3.964,4.004,3.994,3.978,0,0,17,Joystick,
37.613328,-119.02097,9011.172756,27.56000744,5.000008288,3.924245532,4360,2017/07/27 21:17:10,14,23.697,9012.152743,28.53999435,5.000008288,11.48218541,282.2,0,0,1024,1024,1024,1024,0,0,97,3.964,4.004,3.994,3.978,0,0,17,Joystick,
37.613328,-119.020973,9011.172756,27.56000744,5.000008288,3.693996181,4540,2017/07/27 21:17:10,14,23.697,9012.152743,28.53999435,5.000008288,11.48218541,281.6,0,0,1024,1024,1024,1024,0,0,97,3.964,4.004,3.994,3.978,0,0,17,Joystick,
37.613329,-119.020976,9011.172756,27.56000744,4.970010923,4.023720601,4640,2017/07/27 21:17:10,14,23.697,9012.152743,28.53999435,5.000008288,11.48218541,281.1,0,0,1024,1024,1024,1024,0,0,97,3.964,4.004,3.994,3.978,0,0,17,Joystick,
37.61333,-119.020982,9011.172756,27.56000744,5.190013972,4.82303165,4740,2017/07/27 21:17:10,14,23.697,9012.152743,28.53999435,5.190013972,11.48218541,280.4,0,0,1024,1024,1024,1024,0,0,97,3.964,4.004,3.994,3.978,0,0,17,Joystick,
37.613331,-119.020988,9011.172756,27.56000744,5.410017021,6.050853212,4990,2017/07/27 21:17:10,14,23.929,9012.152743,28.53999435,5.410017021,11.48218541,280.3,0,0,1024,1024,1024,1024,0,0,96,3.964,4.004,3.994,3.978,0,0,17,Joystick,
37.613332,-119.020992,9011.172756,27.56000744,5.410017021,7.087368993,5150,2017/07/27 21:17:11,14,23.929,9012.152743,28.53999435,5.410017021,11.48218541,280.4,0,0,1024,1024,1024,1024,0,0,96,3.964,4.004,3.994,3.978,0,0,17,Joystick,
37.613333,-119.020998,9011.172756,27.56000744,5.410017021,8.610334921,5260,2017/07/27 21:17:11,14,23.929,9012.152743,28.53999435,5.410017021,11.48218541,280.8,0,0,1024,1024,1024,1024,0,0,96,3.964,4.004,3.994,3.978,0,0,17,Joystick,
37.613333,-119.021001,9011.172756,27.56000744,5.410017021,9.29606329,5440,2017/07/27 21:17:11,14,23.929,9012.152743,28.53999435,5.410017021,11.48218541,281,0,0,1024,1024,1024,1024,0,0,96,3.964,4.004,3.994,3.978,0,0,17,Joystick,
37.613334,-119.021005,9011.172756,27.56000744,5.390018777,10.45246096,5570,2017/07/27 21:17:11,14,23.929,9012.152743,28.53999435,5.410017021,11.48218541,281.2,0,0,1024,1024,1024,1024,0,0,96,3.964,4.004,3.994,3.978,0,0,17,Joystick,
37.613334,-119.021011,9011.502743,27.88999433,5.390018777,11.93028253,5670,2017/07/27 21:17:11,14,23.929,9012.152743,28.53999435,5.410017021,11.93028253,281.5,0,0,1024,1024,1024,1024,0,0,96,3.964,4.004,3.994,3.978,0,0,17,Joystick,
37.613335,-119.021014,9011.502743,27.88999433,5.390018777,12.86538755,5800,2017/07/27 21:17:11,14,23.929,9012.152743,28.53999435,5.410017021,12.86538755,281.5,0,0,1024,1024,1024,1024,0,0,96,3.964,4.004,3.994,3.978,0,0,17,Joystick,
37.613335,-119.021017,9011.502743,27.88999433,5.390018777,13.63143088,5930,2017/07/27 21:17:11,14,23.929,9012.152743,28.53999435,5.410017021,13.63143088,281.4,0,0,1024,1024,1024,1024,0,0,96,3.964,4.004,3.994,3.978,0,0,17,Joystick,
37.613335,-119.02102,9011.502743,27.88999433,5.369998164,14.40892435,6050,2017/07/27 21:17:12,14,23.777,9012.152743,28.53999435,5.410017021,14.40892435,281.3,0,0,1024,1024,1024,1024,0,0,96,3.944,3.976,3.973,3.96,0,0,17,Joystick,
37.613336,-119.021023,9011.502743,27.88999433,5.369998164,15.34865535,6160,2017/07/27 21:17:12,14,23.777,9012.152743,28.53999435,5.410017021,15.34865535,281.1,0,0,1024,1024,1024,1024,0,0,96,3.944,3.976,3.973,3.96,0,0,17,Joystick,
37.613336,-119.021029,9011.502743,27.88999433,5.150017484,16.9322512,6270,2017/07/27 21:17:12,14,23.777,9012.152743,28.53999435,5.410017021,16.9322512,280.5,0,0,1024,1024,1024,1024,0,0,96,3.944,3.976,3.973,3.96,0,0,17,Joystick,
37.613336,-119.021032,9011.502743,27.88999433,5.150017484,17.73461343,6370,2017/07/27 21:17:12,14,23.777,9012.152743,28.53999435,5.410017021,17.73461343,280.4,0,0,1024,1024,1024,1024,0,0,96,3.944,3.976,3.973,3.96,0,0,17,Joystick,
37.613337,-119.021035,9011.502743,27.88999433,5.150017484,18.67513183,6480,2017/07/27 21:17:12,14,23.777,9012.152743,28.53999435,5.410017021,18.67513183,280.4,0,0,1024,1024,1024,1024,0,0,96,3.944,3.976,3.973,3.96,0,0,17,Joystick,
37.613337,-119.021038,9011.502743,27.88999433,5.150017484,19.48287464,6580,2017/07/27 21:17:12,14,23.777,9012.152743,28.53999435,5.410017021,19.48287464,280.5,0,0,1024,1024,1024,1024,0,0,96,3.944,3.976,3.973,3.96,0,0,17,Joystick,
37.613337,-119.021041,9011.832762,28.22001403,5.150017484,20.29553871,6700,2017/07/27 21:17:12,14,23.777,9012.152743,28.53999435,5.410017021,20.29553871,280.6,0,0,1024,1024,1024,1024,0,0,96,3.944,3.976,3.973,3.96,0,0,17,Joystick,
37.613337,-119.021044,9011.832762,28.22001403,4.930014435,21.11250068,6880,2017/07/27 21:17:12,14,23.777,9012.152743,28.53999435,5.410017021,21.11250068,280.6,0,0,1024,1024,1024,1024,0,0,96,3.944,3.976,3.973,3.96,0,0,17,Joystick,
37.613337,-119.021047,9012.152743,28.53999435,4.920015314,21.93333404,6980,2017/07/27 21:17:12,14,23.908,9012.152743,28.53999435,5.410017021,21.93333404,280.6,0,0,1024,1024,1024,1024,0,0,96,3.944,3.976,3.973,3.96,0,0,17,Joystick,
37.613337,-119.021052,9011.832762,28.22001403,4.920015314,23.30882621,7090,2017/07/27 21:17:13,14,23.908,9012.152743,28.53999435,5.410017021,23.30882621,280.7,0,0,1024,1024,1024,1024,0,0,96,3.944,3.976,3.973,3.96,0,0,17,Joystick,
37.613337,-119.021055,9012.152743,28.53999435,4.920015314,24.1379929,7240,2017/07/27 21:17:13,14,23.908,9012.152743,28.53999435,5.410017021,24.1379929,280.9,0,0,1024,1024,1024,1024,0,0,96,3.944,3.976,3.973,3.96,0,0,17,Joystick,
37.613338,-119.021061,9012.152743,28.53999435,4.700012265,25.90423311,7400,2017/07/27 21:17:13,14,23.908,9012.152743,28.53999435,5.410017021,25.90423311,281.4,0,0,1024,1024,1024,1024,0,0,96,3.944,3.976,3.973,3.96,0,0,17,Joystick,
37.613338,-119.021063,9012.152743,28.53999435,4.700012265,26.45935124,7510,2017/07/27 21:17:13,14,23.908,9012.152743,28.53999435,5.410017021,26.45935124,281.7,0,0,1024,1024,1024,1024,0,0,96,3.944,3.976,3.973,3.96,0,0,17,Joystick,
37.613338,-119.021066,9012.152743,28.53999435,4.470010094,27.29383289,7690,2017/07/27 21:17:13,14,23.908,9012.152743,28.53999435,5.410017021,27.29383289,282.1,0,0,1024,1024,1024,1024,0,0,96,3.944,3.976,3.973,3.96,0,0,17,Joystick,
37.613338,-119.021068,9011.832762,28.22001403,4.470010094,27.85124761,7810,2017/07/27 21:17:13,14,23.908,9012.152743,28.53999435,5.410017021,27.85124761,282.6,0,0,1024,1024,1024,1024,0,0,96,3.944,3.976,3.973,3.96,0,0,17,Joystick,
37.613338,-119.021073,9011.832762,28.22001403,4.250007045,29.2482949,7960,2017/07/27 21:17:13,14,23.908,9012.152743,28.53999435,5.410017021,29.2482949,283.6,0,0,1024,1024,1024,1024,0,0,96,3.944,3.976,3.973,3.96,0,0,17,Joystick,
37.613338,-119.021078,9011.832762,28.22001403,4.250007045,30.64980413,8100,2017/07/27 21:17:14,14,23.908,9012.152743,28.53999435,5.410017021,30.64980413,284.7,0,0,1024,1024,1024,1024,0,0,96,3.944,3.976,3.973,3.96,0,0,17,Joystick,
37.613338,-119.02108,9011.832762,28.22001403,4.030003996,31.21151675,8230,2017/07/27 21:17:14,14,23.908,9012.152743,28.53999435,5.410017021,31.21151675,285.1,0,0,1024,1024,1024,1024,0,0,96,3.944,3.976,3.973,3.96,0,0,17,Joystick,
37.613338,-119.021083,9011.502743,27.88999433,4.030003996,32.05515194,8410,2017/07/27 21:17:14,14,23.908,9012.152743,28.53999435,5.410017021,32.05515194,285.4,0,0,1024,1024,1024,1024,0,0,96,3.944,3.976,3.973,3.96,0,0,17,Joystick,
37.613338,-119.021087,9011.502743,27.88999433,4.030003996,33.18175959,8520,2017/07/27 21:17:14,14,23.908,9012.152743,28.53999435,5.410017021,33.18175959,285.8,0,0,1024,1024,1024,1024,0,0,96,3.944,3.976,3.973,3.96,0,0,17,Joystick,
37.613337,-119.021089,9011.502743,27.88999433,3.800001825,33.66896433,8660,2017/07/27 21:17:14,14,23.908,9012.152743,28.53999435,5.410017021,33.66896433,286.2,0,0,1024,1024,1024,1024,0,0,96,3.944,3.976,3.973,3.96,0,0,17,Joystick,
37.613337,-119.021094,9011.172756,27.56000744,3.810000947,35.08431871,8770,2017/07/27 21:17:14,14,23.908,9012.152743,28.53999435,5.410017021,35.08431871,286.9,0,0,1024,1024,1024,1024,0,0,96,3.944,3.976,3.973,3.96,0,0,17,Joystick,
37.613337,-119.021096,9011.172756,27.56000744,3.810000947,35.65124786,8910,2017/07/27 21:17:14,14,23.908,9012.152743,28.53999435,5.410017021,35.65124786,287.3,0,0,1024,1024,1024,1024,0,0,96,3.944,3.976,3.973,3.96,0,0,17,Joystick,
37.613337,-119.021098,9010.842736,27.22998775,3.810000947,36.2185051,9030,2017/07/27 21:17:15,14,23.965,9012.152743,28.53999435,5.410017021,36.2185051,287.7,0,0,1024,1024,1024,1024,0,0,96,3.944,3.976,3.973,3.96,0,0,17,Joystick,
37.613337,-119.0211,9010.842736,27.22998775,3.810000947,36.78576233,9140,2017/07/27 21:17:15,14,23.965,9012.152743,28.53999435,5.410017021,36.78576233,288.1,0,0,1024,1024,1024,1024,0,0,96,3.944,3.976,3.973,3.96,0,0,17,Joystick,
37.613337,-119.021102,9010.512749,26.90000086,3.810000947,37.35367574,9250,2017/07/27 21:17:15,14,23.965,9012.152743,28.53999435,5.410017021,37.35367574,288.7,0,0,1024,1024,1024,1024,0,0,96,3.944,3.976,3.973,3.96,0,0,17,Joystick,
37.613336,-119.021106,9010.512749,26.90000086,3.810000947,38.42618233,9390,2017/07/27 21:17:15,14,23.965,9012.152743,28.53999435,5.410017021,38.42618233,290.4,0,0,1024,1024,1024,1024,0,0,96,3.944,3.976,3.973,3.96,0,0,17,Joystick,
37.613336,-119.021108,9010.512749,26.90000086,3.800001825,38.99606424,9540,2017/07/27 21:17:15,14,23.965,9012.152743,28.53999435,5.410017021,38.99606424,291.2,0,0,1024,1024,1024,1024,0,0,96,3.944,3.976,3.973,3.96,0,0,17,Joystick,
37.613336,-119.021111,9010.842736,27.22998775,3.800001825,39.85072306,9650,2017/07/27 21:17:15,14,23.965,9012.152743,28.53999435,5.410017021,39.85072306,291.7,0,0,1024,1024,1024,1024,0,0,96,3.944,3.976,3.973,3.96,0,0,17,Joystick,
37.613336,-119.021115,9010.842736,27.22998775,3.810000947,40.99147113,9760,2017/07/27 21:17:15,14,23.965,9012.152743,28.53999435,5.410017021,40.99147113,292.4,0,0,1024,1024,1024,1024,0,0,96,3.944,3.976,3.973,3.96,0,0,17,Joystick,
37.613335,-119.021119,9010.512749,26.90000086,3.609996141,42.07775725,10030,2017/07/27 21:17:16,14,23.854,9012.152743,28.53999435,5.410017021,42.07775725,293.2,0,0,1024,1024,1024,1024,0,0,96,3.944,3.976,3.973,3.96,0,0,17,Joystick,
37.613335,-119.021121,9010.512749,26.90000086,3.609996141,42.64960766,10160,2017/07/27 21:17:16,14,23.854,9012.152743,28.53999435,5.410017021,42.64960766,293.7,0,0,1024,1024,1024,1024,0,0,96,3.944,3.976,3.973,3.96,0,0,17,Joystick,
37.613335,-119.021125,9010.512749,26.90000086,3.609996141,43.79363657,10300,2017/07/27 21:17:16,14,23.854,9012.152743,28.53999435,5.410017021,43.79363657,295.5,0,0,1024,1024,1024,1024,0,0,96,3.944,3.976,3.973,3.96,0,0,17,Joystick,
37.613334,-119.021127,9010.182762,26.57001397,3.420012827,44.31627438,10470,2017/07/27 21:17:16,14,23.854,9012.152743,28.53999435,5.410017021,44.31627438,296.6,0,0,1024,1024,1024,1024,0,0,96,3.944,3.976,3.973,3.96,0,0,17,Joystick,
37.613334,-119.021129,9010.512749,26.90000086,3.420012827,44.88943713,10570,2017/07/27 21:17:16,13,23.854,9012.152743,28.53999435,5.410017021,44.88943713,298.1,0,0,1024,1024,1024,1024,0,0,96,3.944,3.976,3.973,3.96,0,0,17,Joystick,
37.613333,-119.021133,9010.512749,26.90000086,3.200009778,45.9911432,10750,2017/07/27 21:17:16,14,23.854,9012.152743,28.53999435,5.410017021,45.9911432,301.7,0,0,1024,1024,1024,1024,0,0,96,3.944,3.976,3.973,3.96,0,0,17,Joystick,
37.613333,-119.021134,9010.512749,26.90000086,3.200009778,46.2782167,10870,2017/07/27 21:17:16,14,23.854,9012.152743,28.53999435,5.410017021,46.2782167,303.9,0,0,1024,1024,1024,1024,0,0,96,3.944,3.976,3.973,3.96,0,0,17,Joystick,
37.613332,-119.021138,9011.172756,27.56000744,3.160013291,47.3855002,11020,2017/07/27 21:17:17,14,23.755,9012.152743,28.53999435,5.410017021,47.3855002,309.1,0,0,1024,1024,1024,1024,0,0,96,3.957,3.973,3.942,3.942,0,0,17,Joystick,
37.613332,-119.02114,9011.502743,27.88999433,3.140015047,47.96030337,11180,2017/07/27 21:17:17,14,23.755,9012.152743,28.53999435,5.410017021,47.96030337,312.3,0,0,1024,1024,1024,1024,0,0,96,3.957,3.973,3.942,3.942,0,0,17,Joystick,
37.613332,-119.021143,9012.152743,28.53999435,3.130015926,48.82250812,11280,2017/07/27 21:17:17,14,23.755,9012.152743,28.53999435,5.410017021,48.82250812,318.7,0,0,1024,1024,1024,1024,0,0,96,3.957,3.973,3.942,3.942,0,0,17,Joystick,
37.613332,-119.021145,9012.482762,28.87001405,2.910012877,49.39731129,11380,2017/07/27 21:17:17,14,23.755,9012.482762,28.87001405,5.410017021,49.39731129,321.7,0,0,1024,1024,1024,1024,0,0,96,3.957,3.973,3.942,3.942,0,0,17,Joystick,
37.613332,-119.021146,9012.482762,28.87001405,2.910012877,49.68471288,11560,2017/07/27 21:17:17,14,23.755,9012.482762,28.87001405,5.410017021,49.68471288,324.6,0,0,1024,1024,1024,1024,0,0,96,3.957,3.973,3.942,3.942,0,0,17,Joystick,
37.613333,-119.021148,9012.482762,28.87001405,2.910012877,50.29822996,11690,2017/07/27 21:17:17,14,23.755,9012.482762,28.87001405,5.410017021,50.29822996,327.3,0,0,1024,1024,1024,1024,0,0,96,3.957,3.973,3.942,3.942,0,0,17,Joystick,
37.613333,-119.021151,9012.482762,28.87001405,2.920011998,51.16010662,11830,2017/07/27 21:17:17,14,23.755,9012.482762,28.87001405,5.410017021,51.16010662,331.8,0,0,1024,1024,1024,1024,0,0,96,3.957,3.973,3.942,3.942,0,0,17,Joystick,
37.613332,-119.021153,9012.482762,28.87001405,2.720007193,51.69750822,11990,2017/07/27 21:17:17,14,23.767,9012.482762,28.87001405,5.410017021,51.69750822,333.9,0,0,1024,1024,1024,1024,0,0,96,3.957,3.973,3.942,3.942,0,0,17,Joystick,
37.613332,-119.021154,9012.482762,28.87001405,2.619993606,51.98523788,12090,2017/07/27 21:17:18,14,23.767,9012.482762,28.87001405,5.410017021,51.98523788,336.2,0,0,1024,1024,1024,1024,0,0,96,3.957,3.973,3.942,3.942,0,0,17,Joystick,
37.613332,-119.021156,9012.482762,28.87001405,2.42001117,52.56036914,12200,2017/07/27 21:17:18,14,23.767,9012.482762,28.87001405,5.410017021,52.56036914,338.5,0,0,1024,1024,1024,1024,0,0,96,3.957,3.973,3.942,3.942,0,0,17,Joystick,
37.613331,-119.021157,9012.482762,28.87001405,2.210002769,52.81397807,12300,2017/07/27 21:17:18,14,23.767,9012.482762,28.87001405,5.410017021,52.81397807,340.7,0,0,1024,1024,1024,1024,0,0,96,3.957,3.973,3.942,3.942,0,0,17,Joystick,
37.613329,-119.021158,9012.482762,28.87001405,2.120003962,53.04166836,12470,2017/07/27 21:17:18,13,23.767,9012.482762,28.87001405,5.410017021,53.04166836,344.9,0,0,1024,1024,1024,1024,0,0,96,3.957,3.973,3.942,3.942,0,0,17,Joystick,
37.613328,-119.021159,9012.152743,28.53999435,2.280001095,53.30380748,12610,2017/07/27 21:17:18,13,23.767,9012.482762,28.87001405,5.410017021,53.30380748,347,0,0,1024,1024,1024,1024,0,0,96,3.957,3.973,3.942,3.942,0,0,17,Joystick,
37.613327,-119.021159,9011.832762,28.22001403,2.240004608,53.27985735,12710,2017/07/27 21:17:18,13,23.767,9012.482762,28.87001405,5.410017021,53.30380748,349,0,0,1024,1024,1024,1024,0,0,96,3.957,3.973,3.942,3.942,0,0,17,Joystick,
37.613325,-119.021159,9010.842736,27.22998775,2.549999753,53.2398311,12820,2017/07/27 21:17:18,13,23.767,9012.482762,28.87001405,5.410017021,53.30380748,352.9,0,0,1024,1024,1024,1024,0,0,96,3.957,3.973,3.942,3.942,0,0,17,Joystick,
37.613324,-119.021159,9010.842736,27.22998775,2.700008949,53.22375498,13000,2017/07/27 21:17:19,14,23.854,9012.482762,28.87001405,5.410017021,53.30380748,354.7,0,0,1024,1024,1024,1024,0,0,95,3.957,3.973,3.942,3.942,0,0,17,Joystick,
37.613323,-119.021158,9010.842736,27.22998775,2.859994898,52.92126154,13120,2017/07/27 21:17:19,14,23.854,9012.482762,28.87001405,5.410017021,53.30380748,356.4,0,0,1024,1024,1024,1024,0,0,95,3.957,3.973,3.942,3.942,0,0,17,Joystick,
37.613321,-119.021156,9010.842736,27.22998775,3.359995727,52.3231644,13240,2017/07/27 21:17:19,14,23.854,9012.482762,28.87001405,5.410017021,53.30380748,359.5,0,0,1024,1024,1024,1024,0,0,95,3.957,3.973,3.942,3.942,0,0,17,Joystick,
37.61332,-119.021155,9010.842736,27.22998775,3.300000996,52.0278888,13370,2017/07/27 21:17:19,13,23.854,9012.482762,28.87001405,5.410017021,53.30380748,0.8,0,0,1024,1024,1024,1024,0,0,95,3.957,3.973,3.942,3.942,0,0,17,Joystick,
37.613319,-119.021152,9011.172756,27.56000744,3.540002289,51.15682578,13530,2017/07/27 21:17:19,13,23.854,9012.482762,28.87001405,5.410017021,53.30380748,3.3,0,0,1024,1024,1024,1024,0,0,95,3.957,3.973,3.942,3.942,0,0,17,Joystick,
37.613318,-119.021149,9011.172756,27.56000744,3.910014534,50.28838744,13630,2017/07/27 21:17:19,14,23.854,9012.482762,28.87001405,5.410017021,53.30380748,4.3,0,0,1024,1024,1024,1024,0,0,95,3.957,3.973,3.942,3.942,0,0,17,Joystick,
37.613317,-119.021147,9011.172756,27.56000744,4.079999605,49.71194385,13820,2017/07/27 21:17:19,14,23.854,9012.482762,28.87001405,5.410017021,53.30380748,4.3,0,0,1024,1024,1024,1024,0,0,95,3.957,3.973,3.942,3.942,0,0,17,Joystick,
37.613317,-119.021145,9011.172756,27.56000744,4.300002654,49.13385984,13950,2017/07/27 21:17:19,14,23.854,9012.482762,28.87001405,5.410017021,53.30380748,4.1,0,0,1024,1024,1024,1024,0,0,95,3.957,3.973,3.942,3.942,0,0,17,Joystick,
37.613316,-119.02114,9010.842736,27.22998775,4.500007459,47.69291491,14080,2017/07/27 21:17:20,14,23.854,9012.482762,28.87001405,5.410017021,53.30380748,2.6,0,0,1024,1024,1024,1024,0,0,95,3.957,3.973,3.942,3.942,0,0,17,Joystick,
37.613316,-119.021138,9010.842736,27.22998775,4.720010508,47.11515899,14200,2017/07/27 21:17:20,14,23.854,9012.482762,28.87001405,5.410017021,53.30380748,1.2,0,0,1024,1024,1024,1024,0,0,95,3.957,3.973,3.942,3.942,0,0,17,Joystick,
37.613316,-119.021136,9010.842736,27.22998775,4.930014435,46.53707498,14340,2017/07/27 21:17:20,13,23.854,9012.482762,28.87001405,5.410017021,53.30380748,359.7,0,0,1024,1024,1024,1024,0,0,95,3.957,3.973,3.942,3.942,0,0,17,Joystick,
37.613316,-119.021133,9010.512749,26.90000086,4.930014435,45.67027705,14450,2017/07/27 21:17:20,13,23.854,9012.482762,28.87001405,5.410017021,53.30380748,357.7,0,0,1024,1024,1024,1024,0,0,95,3.957,3.973,3.942,3.942,0,0,17,Joystick,
37.613315,-119.021128,9010.512749,26.90000086,5.150017484,44.23294105,14560,2017/07/27 21:17:20,13,23.854,9012.482762,28.87001405,5.410017021,53.30380748,353,0,0,1024,1024,1024,1024,0,0,95,3.957,3.973,3.942,3.942,0,0,17,Joystick,
37.613315,-119.021126,9010.512749,26.90000086,5.150017484,43.65485704,14720,2017/07/27 21:17:20,13,23.854,9012.482762,28.87001405,5.410017021,53.30380748,350.6,0,0,1024,1024,1024,1024,0,0,95,3.957,3.973,3.942,3.942,0,0,17,Joystick,
37.613315,-119.02112,9010.512749,26.90000086,5.369998164,41.92126118,14860,2017/07/27 21:17:20,13,23.854,9012.482762,28.87001405,5.410017021,53.30380748,345.7,0,0,1024,1024,1024,1024,0,0,95,3.957,3.973,3.942,3.942,0,0,17,Joystick,
37.613315,-119.021109,9010.842736,27.22998775,5.590001213,38.74343956,15260,2017/07/27 21:17:21,13,23.854,9012.482762,28.87001405,5.590001213,53.30380748,334.6,0,0,1024,1024,1024,1024,0,0,95,3.957,3.973,3.942,3.942,0,0,17,Joystick,
37.613315,-119.021106,9010.842736,27.22998775,5.590001213,37.87664163,15370,2017/07/27 21:17:21,13,23.854,9012.482762,28.87001405,5.590001213,53.30380748,332,0,0,1024,1024,1024,1024,0,0,95,3.957,3.973,3.942,3.942,0,0,17,Joystick,
37.613315,-119.021103,9010.842736,27.22998775,5.590001213,37.01017179,15530,2017/07/27 21:17:21,13,23.854,9012.482762,28.87001405,5.590001213,53.30380748,329.4,0,0,1024,1024,1024,1024,0,0,95,3.957,3.973,3.942,3.942,0,0,17,Joystick,
37.613315,-119.021097,9011.172756,27.56000744,5.820003384,35.27690402,15670,2017/07/27 21:17:21,13,23.854,9012.482762,28.87001405,5.820003384,53.30380748,325.2,0,0,1024,1024,1024,1024,0,0,95,3.957,3.973,3.942,3.942,0,0,17,Joystick,
37.613314,-119.021094,9011.172756,27.56000744,5.820003384,34.42355753,15780,2017/07/27 21:17:21,13,23.854,9012.482762,28.87001405,5.820003384,53.30380748,323.4,0,0,1024,1024,1024,1024,0,0,95,3.957,3.973,3.942,3.942,0,0,17,Joystick,
37.613314,-119.021089,9010.842736,27.22998775,5.590001213,32.97998793,16070,2017/07/27 21:17:22,14,23.854,9012.482762,28.87001405,5.820003384,53.30380748,320.4,0,0,1024,1024,1024,1024,0,0,95,3.957,3.973,3.942,3.942,0,0,17,Joystick,
37.613314,-119.021086,9010.842736,27.22998775,5.590001213,32.11381336,16180,2017/07/27 21:17:22,14,23.854,9012.482762,28.87001405,5.820003384,53.30380748,319,0,0,1024,1024,1024,1024,0,0,95,3.957,3.973,3.942,3.942,0,0,17,Joystick,
37.613314,-119.02108,9010.512749,26.90000086,5.590001213,30.38159546,16290,2017/07/27 21:17:22,14,23.854,9012.482762,28.87001405,5.820003384,53.30380748,316.5,0,0,1024,1024,1024,1024,0,0,95,3.957,3.973,3.942,3.942,0,0,17,Joystick,
37.613314,-119.021077,9010.512749,26.90000086,5.590001213,29.51558493,16430,2017/07/27 21:17:22,14,23.854,9012.482762,28.87001405,5.820003384,53.30380748,315.6,0,0,1024,1024,1024,1024,0,0,95,3.957,3.973,3.942,3.942,0,0,17,Joystick,
37.613314,-119.021071,9010.512749,26.90000086,5.590001213,27.78376073,16590,2017/07/27 21:17:22,14,23.854,9012.482762,28.87001405,5.820003384,53.30380748,313.7,0,0,1024,1024,1024,1024,0,0,95,3.957,3.973,3.942,3.942,0,0,17,Joystick,
37.613314,-119.021066,9010.512749,26.90000086,5.369998164,26.34078168,16800,2017/07/27 21:17:22,14,23.854,9012.482762,28.87001405,5.820003384,53.30380748,312,0,0,1024,1024,1024,1024,0,0,95,3.957,3.973,3.942,3.942,0,0,17,Joystick,
37.613314,-119.021063,9010.512749,26.90000086,5.369998164,25.47513205,16970,2017/07/27 21:17:22,14,23.763,9012.482762,28.87001405,5.820003384,53.30380748,311.2,0,0,1024,1024,1024,1024,0,0,95,3.936,3.971,3.966,3.963,0,0,17,Joystick,
37.613313,-119.02106,9010.512749,26.90000086,5.369998164,24.63389186,17080,2017/07/27 21:17:23,14,23.763,9012.482762,28.87001405,5.820003384,53.30380748,310.5,0,0,1024,1024,1024,1024,0,0,95,3.936,3.971,3.966,3.963,0,0,17,Joystick,
37.613313,-119.021055,9010.512749,26.90000086,5.140018363,23.19301255,17200,2017/07/27 21:17:23,14,23.763,9012.482762,28.87001405,5.820003384,53.30380748,309.1,0,0,1024,1024,1024,1024,0,0,95,3.936,3.971,3.966,3.963,0,0,17,Joystick,
37.613313,-119.021052,9010.512749,26.90000086,5.140018363,22.32877368,17330,2017/07/27 21:17:23,14,23.763,9012.482762,28.87001405,5.820003384,53.30380748,308.5,0,0,1024,1024,1024,1024,0,0,95,3.936,3.971,3.966,3.963,0,0,17,Joystick,
37.613313,-119.021049,9010.512749,26.90000086,5.140018363,21.46473166,17510,2017/07/27 21:17:23,14,23.763,9012.482762,28.87001405,5.820003384,53.30380748,308.1,0,0,1024,1024,1024,1024,0,0,95,3.936,3.971,3.966,3.963,0,0,17,Joystick,
37.613313,-119.021044,9010.182762,26.57001397,5.140018363,20.02526311,17690,2017/07/27 21:17:23,14,23.763,9012.482762,28.87001405,5.820003384,53.30380748,307.5,0,0,1024,1024,1024,1024,0,0,95,3.936,3.971,3.966,3.963,0,0,17,Joystick,
37.613313,-119.021039,9010.182762,26.57001397,4.920015314,18.58668038,17820,2017/07/27 21:17:23,14,23.763,9012.482762,28.87001405,5.820003384,53.30380748,306.9,0,0,1024,1024,1024,1024,0,0,95,3.936,3.971,3.966,3.963,0,0,17,Joystick,
37.613313,-119.021036,9010.182762,26.57001397,4.920015314,17.72401632,17930,2017/07/27 21:17:23,14,23.763,9012.482762,28.87001405,5.820003384,53.30380748,306.5,0,0,1024,1024,1024,1024,0,0,95,3.936,3.971,3.966,3.963,0,0,17,Joystick,
37.613313,-119.021033,9010.182762,26.57001397,4.920015314,16.86181156,18040,2017/07/27 21:17:24,14,23.656,9012.482762,28.87001405,5.820003384,53.30380748,306,0,0,1024,1024,1024,1024,0,0,95,3.936,3.971,3.966,3.963,0,0,17,Joystick,
37.613313,-119.021031,9010.182762,26.57001397,4.700012265,16.28730367,18230,2017/07/27 21:17:24,14,23.656,9012.482762,28.87001405,5.820003384,53.30380748,305.3,0,0,1024,1024,1024,1024,0,0,95,3.936,3.971,3.966,3.963,0,0,17,Joystick,
37.613313,-119.021026,9010.182762,26.57001397,4.700012265,14.85219864,18340,2017/07/27 21:17:24,14,23.656,9012.482762,28.87001405,5.820003384,53.30380748,303.2,0,0,1024,1024,1024,1024,0,0,95,3.936,3.971,3.966,3.963,0,0,17,Joystick,
37.613313,-119.021021,9010.182762,26.57001397,4.470010094,13.41925896,18500,2017/07/27 21:17:24,14,23.656,9012.482762,28.87001405,5.820003384,53.30380748,301.3,0,0,1024,1024,1024,1024,0,0,95,3.936,3.971,3.966,3.963,0,0,17,Joystick,
37.613313,-119.021019,9010.182762,26.57001397,4.470010094,12.846818,18630,2017/07/27 21:17:24,14,23.656,9012.482762,28.87001405,5.820003384,53.30380748,300.6,0,0,1024,1024,1024,1024,0,0,95,3.936,3.971,3.966,3.963,0,0,17,Joystick,
37.613313,-119.021017,9010.182762,26.57001397,4.470010094,12.27493478,18750,2017/07/27 21:17:24,14,23.656,9012.482762,28.87001405,5.820003384,53.30380748,300,0,0,1024,1024,1024,1024,0,0,95,3.936,3.971,3.966,3.963,0,0,17,Joystick,
37.613313,-119.021014,9010.182762,26.57001397,4.470010094,11.41824184,18860,2017/07/27 21:17:24,14,23.656,9012.482762,28.87001405,5.820003384,53.30380748,299.5,0,0,1024,1024,1024,1024,0,0,95,3.936,3.971,3.966,3.963,0,0,17,Joystick,
37.613313,-119.02101,9010.512749,26.90000086,4.250007045,10.27867487,19010,2017/07/27 21:17:25,14,23.656,9012.482762,28.87001405,5.820003384,53.30380748,298.7,0,0,1024,1024,1024,1024,0,0,95,3.936,3.971,3.966,3.963,0,0,17,Joystick,
37.613313,-119.021008,9010.512749,26.90000086,4.250007045,9.710367765,19130,2017/07/27 21:17:25,14,23.656,9012.482762,28.87001405,5.820003384,53.30380748,298.3,0,0,1024,1024,1024,1024,0,0,95,3.936,3.971,3.966,3.963,0,0,17,Joystick,
37.613313,-119.021005,9010.512749,26.90000086,4.250007045,8.860269312,19250,2017/07/27 21:17:25,14,23.656,9012.482762,28.87001405,5.820003384,53.30380748,297.9,0,0,1024,1024,1024,1024,0,0,95,3.936,3.971,3.966,3.963,0,0,17,Joystick,
37.613313,-119.021003,9010.842736,27.22998775,4.250007045,8.295472706,19350,2017/07/27 21:17:25,14,23.656,9012.482762,28.87001405,5.820003384,53.30380748,297.4,0,0,1024,1024,1024,1024,0,0,95,3.936,3.971,3.966,3.963,0,0,17,Joystick,
37.613313,-119.021001,9010.842736,27.22998775,4.250007045,7.732644604,19450,2017/07/27 21:17:25,14,23.656,9012.482762,28.87001405,5.820003384,53.30380748,296.8,0,0,1024,1024,1024,1024,0,0,95,3.936,3.971,3.966,3.963,0,0,17,Joystick,
37.613313,-119.020999,9011.172756,27.56000744,4.250007045,7.172211516,19550,2017/07/27 21:17:25,14,23.656,9012.482762,28.87001405,5.820003384,53.30380748,296.1,0,0,1024,1024,1024,1024,0,0,95,3.936,3.971,3.966,3.963,0,0,17,Joystick,
37.613313,-119.020997,9011.172756,27.56000744,4.250007045,6.614829608,19660,2017/07/27 21:17:25,14,23.656,9012.482762,28.87001405,5.820003384,53.30380748,295.3,0,0,1024,1024,1024,1024,0,0,95,3.936,3.971,3.966,3.963,0,0,17,Joystick,
37.613313,-119.020995,9011.172756,27.56000744,4.030003996,6.061319092,19760,2017/07/27 21:17:25,14,23.656,9012.482762,28.87001405,5.820003384,53.30380748,294.5,0,0,1024,1024,1024,1024,0,0,95,3.936,3.971,3.966,3.963,0,0,17,Joystick,
37.613313,-119.02099,9011.172756,27.56000744,4.030003996,4.703412224,19940,2017/07/27 21:17:25,14,23.656,9012.482762,28.87001405,5.820003384,53.30380748,292.8,0,0,1024,1024,1024,1024,0,0,95,3.936,3.971,3.966,3.963,0,0,17,Joystick,
37.613313,-119.020988,9011.172756,27.56000744,4.030003996,4.176640554,20080,2017/07/27 21:17:26,14,23.656,9012.482762,28.87001405,5.820003384,53.30380748,291.9,0,0,1024,1024,1024,1024,0,0,95,3.936,3.971,3.966,3.963,0,0,17,Joystick,
37.613313,-119.020984,9011.172756,27.56000744,4.030003996,3.177067031,20210,2017/07/27 21:17:26,14,23.656,9012.482762,28.87001405,5.820003384,53.30380748,290.2,0,0,1024,1024,1024,1024,0,0,95,3.936,3.971,3.966,3.963,0,0,17,Joystick,
37.613313,-119.020982,9011.172756,27.56000744,4.030003996,2.724117541,20370,2017/07/27 21:17:26,14,23.656,9012.482762,28.87001405,5.820003384,53.30380748,289.6,0,0,1024,1024,1024,1024,0,0,95,3.936,3.971,3.966,3.963,0,0,17,Joystick,
37.613313,-119.020978,9011.172756,27.56000744,4.030003996,2.019813057,20480,2017/07/27 21:17:26,14,23.656,9012.482762,28.87001405,5.820003384,53.30380748,288.5,0,0,1024,1024,1024,1024,0,0,95,3.936,3.971,3.966,3.963,0,0,17,Joystick,
37.613313,-119.020976,9011.172756,27.56000744,3.800001825,1.846998091,20650,2017/07/27 21:17:26,14,23.656,9012.482762,28.87001405,5.820003384,53.30380748,288.1,0,0,1024,1024,1024,1024,0,0,95,3.936,3.971,3.966,3.963,0,0,17,Joystick,
37.613312,-119.020972,9011.172756,27.56000744,3.800001825,2.3545506,20880,2017/07/27 21:17:26,14,23.656,9012.482762,28.87001405,5.820003384,53.30380748,287.4,0,0,1024,1024,1024,1024,0,0,95,3.936,3.971,3.966,3.963,0,0,17,Joystick,
37.613312,-119.02097,9011.172756,27.56000744,3.579998776,2.623047984,20980,2017/07/27 21:17:26,14,23.684,9012.482762,28.87001405,5.820003384,53.30380748,287.1,0,0,1024,1024,1024,1024,0,0,95,3.938,3.962,3.942,3.96,0,0,17,Joystick,
37.613312,-119.020968,9011.172756,27.56000744,3.579998776,2.980787497,21090,2017/07/27 21:17:27,14,23.684,9012.482762,28.87001405,5.820003384,53.30380748,286.8,0,0,1024,1024,1024,1024,0,0,95,3.938,3.962,3.942,3.96,0,0,17,Joystick,
37.613312,-119.020966,9011.172756,27.56000744,3.579998776,3.399704833,21200,2017/07/27 21:17:27,14,23.684,9012.482762,28.87001405,5.820003384,53.30380748,286.6,0,0,1024,1024,1024,1024,0,0,95,3.938,3.962,3.942,3.96,0,0,17,Joystick,
37.613312,-119.020964,9011.172756,27.56000744,3.579998776,3.859941068,21310,2017/07/27 21:17:27,14,23.684,9012.482762,28.87001405,5.820003384,53.30380748,286.4,0,0,1024,1024,1024,1024,0,0,95,3.938,3.962,3.942,3.96,0,0,17,Joystick,
37.613312,-119.02096,9011.502743,27.88999433,3.579998776,4.856561835,21470,2017/07/27 21:17:27,14,23.684,9012.482762,28.87001405,5.820003384,53.30380748,286,0,0,1024,1024,1024,1024,0,0,95,3.938,3.962,3.942,3.96,0,0,17,Joystick,
37.613312,-119.020958,9011.502743,27.88999433,3.579998776,5.378871563,21590,2017/07/27 21:17:27,14,23.684,9012.482762,28.87001405,5.820003384,53.30380748,285.8,0,0,1024,1024,1024,1024,0,0,95,3.938,3.962,3.942,3.96,0,0,17,Joystick,
37.613312,-119.020957,9011.502743,27.88999433,3.579998776,5.644094669,21700,2017/07/27 21:17:27,14,23.684,9012.482762,28.87001405,5.820003384,53.30380748,285.8,0,0,1024,1024,1024,1024,0,0,95,3.938,3.962,3.942,3.96,0,0,17,Joystick,
37.613312,-119.020953,9011.502743,27.88999433,3.579998776,6.724606514,21830,2017/07/27 21:17:27,14,23.684,9012.482762,28.87001405,5.820003384,53.30380748,285.7,0,0,1024,1024,1024,1024,0,0,95,3.938,3.962,3.942,3.96,0,0,17,Joystick,
37.613312,-119.020951,9011.502743,27.88999433,3.579998776,7.273589472,22020,2017/07/27 21:17:28,14,23.675,9012.482762,28.87001405,5.820003384,53.30380748,285.7,0,0,1024,1024,1024,1024,0,0,95,3.938,3.962,3.942,3.96,0,0,17,Joystick,
37.613312,-119.020947,9011.832762,28.22001403,3.579998776,8.383267985,22190,2017/07/27 21:17:28,14,23.675,9012.482762,28.87001405,5.820003384,53.30380748,285.5,0,0,1024,1024,1024,1024,0,0,95,3.938,3.962,3.942,3.96,0,0,17,Joystick,
37.613312,-119.020946,9011.832762,28.22001403,3.579998776,8.662598702,22300,2017/07/27 21:17:28,14,23.675,9012.482762,28.87001405,5.820003384,53.30380748,285.5,0,0,1024,1024,1024,1024,0,0,95,3.938,3.962,3.942,3.96,0,0,17,Joystick,
37.613312,-119.020942,9012.152743,28.53999435,3.579998776,9.785499001,22430,2017/07/27 21:17:28,14,23.675,9012.482762,28.87001405,5.820003384,53.30380748,285.3,0,0,1024,1024,1024,1024,0,0,95,3.938,3.962,3.942,3.96,0,0,17,Joystick,
37.613312,-119.02094,9012.152743,28.53999435,3.579998776,10.34967225,22560,2017/07/27 21:17:28,14,23.675,9012.482762,28.87001405,5.820003384,53.30380748,285.2,0,0,1024,1024,1024,1024,0,0,95,3.938,3.962,3.942,3.96,0,0,17,Joystick,
37.613312,-119.020936,9012.152743,28.53999435,3.359995727,11.48218541,22720,2017/07/27 21:17:28,14,23.675,9012.482762,28.87001405,5.820003384,53.30380748,285.4,0,0,1024,1024,1024,1024,0,0,95,3.938,3.962,3.942,3.96,0,0,17,Joystick,
37.613312,-119.020933,9012.152743,28.53999435,3.359995727,12.33441641,22850,2017/07/27 21:17:28,14,23.675,9012.482762,28.87001405,5.820003384,53.30380748,285.4,0,0,1024,1024,1024,1024,0,0,95,3.938,3.962,3.942,3.96,0,0,17,Joystick,
37.613312,-119.020931,9012.152743,28.53999435,3.359995727,12.90367495,23000,2017/07/27 21:17:29,14,23.694,9012.482762,28.87001405,5.820003384,53.30380748,285.3,0,0,1024,1024,1024,1024,0,0,94,3.938,3.962,3.942,3.96,0,0,17,Joystick,
37.613312,-119.020929,9012.152743,28.53999435,3.359995727,13.4736881,23130,2017/07/27 21:17:29,14,23.694,9012.482762,28.87001405,5.820003384,53.30380748,285.3,0,0,1024,1024,1024,1024,0,0,94,3.938,3.962,3.942,3.96,0,0,17,Joystick,
37.613312,-119.020927,9012.482762,28.87001405,3.359995727,14.0443574,23230,2017/07/27 21:17:29,14,23.694,9012.482762,28.87001405,5.820003384,53.30380748,285.4,0,0,1024,1024,1024,1024,0,0,94,3.938,3.962,3.942,3.96,0,0,17,Joystick,
37.613312,-119.020926,9012.482762,28.87001405,3.359995727,14.32992172,23350,2017/07/27 21:17:29,14,23.694,9012.482762,28.87001405,5.820003384,53.30380748,285.4,0,0,1024,1024,1024,1024,0,0,94,3.938,3.962,3.942,3.96,0,0,17,Joystick,
37.613313,-119.020922,9012.482762,28.87001405,3.359995727,15.42601755,23460,2017/07/27 21:17:29,14,23.694,9012.482762,28.87001405,5.820003384,53.30380748,285.2,0,0,1024,1024,1024,1024,0,0,94,3.938,3.962,3.942,3.96,0,0,17,Joystick,
37.613313,-119.02092,9012.482762,28.87001405,3.359995727,16.00013175,23630,2017/07/27 21:17:29,14,23.694,9012.482762,28.87001405,5.820003384,53.30380748,285,0,0,1024,1024,1024,1024,0,0,94,3.938,3.962,3.942,3.96,0,0,17,Joystick,
37.613313,-119.020919,9012.482762,28.87001405,3.359995727,16.28730367,23740,2017/07/27 21:17:29,14,23.694,9012.482762,28.87001405,5.820003384,53.30380748,284.7,0,0,1024,1024,1024,1024,0,0,94,3.938,3.962,3.942,3.96,0,0,17,Joystick,
37.613313,-119.020917,9012.482762,28.87001405,3.359995727,16.86181156,23860,2017/07/27 21:17:29,14,23.694,9012.482762,28.87001405,5.820003384,53.30380748,284.4,0,0,1024,1024,1024,1024,0,0,94,3.938,3.962,3.942,3.96,0,0,17,Joystick,
37.613313,-119.020913,9012.152743,28.53999435,3.359995727,18.01151632,23990,2017/07/27 21:17:29,14,23.764,9012.482762,28.87001405,5.820003384,53.30380748,283.5,0,0,1024,1024,1024,1024,0,0,94,3.938,3.962,3.942,3.96,0,0,17,Joystick,
37.613313,-119.020912,9012.152743,28.53999435,3.359995727,18.29908195,24150,2017/07/27 21:17:30,14,23.764,9012.482762,28.87001405,5.820003384,53.30380748,283,0,0,1024,1024,1024,1024,0,0,94,3.938,3.962,3.942,3.96,0,0,17,Joystick,
37.613313,-119.020908,9012.152743,28.53999435,3.359995727,19.44973816,24260,2017/07/27 21:17:30,14,23.764,9012.482762,28.87001405,5.820003384,53.30380748,281.8,0,0,1024,1024,1024,1024,0,0,94,3.938,3.962,3.942,3.96,0,0,17,Joystick,
37.613313,-119.020906,9011.832762,28.22001403,3.359995727,20.02526311,24360,2017/07/27 21:17:30,14,23.764,9012.482762,28.87001405,5.820003384,53.30380748,281.3,0,0,1024,1024,1024,1024,0,0,94,3.938,3.962,3.942,3.96,0,0,17,Joystick,
37.613313,-119.020905,9011.832762,28.22001403,3.359995727,20.3130912,24460,2017/07/27 21:17:30,14,23.764,9012.482762,28.87001405,5.820003384,53.30380748,281.1,0,0,1024,1024,1024,1024,0,0,94,3.938,3.962,3.942,3.96,0,0,17,Joystick,
37.613313,-119.020903,9011.502743,27.88999433,3.359995727,20.88887862,24610,2017/07/27 21:17:30,14,23.764,9012.482762,28.87001405,5.820003384,53.30380748,280.8,0,0,1024,1024,1024,1024,0,0,94,3.938,3.962,3.942,3.96,0,0,17,Joystick,
37.613312,-119.020901,9011.502743,27.88999433,3.200009778,21.49881959,24720,2017/07/27 21:17:30,14,23.764,9012.482762,28.87001405,5.820003384,53.30380748,280.4,0,0,1024,1024,1024,1024,0,0,94,3.938,3.962,3.942,3.96,0,0,17,Joystick,
37.613312,-119.020898,9011.172756,27.56000744,3.000004973,22.36154927,24880,2017/07/27 21:17:30,14,23.764,9012.482762,28.87001405,5.820003384,53.30380748,280.7,0,0,1024,1024,1024,1024,0,0,94,3.938,3.962,3.942,3.96,0,0,17,Joystick,
37.61331,-119.020896,9011.172756,27.56000744,2.380014682,23.01797974,25160,2017/07/27 21:17:31,14,23.764,9012.482762,28.87001405,5.820003384,53.30380748,282.2,0,0,1024,1024,1024,1024,0,0,94,3.938,3.962,3.942,3.96,0,0,17,Joystick,
37.613308,-119.020895,9011.172756,27.56000744,2.120003962,23.40728421,25280,2017/07/27 21:17:31,14,23.764,9012.482762,28.87001405,5.820003384,53.30380748,283.2,0,0,1024,1024,1024,1024,0,0,94,3.938,3.962,3.942,3.96,0,0,17,Joystick,
37.613308,-119.020894,9011.172756,27.56000744,2.25000373,23.69278291,25440,2017/07/27 21:17:31,14,23.764,9012.482762,28.87001405,5.820003384,53.30380748,283.7,0,0,1024,1024,1024,1024,0,0,94,3.938,3.962,3.942,3.96,0,0,17,Joystick,
37.613305,-119.020894,9011.172756,27.56000744,2.470006779,23.88582754,25590,2017/07/27 21:17:31,14,23.764,9012.482762,28.87001405,5.820003384,53.30380748,285.2,0,0,1024,1024,1024,1024,0,0,94,3.938,3.962,3.942,3.96,0,0,17,Joystick,
37.613304,-119.020895,9011.172756,27.56000744,2.770002802,23.6786753,25690,2017/07/27 21:17:31,13,23.764,9012.482762,28.87001405,5.820003384,53.30380748,286,0,0,1024,1024,1024,1024,0,0,94,3.938,3.962,3.942,3.96,0,0,17,Joystick,
37.613303,-119.020895,9011.502743,27.88999433,2.910012877,23.76004013,25800,2017/07/27 21:17:31,13,23.764,9012.482762,28.87001405,5.820003384,53.30380748,286.4,0,0,1024,1024,1024,1024,0,0,94,3.938,3.962,3.942,3.96,0,0,17,Joystick,
37.613302,-119.020896,9011.502743,27.88999433,2.920011998,23.5666018,25960,2017/07/27 21:17:31,13,23.519,9012.482762,28.87001405,5.820003384,53.30380748,286.7,0,0,1024,1024,1024,1024,0,0,94,3.892,3.93,3.933,3.925,0,0,17,Joystick,
37.613301,-119.020897,9011.502743,27.88999433,3.010004095,23.38084064,26070,2017/07/27 21:17:32,13,23.519,9012.482762,28.87001405,5.820003384,53.30380748,286.8,0,0,1024,1024,1024,1024,0,0,94,3.892,3.93,3.933,3.925,0,0,17,Joystick,
37.6133,-119.020899,9011.502743,27.88999433,3.109995313,22.92588656,26200,2017/07/27 21:17:32,14,23.519,9012.482762,28.87001405,5.820003384,53.30380748,286.8,0,0,1024,1024,1024,1024,0,0,94,3.892,3.93,3.933,3.925,0,0,17,Joystick,
37.613299,-119.020901,9011.502743,27.88999433,3.200009778,22.48248103,26340,2017/07/27 21:17:32,14,23.519,9012.482762,28.87001405,5.820003384,53.30380748,286.8,0,0,1024,1024,1024,1024,0,0,94,3.892,3.93,3.933,3.925,0,0,17,Joystick,
37.613298,-119.020904,9011.502743,27.88999433,3.420012827,21.77883928,26520,2017/07/27 21:17:32,14,23.519,9012.482762,28.87001405,5.820003384,53.30380748,286.8,0,0,1024,1024,1024,1024,0,0,94,3.892,3.93,3.933,3.925,0,0,17,Joystick,
37.613297,-119.020906,9011.502743,27.88999433,3.640015876,21.36322247,26640,2017/07/27 21:17:32,14,23.519,9012.482762,28.87001405,5.820003384,53.30380748,286.7,0,0,1024,1024,1024,1024,0,0,94,3.892,3.93,3.933,3.925,0,0,17,Joystick,
37.613297,-119.020908,9011.172756,27.56000744,3.82999919,20.82467258,26790,2017/07/27 21:17:32,14,23.519,9012.482762,28.87001405,5.820003384,53.30380748,286.5,0,0,1024,1024,1024,1024,0,0,94,3.892,3.93,3.933,3.925,0,0,17,Joystick,
37.613297,-119.020912,9010.842736,27.22998775,4.260006167,19.75429853,26940,2017/07/27 21:17:32,14,23.519,9012.482762,28.87001405,5.820003384,53.30380748,285.5,0,0,1024,1024,1024,1024,0,0,94,3.892,3.93,3.933,3.925,0,0,17,Joystick,
37.613296,-119.020917,9010.512749,26.90000086,4.700012265,18.58549928,27040,2017/07/27 21:17:33,14,23.633,9012.482762,28.87001405,5.820003384,53.30380748,284.3,0,0,1024,1024,1024,1024,0,0,94,3.892,3.93,3.933,3.925,0,0,17,Joystick,
37.613296,-119.020922,9010.182762,26.57001397,5.150017484,17.29340607,27320,2017/07/27 21:17:33,14,23.633,9012.482762,28.87001405,5.820003384,53.30380748,283.5,0,0,1024,1024,1024,1024,0,0,94,3.892,3.93,3.933,3.925,0,0,17,Joystick,
37.613295,-119.020925,9010.182762,26.57001397,5.150017484,16.71053203,27440,2017/07/27 21:17:33,14,23.633,9012.482762,28.87001405,5.820003384,53.30380748,283,0,0,1024,1024,1024,1024,0,0,94,3.892,3.93,3.933,3.925,0,0,17,Joystick,
37.613295,-119.020928,9010.182762,26.57001397,5.369998164,15.96666718,27540,2017/07/27 21:17:33,14,23.633,9012.482762,28.87001405,5.820003384,53.30380748,282.5,0,0,1024,1024,1024,1024,0,0,94,3.892,3.93,3.933,3.925,0,0,17,Joystick,
37.613295,-119.020933,9009.862749,26.25000084,5.369998164,14.75682462,27650,2017/07/27 21:17:33,14,23.633,9012.482762,28.87001405,5.820003384,53.30380748,282.1,0,0,1024,1024,1024,1024,0,0,94,3.892,3.93,3.933,3.925,0,0,17,Joystick,
37.613295,-119.020936,9009.862749,26.25000084,5.369998164,14.05226423,27780,2017/07/27 21:17:33,14,23.633,9012.482762,28.87001405,5.820003384,53.30380748,282.1,0,0,1024,1024,1024,1024,0,0,94,3.892,3.93,3.933,3.925,0,0,17,Joystick,
37.613294,-119.020939,9009.862749,26.25000084,5.369998164,13.59885214,27950,2017/07/27 21:17:33,14,23.633,9012.482762,28.87001405,5.820003384,53.30380748,282.2,0,0,1024,1024,1024,1024,0,0,94,3.892,3.93,3.933,3.925,0,0,17,Joystick,
37.613294,-119.020944,9009.862749,26.25000084,5.369998164,12.52782192,28050,2017/07/27 21:17:34,14,23.633,9012.482762,28.87001405,5.820003384,53.30380748,282.3,0,0,1024,1024,1024,1024,0,0,94,3.892,3.93,3.933,3.925,0,0,17,Joystick,
37.613294,-119.020947,9010.182762,26.57001397,5.369998164,11.9231303,28200,2017/07/27 21:17:34,14,23.633,9012.482762,28.87001405,5.820003384,53.30380748,282.4,0,0,1024,1024,1024,1024,0,0,94,3.892,3.93,3.933,3.925,0,0,17,Joystick,
37.613294,-119.02095,9010.182762,26.57001397,5.369998164,11.35252661,28320,2017/07/27 21:17:34,14,23.633,9012.482762,28.87001405,5.820003384,53.30380748,282.5,0,0,1024,1024,1024,1024,0,0,94,3.892,3.93,3.933,3.925,0,0,17,Joystick,
37.613294,-119.020953,9010.182762,26.57001397,5.369998164,10.82139142,28450,2017/07/27 21:17:34,14,23.633,9012.482762,28.87001405,5.820003384,53.30380748,282.7,0,0,1024,1024,1024,1024,0,0,94,3.892,3.93,3.933,3.925,0,0,17,Joystick,
37.613294,-119.020956,9010.182762,26.57001397,5.369998164,10.33579429,28570,2017/07/27 21:17:34,14,23.633,9012.482762,28.87001405,5.820003384,53.30380748,283,0,0,1024,1024,1024,1024,0,0,94,3.892,3.93,3.933,3.925,0,0,17,Joystick,
37.613294,-119.020958,9010.512749,26.90000086,5.369998164,10.04061712,28680,2017/07/27 21:17:34,14,23.633,9012.482762,28.87001405,5.820003384,53.30380748,283.5,0,0,1024,1024,1024,1024,0,0,94,3.892,3.93,3.933,3.925,0,0,17,Joystick,
37.613294,-119.020964,9010.842736,27.22998775,5.369998164,9.315649904,28860,2017/07/27 21:17:34,14,23.633,9012.482762,28.87001405,5.820003384,53.30380748,284.6,0,0,1024,1024,1024,1024,0,0,94,3.892,3.93,3.933,3.925,0,0,17,Joystick,
37.613294,-119.020967,9010.842736,27.22998775,5.369998164,9.056496353,28970,2017/07/27 21:17:34,14,23.712,9012.482762,28.87001405,5.820003384,53.30380748,285.2,0,0,1024,1024,1024,1024,0,0,94,3.892,3.93,3.933,3.925,0,0,17,Joystick,
37.613294,-119.020972,9011.172756,27.56000744,5.369998164,8.79921288,29150,2017/07/27 21:17:35,14,23.712,9012.482762,28.87001405,5.820003384,53.30380748,286.8,0,0,1024,1024,1024,1024,0,0,94,3.892,3.93,3.933,3.925,0,0,17,Joystick,
37.613294,-119.020975,9011.502743,27.88999433,5.150017484,8.756397918,29280,2017/07/27 21:17:35,14,23.712,9012.482762,28.87001405,5.820003384,53.30380748,287.6,0,0,1024,1024,1024,1024,0,0,94,3.892,3.93,3.933,3.925,0,0,17,Joystick,
37.613294,-119.02098,9011.832762,28.22001403,5.390018777,8.874836242,29410,2017/07/27 21:17:35,14,23.712,9012.482762,28.87001405,5.820003384,53.30380748,289.5,0,0,1024,1024,1024,1024,0,0,94,3.892,3.93,3.933,3.925,0,0,17,Joystick,
37.613295,-119.020983,9012.152743,28.53999435,5.160016606,8.704232562,29590,2017/07/27 21:17:35,14,23.712,9012.482762,28.87001405,5.820003384,53.30380748,290.6,0,0,1024,1024,1024,1024,0,0,94,3.892,3.93,3.933,3.925,0,0,17,Joystick,
37.613295,-119.020989,9012.482762,28.87001405,5.160016606,9.316109222,29750,2017/07/27 21:17:35,14,23.712,9012.482762,28.87001405,5.820003384,53.30380748,292.3,0,0,1024,1024,1024,1024,0,0,94,3.892,3.93,3.933,3.925,0,0,17,Joystick,
37.613295,-119.020991,9012.482762,28.87001405,5.190013972,9.581299519,29890,2017/07/27 21:17:35,14,23.712,9012.482762,28.87001405,5.820003384,53.30380748,293,0,0,1024,1024,1024,1024,0,0,94,3.892,3.93,3.933,3.925,0,0,17,Joystick,
37.613296,-119.020997,9012.482762,28.87001405,5.160016606,10.23992815,30030,2017/07/27 21:17:36,14,23.712,9012.482762,28.87001405,5.820003384,53.30380748,294.2,0,0,1024,1024,1024,1024,0,0,94,3.892,3.93,3.933,3.925,0,0,17,Joystick,
37.613296,-119.020999,9012.152743,28.53999435,4.940013557,10.60853052,30190,2017/07/27 21:17:36,14,23.712,9012.482762,28.87001405,5.820003384,53.30380748,294.4,0,0,1024,1024,1024,1024,0,0,94,3.892,3.93,3.933,3.925,0,0,17,Joystick,
37.613296,-119.021002,9012.152743,28.53999435,4.940013557,11.1946854,30300,2017/07/27 21:17:36,14,23.712,9012.482762,28.87001405,5.820003384,53.30380748,294.7,0,0,1024,1024,1024,1024,0,0,94,3.892,3.93,3.933,3.925,0,0,17,Joystick,
37.613297,-119.021007,9012.152743,28.53999435,4.970010923,12.00990852,30400,2017/07/27 21:17:36,14,23.712,9012.482762,28.87001405,5.820003384,53.30380748,295.5,0,0,1024,1024,1024,1024,0,0,94,3.892,3.93,3.933,3.925,0,0,17,Joystick,
37.613297,-119.02101,9012.152743,28.53999435,4.940013557,12.68966576,30540,2017/07/27 21:17:36,14,23.712,9012.482762,28.87001405,5.820003384,53.30380748,295.8,0,0,1024,1024,1024,1024,0,0,94,3.892,3.93,3.933,3.925,0,0,17,Joystick,
37.613297,-119.021012,9012.152743,28.53999435,4.940013557,13.15505291,30640,2017/07/27 21:17:36,14,23.712,9012.482762,28.87001405,5.820003384,53.30380748,296.2,0,0,1024,1024,1024,1024,0,0,94,3.892,3.93,3.933,3.925,0,0,17,Joystick,
37.613297,-119.021015,9011.832762,28.22001403,4.720010508,13.86906212,30750,2017/07/27 21:17:36,14,23.712,9012.482762,28.87001405,5.820003384,53.30380748,296.3,0,0,1024,1024,1024,1024,0,0,94,3.892,3.93,3.933,3.925,0,0,17,Joystick,
37.613297,-119.021019,9011.502743,27.88999433,4.700012265,14.84645717,30900,2017/07/27 21:17:36,14,23.712,9012.482762,28.87001405,5.820003384,53.30380748,296.3,0,0,1024,1024,1024,1024,0,0,94,3.892,3.93,3.933,3.925,0,0,17,Joystick,
37.613297,-119.021022,9011.502743,27.88999433,4.700012265,15.59553856,31010,2017/07/27 21:17:37,14,23.89,9012.482762,28.87001405,5.820003384,53.30380748,296.3,0,0,1024,1024,1024,1024,0,0,94,3.946,3.982,3.997,3.988,0,0,17,Joystick,
37.613297,-119.021024,9011.502743,27.88999433,4.700012265,16.10147689,31110,2017/07/27 21:17:37,14,23.89,9012.482762,28.87001405,5.820003384,53.30380748,296.5,0,0,1024,1024,1024,1024,0,0,94,3.946,3.982,3.997,3.988,0,0,17,Joystick,
37.613297,-119.021027,9011.172756,27.56000744,4.700012265,16.86912784,31290,2017/07/27 21:17:37,14,23.89,9012.482762,28.87001405,5.820003384,53.30380748,296.9,0,0,1024,1024,1024,1024,0,0,94,3.946,3.982,3.997,3.988,0,0,17,Joystick,
37.613297,-119.021032,9011.172756,27.56000744,4.700012265,18.16840609,31420,2017/07/27 21:17:37,14,23.89,9012.482762,28.87001405,5.820003384,53.30380748,298.1,0,0,1024,1024,1024,1024,0,0,94,3.946,3.982,3.997,3.988,0,0,17,Joystick,
37.613297,-119.021039,9011.172756,27.56000744,4.700012265,20.02099802,31720,2017/07/27 21:17:37,14,23.89,9012.482762,28.87001405,5.820003384,53.30380748,300,0,0,1024,1024,1024,1024,0,0,94,3.946,3.982,3.997,3.988,0,0,17,Joystick,
37.613297,-119.021042,9011.172756,27.56000744,4.700012265,20.82467258,31830,2017/07/27 21:17:37,14,23.89,9012.482762,28.87001405,5.820003384,53.30380748,300.6,0,0,1024,1024,1024,1024,0,0,94,3.946,3.982,3.997,3.988,0,0,17,Joystick,
37.613298,-119.021044,9010.842736,27.22998775,4.700012265,21.23510567,31950,2017/07/27 21:17:37,14,23.89,9012.482762,28.87001405,5.820003384,53.30380748,301.2,0,0,1024,1024,1024,1024,0,0,94,3.946,3.982,3.997,3.988,0,0,17,Joystick,
37.613298,-119.021046,9010.842736,27.22998775,4.480009216,21.77883928,32060,2017/07/27 21:17:38,14,23.89,9012.482762,28.87001405,5.820003384,53.30380748,301.8,0,0,1024,1024,1024,1024,0,0,94,3.946,3.982,3.997,3.988,0,0,17,Joystick,
37.613298,-119.021049,9010.842736,27.22998775,4.480009216,22.59763852,32190,2017/07/27 21:17:38,14,23.89,9012.482762,28.87001405,5.820003384,53.30380748,302.4,0,0,1024,1024,1024,1024,0,0,94,3.946,3.982,3.997,3.988,0,0,17,Joystick,
37.613298,-119.021053,9010.512749,26.90000086,4.470010094,23.69471861,32340,2017/07/27 21:17:38,14,23.89,9012.482762,28.87001405,5.820003384,53.30380748,303.4,0,0,1024,1024,1024,1024,0,0,94,3.946,3.982,3.997,3.988,0,0,17,Joystick,
37.613298,-119.021058,9010.182762,26.57001397,4.250007045,25.07349162,32460,2017/07/27 21:17:38,14,23.89,9012.482762,28.87001405,5.820003384,53.30380748,304.9,0,0,1024,1024,1024,1024,0,0,94,3.946,3.982,3.997,3.988,0,0,17,Joystick,
37.613298,-119.02106,9010.182762,26.57001397,4.250007045,25.62706775,32610,2017/07/27 21:17:38,14,23.89,9012.482762,28.87001405,5.820003384,53.30380748,305.6,0,0,1024,1024,1024,1024,0,0,94,3.946,3.982,3.997,3.988,0,0,17,Joystick,
37.613298,-119.021062,9010.182762,26.57001397,4.250007045,26.18169375,32730,2017/07/27 21:17:38,14,23.89,9012.482762,28.87001405,5.820003384,53.30380748,306.3,0,0,1024,1024,1024,1024,0,0,94,3.946,3.982,3.997,3.988,0,0,17,Joystick,
37.613298,-119.021065,9010.182762,26.57001397,4.250007045,27.01545362,32840,2017/07/27 21:17:38,14,23.89,9012.482762,28.87001405,5.820003384,53.30380748,306.9,0,0,1024,1024,1024,1024,0,0,94,3.946,3.982,3.997,3.988,0,0,17,Joystick,
37.613298,-119.021067,9009.862749,26.25000084,4.250007045,27.57244183,32950,2017/07/27 21:17:38,14,23.81,9012.482762,28.87001405,5.820003384,53.30380748,307.6,0,0,1024,1024,1024,1024,0,0,93,3.946,3.982,3.997,3.988,0,0,17,Joystick,
37.613298,-119.021071,9009.862749,26.25000084,4.250007045,28.68891168,33060,2017/07/27 21:17:39,14,23.81,9012.482762,28.87001405,5.820003384,53.30380748,309,0,0,1024,1024,1024,1024,0,0,93,3.946,3.982,3.997,3.988,0,0,17,Joystick,
37.613298,-119.021074,9009.862749,26.25000084,4.260006167,29.52828178,33190,2017/07/27 21:17:39,14,23.81,9012.482762,28.87001405,5.820003384,53.30380748,309.7,0,0,1024,1024,1024,1024,0,0,93,3.946,3.982,3.997,3.988,0,0,17,Joystick,
37.613298,-119.021078,9009.862749,26.25000084,4.260006167,30.64980413,33360,2017/07/27 21:17:39,14,23.81,9012.482762,28.87001405,5.820003384,53.30380748,311,0,0,1024,1024,1024,1024,0,0,93,3.946,3.982,3.997,3.988,0,0,17,Joystick,
37.613298,-119.021082,9009.532762,25.92001395,4.030003996,31.77381991,33610,2017/07/27 21:17:39,14,23.81,9012.482762,28.87001405,5.820003384,53.30380748,312.1,0,0,1024,1024,1024,1024,0,0,93,3.946,3.982,3.997,3.988,0,0,17,Joystick,
37.613299,-119.021084,9009.532762,25.92001395,4.030003996,32.25630024,33710,2017/07/27 21:17:39,14,23.81,9012.482762,28.87001405,5.820003384,53.30380748,312.7,0,0,1024,1024,1024,1024,0,0,93,3.946,3.982,3.997,3.988,0,0,17,Joystick,
37.613299,-119.021086,9009.532762,25.92001395,4.030003996,32.82119528,33820,2017/07/27 21:17:39,14,23.81,9012.482762,28.87001405,5.820003384,53.30380748,313.4,0,0,1024,1024,1024,1024,0,0,93,3.946,3.982,3.997,3.988,0,0,17,Joystick,
37.613299,-119.021088,9009.532762,25.92001395,4.030003996,33.38615592,33960,2017/07/27 21:17:39,14,23.796,9012.482762,28.87001405,5.820003384,53.30380748,314,0,0,1024,1024,1024,1024,0,0,93,3.946,3.982,3.997,3.988,0,0,17,Joystick,
37.613299,-119.021092,9009.202743,25.58999426,3.800001825,34.51804572,34070,2017/07/27 21:17:40,14,23.796,9012.482762,28.87001405,5.820003384,53.30380748,315.1,0,0,1024,1024,1024,1024,0,0,93,3.946,3.982,3.997,3.988,0,0,17,Joystick,
37.613299,-119.021096,9009.202743,25.58999426,3.800001825,35.65124786,34350,2017/07/27 21:17:40,13,23.796,9012.482762,28.87001405,5.820003384,53.30380748,316.3,0,0,1024,1024,1024,1024,0,0,93,3.946,3.982,3.997,3.988,0,0,17,Joystick,
37.613299,-119.021098,9009.202743,25.58999426,3.800001825,36.2185051,34460,2017/07/27 21:17:40,13,23.796,9012.482762,28.87001405,5.820003384,53.30380748,317,0,0,1024,1024,1024,1024,0,0,93,3.946,3.982,3.997,3.988,0,0,17,Joystick,
37.613299,-119.021102,9008.872756,25.26000737,3.579998776,37.35367574,34590,2017/07/27 21:17:40,13,23.796,9012.482762,28.87001405,5.820003384,53.30380748,318.5,0,0,1024,1024,1024,1024,0,0,93,3.946,3.982,3.997,3.988,0,0,17,Joystick,
37.613299,-119.021104,9009.202743,25.58999426,3.579998776,37.92191722,34720,2017/07/27 21:17:40,13,23.796,9012.482762,28.87001405,5.820003384,53.30380748,319.3,0,0,1024,1024,1024,1024,0,0,93,3.946,3.982,3.997,3.988,0,0,17,Joystick,
37.613299,-119.021108,9009.532762,25.92001395,3.359995727,39.05905637,34900,2017/07/27 21:17:40,14,23.796,9012.482762,28.87001405,5.820003384,53.30380748,320.9,0,0,1024,1024,1024,1024,0,0,93,3.946,3.982,3.997,3.988,0,0,17,Joystick,
37.613299,-119.02111,9009.532762,25.92001395,3.359995727,39.62795402,35080,2017/07/27 21:17:41,14,23.796,9012.482762,28.87001405,5.820003384,53.30380748,321.8,0,0,1024,1024,1024,1024,0,0,93,3.946,3.982,3.997,3.988,0,0,17,Joystick,
37.613299,-119.021111,9009.532762,25.92001395,3.130015926,39.91273094,35220,2017/07/27 21:17:41,14,23.796,9012.482762,28.87001405,5.820003384,53.30380748,322.9,0,0,1024,1024,1024,1024,0,0,93,3.946,3.982,3.997,3.988,0,0,17,Joystick,
37.613299,-119.021115,9009.532762,25.92001395,3.130015926,41.0515105,35340,2017/07/27 21:17:41,13,23.796,9012.482762,28.87001405,5.820003384,53.30380748,325,0,0,1024,1024,1024,1024,0,0,93,3.946,3.982,3.997,3.988,0,0,17,Joystick,
37.613299,-119.021118,9009.532762,25.92001395,3.140015047,41.9064974,35510,2017/07/27 21:17:41,12,23.796,9012.482762,28.87001405,5.820003384,53.30380748,326.7,0,0,1024,1024,1024,1024,0,0,93,3.946,3.982,3.997,3.988,0,0,17,Joystick,
