latitude,longitude,altitude(feet),ascent(feet),speed(mph),distance(feet),time(millisecond),datetime(utc),satellites,voltage(v),max_altitude(feet),max_ascent(feet),max_speed(mph),max_distance(feet),compass_heading(degrees),isPhoto,isVideo,rc_elevator,rc_aileron,rc_throttle,rc_rudder,gimbal_heading(degrees),gimbal_pitch(degrees),battery_percent,voltageCell1,voltageCell2,voltageCell3,voltageCell4,voltageCell5,voltageCell6,flycStateRaw,flycState,message
37.613331,-119.021021,9039.187836,55.45013301,3.82999919,0,380,2017/07/27 21:34:13,14,0,9039.187836,55.45013301,3.82999919,0,278.1,0,0,1024,1024,1024,1024,0,0,70,3.795,3.83,3.777,3.808,0,0,17,Joystick,
37.61333,-119.021019,9039.187836,55.45013301,3.82999919,0.683543329,510,2017/07/27 21:34:14,14,0,9039.187836,55.45013301,3.82999919,0.683543329,278,0,0,1024,1024,1024,1024,0,0,70,3.795,3.83,3.777,3.808,0,0,17,Joystick,
37.61333,-119.021017,9038.857783,55.1200805,4.050002239,1.212263818,610,2017/07/27 21:34:14,14,0,9039.187836,55.45013301,4.050002239,1.212263818,278,0,0,1024,1024,1024,1024,0,0,70,3.795,3.83,3.777,3.808,0,0,17,Joystick,
37.613329,-119.021013,9038.527731,54.790028,4.079999605,2.424530917,730,2017/07/27 21:34:14,14,0,9039.187836,55.45013301,4.079999605,2.424530917,278.3,0,0,1024,1024,1024,1024,0,0,70,3.795,3.83,3.777,3.808,0,0,17,Joystick,
37.613329,-119.021011,9038.527731,54.790028,4.079999605,2.98083999,850,2017/07/27 21:34:14,14,0,9039.187836,55.45013301,4.079999605,2.98083999,278.2,0,0,1024,1024,1024,1024,0,0,70,3.795,3.83,3.777,3.808,0,0,17,Joystick,
37.613328,-119.021009,9038.527731,54.790028,4.079999605,3.636778332,1010,2017/07/27 21:34:14,14,22.8,9039.187836,55.45013301,4.079999605,3.636778332,278,0,0,1024,1024,1024,1024,0,0,70,3.795,3.83,3.777,3.808,0,0,17,Joystick,
37.613328,-119.021007,9038.527731,54.790028,4.050002239,4.191633992,1120,2017/07/27 21:34:14,14,22.8,9039.187836,55.45013301,4.079999605,4.191633992,277.8,0,0,1024,1024,1024,1024,0,0,70,3.795,3.83,3.777,3.808,0,0,17,Joystick,
37.613328,-119.021005,9038.527731,54.790028,4.050002239,4.752001464,1220,2017/07/27 21:34:14,14,22.8,9039.187836,55.45013301,4.079999605,4.752001464,277.7,0,0,1024,1024,1024,1024,0,0,70,3.795,3.83,3.777,3.808,0,0,17,Joystick,
37.613327,-119.021003,9038.527731,54.790028,4.050002239,5.403084162,1340,2017/07/27 21:34:14,14,22.8,9039.187836,55.45013301,4.079999605,5.403084162,277.7,0,0,1024,1024,1024,1024,0,0,70,3.795,3.83,3.777,3.808,0,0,17,Joystick,
37.613327,-119.020999,9038.527731,54.790028,4.050002239,6.523655064,1460,2017/07/27 21:34:14,14,22.8,9039.187836,55.45013301,4.079999605,6.523655064,278,0,0,1024,1024,1024,1024,0,0,70,3.795,3.83,3.777,3.808,0,0,17,Joystick,
37.613326,-119.020997,9038.527731,54.790028,4.050002239,7.172211516,1630,2017/07/27 21:34:15,14,22.8,9039.187836,55.45013301,4.079999605,7.172211516,278.1,0,0,1024,1024,1024,1024,0,0,70,3.795,3.83,3.777,3.808,0,0,17,Joystick,
37.613326,-119.020995,9038.527731,54.790028,3.82999919,7.732644604,1740,2017/07/27 21:34:15,14,22.8,9039.187836,55.45013301,4.079999605,7.732644604,278.2,0,0,1024,1024,1024,1024,0,0,70,3.795,3.83,3.777,3.808,0,0,17,Joystick,
37.613326,-119.020993,9038.527731,54.790028,3.810000947,8.295472706,1860,2017/07/27 21:34:15,14,22.8,9039.187836,55.45013301,4.079999605,8.295472706,278.3,0,0,1024,1024,1024,1024,0,0,70,3.795,3.83,3.777,3.808,0,0,17,Joystick,
37.613326,-119.020989,9038.197678,54.4599755,3.810000947,9.42667353,1980,2017/07/27 21:34:15,14,22.665,9039.187836,55.45013301,4.079999605,9.42667353,278.8,0,0,1024,1024,1024,1024,0,0,69,3.77,3.813,3.783,3.785,0,0,17,Joystick,
37.613326,-119.020987,9038.197678,54.4599755,3.810000947,9.994390084,2090,2017/07/27 21:34:15,14,22.665,9039.187836,55.45013301,4.079999605,9.994390084,279.1,0,0,1024,1024,1024,1024,0,0,69,3.77,3.813,3.783,3.785,0,0,17,Joystick,
37.613325,-119.020985,9038.197678,54.4599755,3.589997898,10.63231661,2260,2017/07/27 21:34:15,14,22.665,9039.187836,55.45013301,4.079999605,10.63231661,279.5,0,0,1024,1024,1024,1024,0,0,69,3.77,3.813,3.783,3.785,0,0,17,Joystick,
37.613325,-119.020983,9038.197678,54.4599755,3.589997898,11.1985896,2360,2017/07/27 21:34:15,14,22.665,9039.187836,55.45013301,4.079999605,11.1985896,279.7,0,0,1024,1024,1024,1024,0,0,69,3.77,3.813,3.783,3.785,0,0,17,Joystick,
37.613325,-119.020979,9038.527731,54.790028,3.579998776,12.33441641,2530,2017/07/27 21:34:16,14,22.665,9039.187836,55.45013301,4.079999605,12.33441641,280.2,0,0,1024,1024,1024,1024,0,0,69,3.77,3.813,3.783,3.785,0,0,17,Joystick,
37.613325,-119.020977,9038.527731,54.790028,3.579998776,12.90367495,2680,2017/07/27 21:34:16,14,22.665,9039.187836,55.45013301,4.079999605,12.90367495,280.7,0,0,1024,1024,1024,1024,0,0,69,3.77,3.813,3.783,3.785,0,0,17,Joystick,
37.613325,-119.020973,9038.857783,55.1200805,3.579998776,14.0443574,2810,2017/07/27 21:34:16,14,22.665,9039.187836,55.45013301,4.079999605,14.0443574,281.9,0,0,1024,1024,1024,1024,0,0,69,3.77,3.813,3.783,3.785,0,0,17,Joystick,
37.613325,-119.020972,9038.857783,55.1200805,3.589997898,14.32992172,2960,2017/07/27 21:34:16,14,22.58,9039.187836,55.45013301,4.079999605,14.32992172,282.6,0,0,1024,1024,1024,1024,0,0,69,3.77,3.813,3.783,3.785,0,0,17,Joystick,
37.613325,-119.02097,9038.857783,55.1200805,3.589997898,14.90141124,3070,2017/07/27 21:34:16,14,22.58,9039.187836,55.45013301,4.079999605,14.90141124,283.2,0,0,1024,1024,1024,1024,0,0,69,3.77,3.813,3.783,3.785,0,0,17,Joystick,
37.613325,-119.020968,9038.857783,55.1200805,3.589997898,15.47339288,3180,2017/07/27 21:34:16,14,22.58,9039.187836,55.45013301,4.079999605,15.47339288,283.6,0,0,1024,1024,1024,1024,0,0,69,3.77,3.813,3.783,3.785,0,0,17,Joystick,
37.613325,-119.020964,9039.187836,55.45013301,3.609996141,16.6186357,3340,2017/07/27 21:34:16,14,22.58,9039.187836,55.45013301,4.079999605,16.6186357,284.2,0,0,1024,1024,1024,1024,0,0,69,3.77,3.813,3.783,3.785,0,0,17,Joystick,
37.613325,-119.020963,9039.187836,55.45013301,3.420012827,16.90518427,3450,2017/07/27 21:34:16,14,22.58,9039.187836,55.45013301,4.079999605,16.90518427,284.4,0,0,1024,1024,1024,1024,0,0,69,3.77,3.813,3.783,3.785,0,0,17,Joystick,
37.613324,-119.020961,9039.187836,55.45013301,3.470008436,17.52795332,3580,2017/07/27 21:34:17,14,22.58,9039.187836,55.45013301,4.079999605,17.52795332,284.6,0,0,1024,1024,1024,1024,0,0,69,3.77,3.813,3.783,3.785,0,0,17,Joystick,
37.613324,-119.020958,9039.187836,55.45013301,2.700008949,18.38615544,3700,2017/07/27 21:34:17,14,22.58,9039.187836,55.45013301,4.079999605,18.38615544,285.7,0,0,1024,1024,1024,1024,0,0,69,3.77,3.813,3.783,3.785,0,0,17,Joystick,
37.613323,-119.020957,9039.507717,55.77001491,2.110002603,18.72582081,3890,2017/07/27 21:34:17,14,22.58,9039.507717,55.77001491,4.079999605,18.72582081,285.1,0,0,1024,1024,1024,1024,0,0,69,3.77,3.813,3.783,3.785,0,0,17,Joystick,
37.613323,-119.020956,9040.167822,56.43011992,0.950001575,19.01135231,3990,2017/07/27 21:34:17,14,22.614,9040.167822,56.43011992,4.079999605,19.01135231,283.3,0,0,1024,1024,1024,1024,0,0,69,3.77,3.813,3.783,3.785,0,0,17,Joystick,
37.613322,-119.020956,9040.497547,56.75984434,0.450000746,19.07076833,4150,2017/07/27 21:34:17,14,22.614,9040.497547,56.75984434,4.079999605,19.07076833,282.5,0,0,1024,1024,1024,1024,0,0,69,3.77,3.813,3.783,3.785,0,0,17,Joystick,
37.613322,-119.020956,9040.827599,57.08989684,0.320000978,19.07076833,4250,2017/07/27 21:34:17,14,22.614,9040.827599,57.08989684,4.079999605,19.07076833,281.9,0,0,1024,1024,1024,1024,0,0,69,3.77,3.813,3.783,3.785,0,0,17,Joystick,
37.613323,-119.020957,9040.827599,57.08989684,0.670001558,18.72582081,4410,2017/07/27 21:34:17,14,22.614,9040.827599,57.08989684,4.079999605,19.07076833,281.3,0,0,1024,1024,1024,1024,0,0,69,3.77,3.813,3.783,3.785,0,0,17,Joystick,
37.613323,-119.020958,9041.147809,57.41010682,1.36000136,18.44038773,4510,2017/07/27 21:34:18,14,22.614,9041.147809,57.41010682,4.079999605,19.07076833,280.9,0,0,1024,1024,1024,1024,0,0,69,3.77,3.813,3.783,3.785,0,0,17,Joystick,
37.613324,-119.020959,9041.477862,57.74015933,1.800002984,18.10000058,4610,2017/07/27 21:34:18,14,22.614,9041.477862,57.74015933,4.079999605,19.07076833,281,0,0,1024,1024,1024,1024,0,0,69,3.77,3.813,3.783,3.785,0,0,17,Joystick,
37.613324,-119.02096,9041.477862,57.74015933,2.06000252,17.81391133,4710,2017/07/27 21:34:18,14,22.614,9041.477862,57.74015933,4.079999605,19.07076833,281.1,0,0,1024,1024,1024,1024,0,0,69,3.77,3.813,3.783,3.785,0,0,17,Joystick,
37.613325,-119.020961,9041.807586,58.06988375,2.280001095,17.47851106,4810,2017/07/27 21:34:18,14,22.614,9041.807586,58.06988375,4.079999605,19.07076833,281.3,0,0,1024,1024,1024,1024,0,0,69,3.77,3.813,3.783,3.785,0,0,17,Joystick,
37.613325,-119.020962,9041.807586,58.06988375,2.500004144,17.19179845,4920,2017/07/27 21:34:18,14,22.614,9041.807586,58.06988375,4.079999605,19.07076833,281.4,0,0,1024,1024,1024,1024,0,0,69,3.77,3.813,3.783,3.785,0,0,17,Joystick,
37.613326,-119.020965,9042.137639,58.39993625,2.980006729,16.28730367,5050,2017/07/27 21:34:18,14,22.573,9042.137639,58.39993625,4.079999605,19.07076833,281.9,0,0,1024,1024,1024,1024,0,0,69,3.77,3.813,3.783,3.785,0,0,17,Joystick,
37.613327,-119.020966,9042.137639,58.39993625,3.200009778,15.96266455,5150,2017/07/27 21:34:18,14,22.573,9042.137639,58.39993625,4.079999605,19.07076833,282.1,0,0,1024,1024,1024,1024,0,0,69,3.77,3.813,3.783,3.785,0,0,17,Joystick,
37.613328,-119.020968,9042.467691,58.72998876,3.200009778,15.35682464,5250,2017/07/27 21:34:18,14,22.573,9042.467691,58.72998876,4.079999605,19.07076833,282.4,0,0,1024,1024,1024,1024,0,0,69,3.77,3.813,3.783,3.785,0,0,17,Joystick,
37.613328,-119.02097,9042.467691,58.72998876,3.420012827,14.78031543,5350,2017/07/27 21:34:18,14,22.573,9042.467691,58.72998876,4.079999605,19.07076833,282.9,0,0,1024,1024,1024,1024,0,0,69,3.77,3.813,3.783,3.785,0,0,17,Joystick,
37.613329,-119.020972,9042.467691,58.72998876,3.420012827,14.18051226,5500,2017/07/27 21:34:19,14,22.573,9042.467691,58.72998876,4.079999605,19.07076833,283.3,0,0,1024,1024,1024,1024,0,0,69,3.77,3.813,3.783,3.785,0,0,17,Joystick,
37.61333,-119.020973,9042.797744,59.06004126,3.420012827,13.87749388,5620,2017/07/27 21:34:19,14,22.573,9042.797744,59.06004126,4.079999605,19.07076833,283.7,0,0,1024,1024,1024,1024,0,0,69,3.77,3.813,3.783,3.785,0,0,17,Joystick,
37.613331,-119.020977,9043.117626,59.37992316,3.910014534,12.71663427,5730,2017/07/27 21:34:19,14,22.573,9043.117626,59.37992316,4.079999605,19.07076833,284.5,0,0,1024,1024,1024,1024,0,0,69,3.77,3.813,3.783,3.785,0,0,17,Joystick,
37.613332,-119.020979,9043.447678,59.70997566,3.910014534,12.14409488,5870,2017/07/27 21:34:19,14,22.573,9043.447678,59.70997566,4.079999605,19.07076833,284.8,0,0,1024,1024,1024,1024,0,0,69,3.77,3.813,3.783,3.785,0,0,17,Joystick,
37.613332,-119.020981,9044.107783,60.37008067,4.119996092,11.56633895,5980,2017/07/27 21:34:19,14,22.626,9044.107783,60.37008067,4.119996092,19.07076833,285,0,0,1024,1024,1024,1024,0,0,69,3.77,3.813,3.783,3.785,0,0,17,Joystick,
37.613333,-119.020984,9044.437836,60.70013318,4.180013192,10.71840585,6080,2017/07/27 21:34:19,14,22.626,9044.437836,60.70013318,4.180013192,19.07076833,285,0,0,1024,1024,1024,1024,0,0,69,3.77,3.813,3.783,3.785,0,0,17,Joystick,
37.613333,-119.020986,9044.757718,61.02001508,4.390017119,10.14179822,6180,2017/07/27 21:34:19,14,22.626,9044.757718,61.02001508,4.390017119,19.07076833,284.5,0,0,1024,1024,1024,1024,0,0,69,3.77,3.813,3.783,3.785,0,0,17,Joystick,
37.613334,-119.020988,9045.08777,61.35006758,4.390017119,9.600098732,6310,2017/07/27 21:34:19,14,22.626,9045.08777,61.35006758,4.390017119,19.07076833,283.9,0,0,1024,1024,1024,1024,0,0,69,3.77,3.813,3.783,3.785,0,0,17,Joystick,
37.613335,-119.020991,9045.08777,61.35006758,4.339999141,8.792388733,6410,2017/07/27 21:34:19,14,22.626,9045.08777,61.35006758,4.390017119,19.07076833,283.5,0,0,1024,1024,1024,1024,0,0,69,3.77,3.813,3.783,3.785,0,0,17,Joystick,
37.613335,-119.020993,9045.417823,61.68012008,4.339999141,8.222966142,6530,2017/07/27 21:34:20,14,22.626,9045.417823,61.68012008,4.390017119,19.07076833,283.3,0,0,1024,1024,1024,1024,0,0,69,3.77,3.813,3.783,3.785,0,0,17,Joystick,
37.613336,-119.020998,9045.417823,61.68012008,4.520005703,6.893110457,6660,2017/07/27 21:34:20,14,22.626,9045.417823,61.68012008,4.520005703,19.07076833,282.7,0,0,1024,1024,1024,1024,0,0,69,3.77,3.813,3.783,3.785,0,0,17,Joystick,
37.613336,-119.021,9045.417823,61.68012008,4.520005703,6.337533011,6770,2017/07/27 21:34:20,14,22.626,9045.417823,61.68012008,4.520005703,19.07076833,282.4,0,0,1024,1024,1024,1024,0,0,69,3.77,3.813,3.783,3.785,0,0,17,Joystick,
37.613337,-119.021003,9045.417823,61.68012008,4.520005703,5.644094669,6950,2017/07/27 21:34:20,14,22.692,9045.417823,61.68012008,4.520005703,19.07076833,282.1,0,0,1024,1024,1024,1024,0,0,69,3.742,3.789,3.769,3.77,0,0,17,Joystick,
37.613337,-119.021008,9045.747547,62.0098445,4.270005288,4.348392528,7060,2017/07/27 21:34:20,14,22.692,9045.747547,62.0098445,4.520005703,19.07076833,281.7,0,0,1024,1024,1024,1024,0,0,69,3.742,3.789,3.769,3.77,0,0,17,Joystick,
37.613338,-119.02101,9045.747547,62.0098445,4.050002239,4.077952886,7200,2017/07/27 21:34:20,14,22.692,9045.747547,62.0098445,4.520005703,19.07076833,281.7,0,0,1024,1024,1024,1024,0,0,69,3.742,3.789,3.769,3.77,0,0,17,Joystick,
37.613338,-119.021012,9045.417823,61.68012008,4.030003996,3.645341324,7320,2017/07/27 21:34:20,14,22.692,9045.747547,62.0098445,4.520005703,19.07076833,282.1,0,0,1024,1024,1024,1024,0,0,69,3.742,3.789,3.769,3.77,0,0,17,Joystick,
37.613338,-119.021017,9045.417823,61.68012008,4.480009216,2.803408882,7470,2017/07/27 21:34:20,14,22.692,9045.747547,62.0098445,4.520005703,19.07076833,282,0,0,1024,1024,1024,1024,0,0,69,3.742,3.789,3.769,3.77,0,0,17,Joystick,
37.613338,-119.02102,9045.417823,61.68012008,4.480009216,2.570246145,7570,2017/07/27 21:34:21,14,22.692,9045.747547,62.0098445,4.520005703,19.07076833,281.4,0,0,1024,1024,1024,1024,0,0,69,3.742,3.789,3.769,3.77,0,0,17,Joystick,
37.613338,-119.021022,9045.417823,61.68012008,4.480009216,2.570246145,7670,2017/07/27 21:34:21,14,22.692,9045.747547,62.0098445,4.520005703,19.07076833,280.9,0,0,1024,1024,1024,1024,0,0,69,3.742,3.789,3.769,3.77,0,0,17,Joystick,
37.613338,-119.021025,9045.08777,61.35006758,4.480009216,2.803408882,7840,2017/07/27 21:34:21,14,22.692,9045.747547,62.0098445,4.520005703,19.07076833,280.2,0,0,1024,1024,1024,1024,0,0,69,3.742,3.789,3.769,3.77,0,0,17,Joystick,
37.613338,-119.02103,9044.757718,61.02001508,4.470010094,3.645341324,7980,2017/07/27 21:34:21,14,22.652,9045.747547,62.0098445,4.520005703,19.07076833,279.3,0,0,1024,1024,1024,1024,0,0,69,3.742,3.789,3.769,3.77,0,0,17,Joystick,
37.613338,-119.021032,9044.757718,61.02001508,4.700012265,4.077952886,8080,2017/07/27 21:34:21,14,22.652,9045.747547,62.0098445,4.700012265,19.07076833,278.8,0,0,1024,1024,1024,1024,0,0,69,3.742,3.789,3.769,3.77,0,0,17,Joystick,
37.613338,-119.021035,9044.437836,60.70013318,4.700012265,4.784809864,8180,2017/07/27 21:34:21,14,22.652,9045.747547,62.0098445,4.700012265,19.07076833,278.2,0,0,1024,1024,1024,1024,0,0,69,3.742,3.789,3.769,3.77,0,0,17,Joystick,
37.613338,-119.021037,9044.107783,60.37008067,4.700012265,5.282644526,8290,2017/07/27 21:34:21,14,22.652,9045.747547,62.0098445,4.700012265,19.07076833,277.9,0,0,1024,1024,1024,1024,0,0,69,3.742,3.789,3.769,3.77,0,0,17,Joystick,
37.613337,-119.021043,9044.107783,60.37008067,4.700012265,6.724606514,8510,2017/07/27 21:34:22,14,22.652,9045.747547,62.0098445,4.700012265,19.07076833,277.8,0,0,1024,1024,1024,1024,0,0,69,3.742,3.789,3.769,3.77,0,0,17,Joystick,
37.613337,-119.021045,9043.777731,60.04002817,4.700012265,7.273589472,8660,2017/07/27 21:34:22,14,22.652,9045.747547,62.0098445,4.700012265,19.07076833,278,0,0,1024,1024,1024,1024,0,0,69,3.742,3.789,3.769,3.77,0,0,17,Joystick,
37.613337,-119.021051,9043.117626,59.37992316,4.930014435,8.942519971,8800,2017/07/27 21:34:22,14,22.652,9045.747547,62.0098445,4.930014435,19.07076833,278.4,0,0,1024,1024,1024,1024,0,0,69,3.742,3.789,3.769,3.77,0,0,17,Joystick,
37.613336,-119.021053,9043.117626,59.37992316,4.930014435,9.42667353,8910,2017/07/27 21:34:22,14,22.652,9045.747547,62.0098445,4.930014435,19.07076833,278.3,0,0,1024,1024,1024,1024,0,0,69,3.742,3.789,3.769,3.77,0,0,17,Joystick,
37.613336,-119.021056,9042.797744,59.06004126,4.930014435,10.27867487,9030,2017/07/27 21:34:22,14,22.652,9045.747547,62.0098445,4.930014435,19.07076833,277.8,0,0,1024,1024,1024,1024,0,0,69,3.742,3.789,3.769,3.77,0,0,17,Joystick,
37.613336,-119.021061,9042.137639,58.39993625,4.720010508,11.70364211,9170,2017/07/27 21:34:22,14,22.652,9045.747547,62.0098445,4.930014435,19.07076833,277.1,0,0,1024,1024,1024,1024,0,0,69,3.742,3.789,3.769,3.77,0,0,17,Joystick,
37.613335,-119.021064,9042.137639,58.39993625,4.500007459,12.51302533,9290,2017/07/27 21:34:22,14,22.652,9045.747547,62.0098445,4.930014435,19.07076833,277.3,0,0,1024,1024,1024,1024,0,0,69,3.742,3.789,3.769,3.77,0,0,17,Joystick,
37.613335,-119.021066,9041.807586,58.06988375,4.270005288,13.08727076,9400,2017/07/27 21:34:22,14,22.652,9045.747547,62.0098445,4.930014435,19.07076833,278,0,0,1024,1024,1024,1024,0,0,69,3.742,3.789,3.769,3.77,0,0,17,Joystick,
37.613334,-119.021071,9041.477862,57.74015933,4.270005288,14.49212645,9560,2017/07/27 21:34:23,14,22.652,9045.747547,62.0098445,4.930014435,19.07076833,280,0,0,1024,1024,1024,1024,0,0,69,3.742,3.789,3.769,3.77,0,0,17,Joystick,
37.613334,-119.021073,9041.147809,57.41010682,4.270005288,15.06857004,9660,2017/07/27 21:34:23,14,22.652,9045.747547,62.0098445,4.930014435,19.07076833,281.1,0,0,1024,1024,1024,1024,0,0,69,3.742,3.789,3.769,3.77,0,0,17,Joystick,
37.613334,-119.021075,9040.827599,57.08989684,4.270005288,15.64511205,9780,2017/07/27 21:34:23,14,22.652,9045.747547,62.0098445,4.930014435,19.07076833,282.3,0,0,1024,1024,1024,1024,0,0,69,3.742,3.789,3.769,3.77,0,0,17,Joystick,
37.613334,-119.021078,9040.827599,57.08989684,4.270005288,16.51013832,9910,2017/07/27 21:34:23,14,22.652,9045.747547,62.0098445,4.930014435,19.07076833,283.4,0,0,1024,1024,1024,1024,0,0,69,3.742,3.789,3.769,3.77,0,0,17,Joystick,
37.613333,-119.02108,9040.497547,56.75984434,4.270005288,17.06745461,10020,2017/07/27 21:34:23,14,22.551,9045.747547,62.0098445,4.930014435,19.07076833,284.4,0,0,1024,1024,1024,1024,0,0,68,3.742,3.789,3.769,3.77,0,0,17,Joystick,
37.613333,-119.021085,9040.497547,56.75984434,4.270005288,18.51131949,10120,2017/07/27 21:34:23,14,22.551,9045.747547,62.0098445,4.930014435,19.07076833,286.4,0,0,1024,1024,1024,1024,0,0,68,3.742,3.789,3.769,3.77,0,0,17,Joystick,
37.613332,-119.021087,9040.167822,56.43011992,4.260006167,19.07844549,10340,2017/07/27 21:34:23,14,22.551,9045.747547,62.0098445,4.930014435,19.07844549,286.9,0,0,1024,1024,1024,1024,0,0,68,3.742,3.789,3.769,3.77,0,0,17,Joystick,
37.613332,-119.021092,9039.83777,56.10006741,4.250007045,20.52329462,10460,2017/07/27 21:34:23,14,22.551,9045.747547,62.0098445,4.930014435,20.52329462,287.7,0,0,1024,1024,1024,1024,0,0,68,3.742,3.789,3.769,3.77,0,0,17,Joystick,
37.613332,-119.021094,9039.83777,56.10006741,4.250007045,21.10121459,10570,2017/07/27 21:34:24,14,22.551,9045.747547,62.0098445,4.930014435,21.10121459,288.3,0,0,1024,1024,1024,1024,0,0,68,3.742,3.789,3.769,3.77,0,0,17,Joystick,
37.613332,-119.021096,9040.167822,56.43011992,4.250007045,21.67916736,10730,2017/07/27 21:34:24,14,22.551,9045.747547,62.0098445,4.930014435,21.67916736,289,0,0,1024,1024,1024,1024,0,0,68,3.742,3.789,3.769,3.77,0,0,17,Joystick,
37.613332,-119.021098,9040.497547,56.75984434,4.030003996,22.25712013,10830,2017/07/27 21:34:24,14,22.551,9045.747547,62.0098445,4.930014435,22.25712013,289.8,0,0,1024,1024,1024,1024,0,0,68,3.742,3.789,3.769,3.77,0,0,17,Joystick,
37.613332,-119.021101,9040.827599,57.08989684,3.800001825,23.1240493,10940,2017/07/27 21:34:24,14,22.551,9045.747547,62.0098445,4.930014435,23.1240493,290.7,0,0,1024,1024,1024,1024,0,0,68,3.742,3.789,3.769,3.77,0,0,17,Joystick,
37.613332,-119.021104,9041.477862,57.74015933,3.589997898,23.99097846,11090,2017/07/27 21:34:24,14,22.551,9045.747547,62.0098445,4.930014435,23.99097846,292.5,0,0,1024,1024,1024,1024,0,0,68,3.742,3.789,3.769,3.77,0,0,17,Joystick,
37.613332,-119.021106,9041.807586,58.06988375,3.359995727,24.56896404,11240,2017/07/27 21:34:24,14,22.551,9045.747547,62.0098445,4.930014435,24.56896404,293.2,0,0,1024,1024,1024,1024,0,0,68,3.742,3.789,3.769,3.77,0,0,17,Joystick,
37.613332,-119.02111,9042.137639,58.39993625,3.359995727,25.7249024,11360,2017/07/27 21:34:24,14,22.551,9045.747547,62.0098445,4.930014435,25.7249024,294.6,0,0,1024,1024,1024,1024,0,0,68,3.742,3.789,3.769,3.77,0,0,17,Joystick,
37.613332,-119.021112,9042.467691,58.72998876,3.140015047,26.30285517,11540,2017/07/27 21:34:25,14,22.551,9045.747547,62.0098445,4.930014435,26.30285517,295.3,0,0,1024,1024,1024,1024,0,0,68,3.742,3.789,3.769,3.77,0,0,17,Joystick,
37.613332,-119.021113,9042.467691,58.72998876,3.130015926,26.59186437,11660,2017/07/27 21:34:25,14,22.551,9045.747547,62.0098445,4.930014435,26.59186437,296.2,0,0,1024,1024,1024,1024,0,0,68,3.742,3.789,3.769,3.77,0,0,17,Joystick,
37.613332,-119.021117,9042.467691,58.72998876,3.130015926,27.74780273,11810,2017/07/27 21:34:25,14,22.551,9045.747547,62.0098445,4.930014435,27.74780273,298.1,0,0,1024,1024,1024,1024,0,0,68,3.742,3.789,3.769,3.77,0,0,17,Joystick,
37.613332,-119.021119,9042.467691,58.72998876,3.130015926,28.32578831,11960,2017/07/27 21:34:25,14,22.422,9045.747547,62.0098445,4.930014435,28.32578831,299.2,0,0,1024,1024,1024,1024,0,0,68,3.722,3.749,3.745,3.73,0,0,17,Joystick,
37.613332,-119.02112,9042.467691,58.72998876,2.910012877,28.6147647,12070,2017/07/27 21:34:25,14,22.422,9045.747547,62.0098445,4.930014435,28.6147647,300.2,0,0,1024,1024,1024,1024,0,0,68,3.722,3.749,3.745,3.73,0,0,17,Joystick,
37.613332,-119.021124,9042.797744,59.06004126,2.910012877,29.77073586,12170,2017/07/27 21:34:25,14,22.422,9045.747547,62.0098445,4.930014435,29.77073586,302.4,0,0,1024,1024,1024,1024,0,0,68,3.722,3.749,3.745,3.73,0,0,17,Joystick,
37.613332,-119.021127,9042.797744,59.06004126,2.910012877,30.63773064,12440,2017/07/27 21:34:25,14,22.422,9045.747547,62.0098445,4.930014435,30.63773064,304.6,0,0,1024,1024,1024,1024,0,0,68,3.722,3.749,3.745,3.73,0,0,17,Joystick,
37.613332,-119.021129,9043.117626,59.37992316,2.910012877,31.21571622,12550,2017/07/27 21:34:26,14,22.422,9045.747547,62.0098445,4.930014435,31.21571622,305.8,0,0,1024,1024,1024,1024,0,0,68,3.722,3.749,3.745,3.73,0,0,17,Joystick,
37.613332,-119.021132,9042.797744,59.06004126,2.910012877,32.082711,12670,2017/07/27 21:34:26,14,22.422,9045.747547,62.0098445,4.930014435,32.082711,308.7,0,0,1024,1024,1024,1024,0,0,68,3.722,3.749,3.745,3.73,0,0,17,Joystick,
37.613332,-119.021135,9042.797744,59.06004126,2.910012877,32.9498042,12880,2017/07/27 21:34:26,14,22.422,9045.747547,62.0098445,4.930014435,32.9498042,312.1,0,0,1024,1024,1024,1024,0,0,68,3.722,3.749,3.745,3.73,0,0,17,Joystick,
37.613332,-119.021139,9042.797744,59.06004126,2.910012877,34.10564414,13090,2017/07/27 21:34:26,14,22.422,9045.747547,62.0098445,4.930014435,34.10564414,316,0,0,1024,1024,1024,1024,0,0,68,3.722,3.749,3.745,3.73,0,0,17,Joystick,
37.613332,-119.02114,9042.797744,59.06004126,2.910012877,34.39468614,13260,2017/07/27 21:34:26,14,22.422,9045.747547,62.0098445,4.930014435,34.39468614,318.1,0,0,1024,1024,1024,1024,0,0,68,3.722,3.749,3.745,3.73,0,0,17,Joystick,
37.613332,-119.021143,9042.467691,58.72998876,2.910012877,35.26181215,13410,2017/07/27 21:34:26,14,22.422,9045.747547,62.0098445,4.930014435,35.26181215,322.3,0,0,1024,1024,1024,1024,0,0,68,3.722,3.749,3.745,3.73,0,0,17,Joystick,
37.613332,-119.021146,9042.467691,58.72998876,2.920011998,36.12861008,13530,2017/07/27 21:34:27,14,22.422,9045.747547,62.0098445,4.930014435,36.12861008,325.8,0,0,1024,1024,1024,1024,0,0,68,3.722,3.749,3.745,3.73,0,0,17,Joystick,
37.613332,-119.021148,9042.467691,58.72998876,2.920011998,36.70669409,13700,2017/07/27 21:34:27,14,22.422,9045.747547,62.0098445,4.930014435,36.70669409,327.6,0,0,1024,1024,1024,1024,0,0,68,3.722,3.749,3.745,3.73,0,0,17,Joystick,
37.613333,-119.02115,9042.137639,58.39993625,2.920011998,37.29002744,13820,2017/07/27 21:34:27,14,22.422,9045.747547,62.0098445,4.930014435,37.29002744,329.7,0,0,1024,1024,1024,1024,0,0,68,3.722,3.749,3.745,3.73,0,0,17,Joystick,
37.613333,-119.021151,9041.807586,58.06988375,2.920011998,37.57906944,13980,2017/07/27 21:34:27,14,22.645,9045.747547,62.0098445,4.930014435,37.57906944,331.9,0,0,1024,1024,1024,1024,0,0,68,3.722,3.749,3.745,3.73,0,0,17,Joystick,
37.613333,-119.021154,9040.167822,56.43011992,2.910012877,38.44586737,14090,2017/07/27 21:34:27,14,22.645,9045.747547,62.0098445,4.930014435,38.44586737,336.4,0,0,1024,1024,1024,1024,0,0,68,3.722,3.749,3.745,3.73,0,0,17,Joystick,
37.613333,-119.021156,9039.507717,55.77001491,2.910012877,39.02395138,14210,2017/07/27 21:34:27,14,22.645,9045.747547,62.0098445,4.930014435,39.02395138,338.7,0,0,1024,1024,1024,1024,0,0,68,3.722,3.749,3.745,3.73,0,0,17,Joystick,
37.613333,-119.021158,9038.857783,55.1200805,2.500004144,39.6017073,14310,2017/07/27 21:34:27,14,22.645,9045.747547,62.0098445,4.930014435,39.6017073,341,0,0,1024,1024,1024,1024,0,0,68,3.722,3.749,3.745,3.73,0,0,17,Joystick,
37.613333,-119.021159,9038.527731,54.790028,2.06000252,39.89074931,14420,2017/07/27 21:34:27,14,22.645,9045.747547,62.0098445,4.930014435,39.89074931,343.2,0,0,1024,1024,1024,1024,0,0,68,3.722,3.749,3.745,3.73,0,0,17,Joystick,
37.613332,-119.021161,9037.867625,54.12992299,1.610001774,40.46358397,14610,2017/07/27 21:34:28,14,22.645,9045.747547,62.0098445,4.930014435,40.46358397,348.9,0,0,1024,1024,1024,1024,0,0,68,3.722,3.749,3.745,3.73,0,0,17,Joystick,
37.613332,-119.021161,9037.867625,54.12992299,1.430001923,40.46358397,14720,2017/07/27 21:34:28,14,22.645,9045.747547,62.0098445,4.930014435,40.46358397,352.1,0,0,1024,1024,1024,1024,0,0,68,3.722,3.749,3.745,3.73,0,0,17,Joystick,
37.613331,-119.021162,9037.867625,54.12992299,1.500002486,40.75098556,14840,2017/07/27 21:34:28,14,22.645,9045.747547,62.0098445,4.930014435,40.75098556,355.7,0,0,1024,1024,1024,1024,0,0,68,3.722,3.749,3.745,3.73,0,0,17,Joystick,
37.61333,-119.021163,9037.867625,54.12992299,1.840003945,41.04166798,14940,2017/07/27 21:34:28,14,22.645,9045.747547,62.0098445,4.930014435,41.04166798,359.2,0,0,1024,1024,1024,1024,0,0,68,3.722,3.749,3.745,3.73,0,0,17,Joystick,
37.613329,-119.021164,9038.197678,54.4599755,2.240004608,41.33563124,15040,2017/07/27 21:34:28,14,22.641,9045.747547,62.0098445,4.930014435,41.33563124,4.8,0,0,1024,1024,1024,1024,0,0,68,3.722,3.749,3.745,3.73,0,0,17,Joystick,
37.613327,-119.021164,9038.527731,54.790028,2.500004144,41.3549882,15150,2017/07/27 21:34:28,14,22.641,9045.747547,62.0098445,4.930014435,41.3549882,6.4,0,0,1024,1024,1024,1024,0,0,68,3.722,3.749,3.745,3.73,0,0,17,Joystick,
37.613326,-119.021163,9038.527731,54.790028,2.700008949,41.08070998,15330,2017/07/27 21:34:28,14,22.641,9045.747547,62.0098445,4.930014435,41.3549882,7.9,0,0,1024,1024,1024,1024,0,0,68,3.722,3.749,3.745,3.73,0,0,17,Joystick,
37.613324,-119.021162,9038.527731,54.790028,2.530001509,40.83103805,15440,2017/07/27 21:34:28,14,22.641,9045.747547,62.0098445,4.930014435,41.3549882,10.7,0,0,1024,1024,1024,1024,0,0,68,3.722,3.749,3.745,3.73,0,0,17,Joystick,
37.613324,-119.021162,9038.527731,54.790028,2.549999753,40.83103805,15600,2017/07/27 21:34:29,14,22.641,9045.747547,62.0098445,4.930014435,41.3549882,11.7,0,0,1024,1024,1024,1024,0,0,68,3.722,3.749,3.745,3.73,0,0,17,Joystick,
37.613322,-119.02116,9038.527731,54.790028,2.619993606,40.3070879,15740,2017/07/27 21:34:29,14,22.641,9045.747547,62.0098445,4.930014435,41.3549882,12.7,0,0,1024,1024,1024,1024,0,0,68,3.722,3.749,3.745,3.73,0,0,17,Joystick,
37.613322,-119.021159,9038.527731,54.790028,2.619993606,40.01903015,15860,2017/07/27 21:34:29,14,22.641,9045.747547,62.0098445,4.930014435,41.3549882,12.6,0,0,1024,1024,1024,1024,0,0,68,3.722,3.749,3.745,3.73,0,0,17,Joystick,
37.613321,-119.021158,9038.527731,54.790028,2.980006729,39.76279655,15960,2017/07/27 21:34:29,14,22.259,9045.747547,62.0098445,4.930014435,41.3549882,12.3,0,0,1024,1024,1024,1024,0,0,68,3.722,3.749,3.745,3.73,0,0,17,Joystick,
37.613321,-119.021156,9038.857783,55.1200805,3.200009778,39.18733721,16140,2017/07/27 21:34:29,14,22.259,9045.747547,62.0098445,4.930014435,41.3549882,11.9,0,0,1024,1024,1024,1024,0,0,68,3.722,3.749,3.745,3.73,0,0,17,Joystick,
37.61332,-119.021153,9039.187836,55.45013301,3.82999919,38.36056553,16260,2017/07/27 21:34:29,14,22.259,9045.747547,62.0098445,4.930014435,41.3549882,10.9,0,0,1024,1024,1024,1024,0,0,68,3.722,3.749,3.745,3.73,0,0,17,Joystick,
37.613319,-119.021151,9039.187836,55.45013301,4.050002239,37.8261167,16380,2017/07/27 21:34:29,13,22.259,9045.747547,62.0098445,4.930014435,41.3549882,10.3,0,0,1024,1024,1024,1024,0,0,68,3.722,3.749,3.745,3.73,0,0,17,Joystick,
37.613319,-119.021149,9039.507717,55.77001491,4.270005288,37.2519697,16500,2017/07/27 21:34:30,13,22.259,9045.747547,62.0098445,4.930014435,41.3549882,9.7,0,0,1024,1024,1024,1024,0,0,68,3.722,3.749,3.745,3.73,0,0,17,Joystick,
37.613319,-119.021146,9039.83777,56.10006741,4.500007459,36.39107728,16640,2017/07/27 21:34:30,13,22.259,9045.747547,62.0098445,4.930014435,41.3549882,8.9,0,0,1024,1024,1024,1024,0,0,68,3.722,3.749,3.745,3.73,0,0,17,Joystick,
37.613318,-119.021144,9040.167822,56.43011992,4.940013557,35.86384629,16770,2017/07/27 21:34:30,13,22.259,9045.747547,62.0098445,4.940013557,41.3549882,8.1,0,0,1024,1024,1024,1024,0,0,68,3.722,3.749,3.745,3.73,0,0,17,Joystick,
37.613318,-119.021139,9040.827599,57.08989684,5.160016606,34.43208772,16910,2017/07/27 21:34:30,13,22.259,9045.747547,62.0098445,5.160016606,41.3549882,6.2,0,0,1024,1024,1024,1024,0,0,68,3.722,3.749,3.745,3.73,0,0,17,Joystick,
37.613317,-119.021136,9041.147809,57.41010682,5.369998164,33.62696958,17040,2017/07/27 21:34:30,13,22.48,9045.747547,62.0098445,5.369998164,41.3549882,4.9,0,0,1024,1024,1024,1024,0,0,68,3.705,3.749,3.722,3.71,0,0,17,Joystick,
37.613317,-119.021133,9041.147809,57.41010682,5.600000335,32.77017821,17160,2017/07/27 21:34:30,13,22.48,9045.747547,62.0098445,5.600000335,41.3549882,3.5,0,0,1024,1024,1024,1024,0,0,68,3.705,3.749,3.722,3.71,0,0,17,Joystick,
37.613317,-119.021127,9041.477862,57.74015933,5.820003384,31.05846556,17300,2017/07/27 21:34:30,13,22.48,9045.747547,62.0098445,5.820003384,41.3549882,0.2,0,0,1024,1024,1024,1024,0,0,68,3.705,3.749,3.722,3.71,0,0,17,Joystick,
37.613316,-119.021124,9041.807586,58.06988375,5.820003384,30.26738942,17400,2017/07/27 21:34:30,13,22.48,9045.747547,62.0098445,5.820003384,41.3549882,358.4,0,0,1024,1024,1024,1024,0,0,68,3.705,3.749,3.722,3.71,0,0,17,Joystick,
37.613316,-119.021121,9041.807586,58.06988375,6.040006433,29.41506,17610,2017/07/27 21:34:31,13,22.48,9045.747547,62.0098445,6.040006433,41.3549882,356.2,0,0,1024,1024,1024,1024,0,0,68,3.705,3.749,3.722,3.71,0,0,17,Joystick,
37.613316,-119.021115,9043.117626,59.37992316,6.260009482,27.71312425,17760,2017/07/27 21:34:31,14,22.48,9045.747547,62.0098445,6.260009482,41.3549882,351.2,0,0,1024,1024,1024,1024,0,0,68,3.705,3.749,3.722,3.71,0,0,17,Joystick,
37.613316,-119.021108,9044.107783,60.37008067,6.260009482,25.73297326,17910,2017/07/27 21:34:31,14,22.48,9045.747547,62.0098445,6.260009482,41.3549882,345.7,0,0,1024,1024,1024,1024,0,0,68,3.705,3.749,3.722,3.71,0,0,17,Joystick,
37.613316,-119.021105,9044.437836,60.70013318,6.490011653,24.88645093,18010,2017/07/27 21:34:31,14,22.689,9045.747547,62.0098445,6.490011653,41.3549882,342.8,0,0,1024,1024,1024,1024,0,0,67,3.705,3.749,3.722,3.71,0,0,17,Joystick,
37.613316,-119.021101,9044.437836,60.70013318,6.490011653,23.76004013,18120,2017/07/27 21:34:31,14,22.689,9045.747547,62.0098445,6.490011653,41.3549882,339.8,0,0,1024,1024,1024,1024,0,0,67,3.705,3.749,3.722,3.71,0,0,17,Joystick,
37.613316,-119.021098,9044.757718,61.02001508,6.490011653,22.91719233,18230,2017/07/27 21:34:31,14,22.689,9045.747547,62.0098445,6.490011653,41.3549882,336.9,0,0,1024,1024,1024,1024,0,0,67,3.705,3.749,3.722,3.71,0,0,17,Joystick,
37.613316,-119.021091,9045.417823,61.68012008,6.270008604,20.95816996,18390,2017/07/27 21:34:31,14,22.689,9045.747547,62.0098445,6.490011653,41.3549882,331.5,0,0,1024,1024,1024,1024,0,0,67,3.705,3.749,3.722,3.71,0,0,17,Joystick,
37.613316,-119.021088,9045.417823,61.68012008,6.270008604,20.12250721,18510,2017/07/27 21:34:32,14,22.689,9045.747547,62.0098445,6.490011653,41.3549882,328.8,0,0,1024,1024,1024,1024,0,0,67,3.705,3.749,3.722,3.71,0,0,17,Joystick,
37.613317,-119.021085,9045.747547,62.0098445,6.270008604,19.18923946,18620,2017/07/27 21:34:32,14,22.689,9045.747547,62.0098445,6.490011653,41.3549882,326,0,0,1024,1024,1024,1024,0,0,67,3.705,3.749,3.722,3.71,0,0,17,Joystick,
37.613317,-119.021079,9045.747547,62.0098445,6.280007725,17.52378665,18770,2017/07/27 21:34:32,14,22.689,9045.747547,62.0098445,6.490011653,41.3549882,320.7,0,0,1024,1024,1024,1024,0,0,67,3.705,3.749,3.722,3.71,0,0,17,Joystick,
37.613317,-119.021075,9045.747547,62.0098445,6.280007725,16.4213916,18920,2017/07/27 21:34:32,14,22.689,9045.747547,62.0098445,6.490011653,41.3549882,318.1,0,0,1024,1024,1024,1024,0,0,67,3.705,3.749,3.722,3.71,0,0,17,Joystick,
37.613318,-119.021072,9045.747547,62.0098445,6.270008604,15.48408842,19020,2017/07/27 21:34:32,14,22.675,9045.747547,62.0098445,6.490011653,41.3549882,315.6,0,0,1024,1024,1024,1024,0,0,67,3.705,3.749,3.722,3.71,0,0,17,Joystick,
37.613318,-119.021069,9045.747547,62.0098445,6.040006433,14.66112252,19140,2017/07/27 21:34:32,14,22.675,9045.747547,62.0098445,6.490011653,41.3549882,313.1,0,0,1024,1024,1024,1024,0,0,67,3.705,3.749,3.722,3.71,0,0,17,Joystick,
37.613318,-119.021062,9046.0776,62.33989701,6.040006433,12.76358309,19300,2017/07/27 21:34:32,14,22.675,9046.0776,62.33989701,6.490011653,41.3549882,308.5,0,0,1024,1024,1024,1024,0,0,67,3.705,3.749,3.722,3.71,0,0,17,Joystick,
37.613318,-119.021059,9046.397809,62.66010699,6.040006433,11.96299251,19430,2017/07/27 21:34:32,14,22.675,9046.397809,62.66010699,6.490011653,41.3549882,306.5,0,0,1024,1024,1024,1024,0,0,67,3.705,3.749,3.722,3.71,0,0,17,Joystick,
37.613319,-119.021056,9046.397809,62.66010699,6.040006433,11.02234287,19540,2017/07/27 21:34:33,14,22.675,9046.397809,62.66010699,6.490011653,41.3549882,304.6,0,0,1024,1024,1024,1024,0,0,67,3.705,3.749,3.722,3.71,0,0,17,Joystick,
37.613319,-119.021053,9046.397809,62.66010699,6.040006433,10.23244783,19640,2017/07/27 21:34:33,14,22.675,9046.397809,62.66010699,6.490011653,41.3549882,302.9,0,0,1024,1024,1024,1024,0,0,67,3.705,3.749,3.722,3.71,0,0,17,Joystick,
37.613319,-119.02105,9046.727862,62.9901595,5.820003384,9.456037048,19750,2017/07/27 21:34:33,14,22.675,9046.727862,62.9901595,6.490011653,41.3549882,301.3,0,0,1024,1024,1024,1024,0,0,67,3.705,3.749,3.722,3.71,0,0,17,Joystick,
37.61332,-119.021044,9046.727862,62.9901595,5.830002506,7.76492807,19900,2017/07/27 21:34:33,14,22.675,9046.727862,62.9901595,6.490011653,41.3549882,298.6,0,0,1024,1024,1024,1024,0,0,67,3.705,3.749,3.722,3.71,0,0,17,Joystick,
37.61332,-119.021041,9047.057586,63.31988392,5.820003384,7.036942482,20010,2017/07/27 21:34:33,14,22.675,9047.057586,63.31988392,6.490011653,41.3549882,297.5,0,0,1024,1024,1024,1024,0,0,67,3.705,3.749,3.722,3.71,0,0,17,Joystick,
37.61332,-119.021038,9047.057586,63.31988392,5.600000335,6.344061883,20160,2017/07/27 21:34:33,14,22.675,9047.057586,63.31988392,6.490011653,41.3549882,296.8,0,0,1024,1024,1024,1024,0,0,67,3.705,3.749,3.722,3.71,0,0,17,Joystick,
37.613321,-119.021032,9047.057586,63.31988392,5.600000335,4.839271808,20280,2017/07/27 21:34:33,14,22.675,9047.057586,63.31988392,6.490011653,41.3549882,295.7,0,0,1024,1024,1024,1024,0,0,67,3.705,3.749,3.722,3.71,0,0,17,Joystick,
37.613321,-119.021029,9047.057586,63.31988392,5.600000335,4.31942271,20430,2017/07/27 21:34:33,14,22.675,9047.057586,63.31988392,6.490011653,41.3549882,295.3,0,0,1024,1024,1024,1024,0,0,67,3.705,3.749,3.722,3.71,0,0,17,Joystick,
37.613321,-119.021026,9047.057586,63.31988392,5.369998164,3.924245532,20550,2017/07/27 21:34:34,14,22.675,9047.057586,63.31988392,6.490011653,41.3549882,295.1,0,0,1024,1024,1024,1024,0,0,67,3.705,3.749,3.722,3.71,0,0,17,Joystick,
37.613321,-119.021023,9046.727862,62.9901595,5.369998164,3.693996181,20660,2017/07/27 21:34:34,14,22.675,9047.057586,63.31988392,6.490011653,41.3549882,294.9,0,0,1024,1024,1024,1024,0,0,67,3.705,3.749,3.722,3.71,0,0,17,Joystick,
37.613322,-119.021018,9046.727862,62.9901595,5.150017484,3.396194334,20760,2017/07/27 21:34:34,14,22.675,9047.057586,63.31988392,6.490011653,41.3549882,294.4,0,0,1024,1024,1024,1024,0,0,67,3.705,3.749,3.722,3.71,0,0,17,Joystick,
37.613322,-119.021015,9046.397809,62.66010699,5.150017484,3.713418754,20880,2017/07/27 21:34:34,14,22.675,9047.057586,63.31988392,6.490011653,41.3549882,294.1,0,0,1024,1024,1024,1024,0,0,67,3.705,3.749,3.722,3.71,0,0,17,Joystick,
37.613322,-119.021012,9046.0776,62.33989701,5.150017484,4.189042129,21000,2017/07/27 21:34:34,14,22.548,9047.057586,63.31988392,6.490011653,41.3549882,293.8,0,0,1024,1024,1024,1024,0,0,67,3.705,3.749,3.722,3.71,0,0,17,Joystick,
37.613322,-119.02101,9045.747547,62.0098445,4.920015314,4.570505396,21110,2017/07/27 21:34:34,14,22.548,9047.057586,63.31988392,6.490011653,41.3549882,293.5,0,0,1024,1024,1024,1024,0,0,67,3.705,3.749,3.722,3.71,0,0,17,Joystick,
37.613322,-119.021007,9045.417823,61.68012008,4.920015314,5.210958172,21270,2017/07/27 21:34:34,14,22.548,9047.057586,63.31988392,6.490011653,41.3549882,293.3,0,0,1024,1024,1024,1024,0,0,67,3.705,3.749,3.722,3.71,0,0,17,Joystick,
37.613323,-119.021002,9044.757718,61.02001508,4.700012265,6.218799412,21460,2017/07/27 21:34:34,14,22.548,9047.057586,63.31988392,6.490011653,41.3549882,293.1,0,0,1024,1024,1024,1024,0,0,67,3.705,3.749,3.722,3.71,0,0,17,Joystick,
37.613323,-119.021,9044.757718,61.02001508,4.700012265,6.734678693,21570,2017/07/27 21:34:35,14,22.548,9047.057586,63.31988392,6.490011653,41.3549882,293,0,0,1024,1024,1024,1024,0,0,67,3.705,3.749,3.722,3.71,0,0,17,Joystick,
37.613323,-119.020995,9044.437836,60.70013318,4.470010094,8.061351964,21680,2017/07/27 21:34:35,14,22.548,9047.057586,63.31988392,6.490011653,41.3549882,292.6,0,0,1024,1024,1024,1024,0,0,67,3.705,3.749,3.722,3.71,0,0,17,Joystick,
37.613323,-119.020993,9044.107783,60.37008067,4.470010094,8.602690564,21820,2017/07/27 21:34:35,14,22.548,9047.057586,63.31988392,6.490011653,41.3549882,292.2,0,0,1024,1024,1024,1024,0,0,67,3.705,3.749,3.722,3.71,0,0,17,Joystick,
37.613323,-119.02099,9044.107783,60.37008067,4.470010094,9.422900564,22000,2017/07/27 21:34:35,14,22.613,9047.057586,63.31988392,6.490011653,41.3549882,291.9,0,0,1024,1024,1024,1024,0,0,67,3.75,3.781,3.754,3.765,0,0,17,Joystick,
37.613323,-119.020986,9044.107783,60.37008067,4.250007045,10.52818275,22110,2017/07/27 21:34:35,14,22.613,9047.057586,63.31988392,6.490011653,41.3549882,291,0,0,1024,1024,1024,1024,0,0,67,3.75,3.781,3.754,3.765,0,0,17,Joystick,
37.613323,-119.020983,9044.107783,60.37008067,4.250007045,11.3638127,22230,2017/07/27 21:34:35,14,22.613,9047.057586,63.31988392,6.490011653,41.3549882,290.5,0,0,1024,1024,1024,1024,0,0,67,3.75,3.781,3.754,3.765,0,0,17,Joystick,
37.613324,-119.020981,9044.107783,60.37008067,4.250007045,11.83933765,22360,2017/07/27 21:34:35,14,22.613,9047.057586,63.31988392,6.490011653,41.3549882,290,0,0,1024,1024,1024,1024,0,0,67,3.75,3.781,3.754,3.765,0,0,17,Joystick,
37.613324,-119.020979,9044.107783,60.37008067,4.250007045,12.40436391,22480,2017/07/27 21:34:35,14,22.613,9047.057586,63.31988392,6.490011653,41.3549882,289.5,0,0,1024,1024,1024,1024,0,0,67,3.75,3.781,3.754,3.765,0,0,17,Joystick,
37.613324,-119.020977,9044.107783,60.37008067,4.250007045,12.97057128,22590,2017/07/27 21:34:36,14,22.613,9047.057586,63.31988392,6.490011653,41.3549882,289,0,0,1024,1024,1024,1024,0,0,67,3.75,3.781,3.754,3.765,0,0,17,Joystick,
37.613324,-119.020972,9043.777731,60.04002817,4.030003996,14.39015794,22700,2017/07/27 21:34:36,14,22.613,9047.057586,63.31988392,6.490011653,41.3549882,288.1,0,0,1024,1024,1024,1024,0,0,67,3.75,3.781,3.754,3.765,0,0,17,Joystick,
37.613324,-119.02097,9044.107783,60.37008067,4.030003996,14.95938368,22810,2017/07/27 21:34:36,14,22.613,9047.057586,63.31988392,6.490011653,41.3549882,287.8,0,0,1024,1024,1024,1024,0,0,67,3.75,3.781,3.754,3.765,0,0,17,Joystick,
37.613325,-119.020968,9044.107783,60.37008067,4.030003996,15.47339288,22910,2017/07/27 21:34:36,14,22.613,9047.057586,63.31988392,6.490011653,41.3549882,287.4,0,0,1024,1024,1024,1024,0,0,67,3.75,3.781,3.754,3.765,0,0,17,Joystick,
37.613325,-119.020966,9044.107783,60.37008067,4.030003996,16.04583385,23020,2017/07/27 21:34:36,14,22.399,9047.057586,63.31988392,6.490011653,41.3549882,287.2,0,0,1024,1024,1024,1024,0,0,67,3.75,3.781,3.754,3.765,0,0,17,Joystick,
37.613325,-119.020962,9044.437836,60.70013318,4.030003996,17.19179845,23180,2017/07/27 21:34:36,14,22.399,9047.057586,63.31988392,6.490011653,41.3549882,287,0,0,1024,1024,1024,1024,0,0,67,3.75,3.781,3.754,3.765,0,0,17,Joystick,
37.613326,-119.02096,9044.437836,60.70013318,4.030003996,17.72401632,23300,2017/07/27 21:34:36,14,22.399,9047.057586,63.31988392,6.490011653,41.3549882,286.8,0,0,1024,1024,1024,1024,0,0,67,3.75,3.781,3.754,3.765,0,0,17,Joystick,
37.613326,-119.020958,9044.437836,60.70013318,3.810000947,18.29908195,23400,2017/07/27 21:34:36,14,22.399,9047.057586,63.31988392,6.490011653,41.3549882,286.4,0,0,1024,1024,1024,1024,0,0,67,3.75,3.781,3.754,3.765,0,0,17,Joystick,
37.613326,-119.020956,9044.757718,61.02001508,3.810000947,18.87431163,23520,2017/07/27 21:34:37,14,22.399,9047.057586,63.31988392,6.490011653,41.3549882,286.1,0,0,1024,1024,1024,1024,0,0,67,3.75,3.781,3.754,3.765,0,0,17,Joystick,
37.613326,-119.020954,9044.757718,61.02001508,3.810000947,19.44970535,23620,2017/07/27 21:34:37,14,22.399,9047.057586,63.31988392,6.490011653,41.3549882,285.8,0,0,1024,1024,1024,1024,0,0,67,3.75,3.781,3.754,3.765,0,0,17,Joystick,
37.613327,-119.020952,9044.757718,61.02001508,3.810000947,19.99534185,23730,2017/07/27 21:34:37,14,22.399,9047.057586,63.31988392,6.490011653,41.3549882,285.4,0,0,1024,1024,1024,1024,0,0,67,3.75,3.781,3.754,3.765,0,0,17,Joystick,
37.613327,-119.02095,9044.757718,61.02001508,3.810000947,20.57188386,23830,2017/07/27 21:34:37,14,22.399,9047.057586,63.31988392,6.490011653,41.3549882,285.1,0,0,1024,1024,1024,1024,0,0,67,3.75,3.781,3.754,3.765,0,0,17,Joystick,
37.613327,-119.020948,9044.757718,61.02001508,3.810000947,21.14849149,23940,2017/07/27 21:34:37,14,22.399,9047.057586,63.31988392,6.490011653,41.3549882,284.7,0,0,1024,1024,1024,1024,0,0,67,3.75,3.781,3.754,3.765,0,0,17,Joystick,
37.613327,-119.020944,9044.757718,61.02001508,3.589997898,22.30193641,24100,2017/07/27 21:34:37,14,22.399,9047.057586,63.31988392,6.490011653,41.3549882,284.1,0,0,1024,1024,1024,1024,0,0,67,3.75,3.781,3.754,3.765,0,0,17,Joystick,
37.613328,-119.020941,9045.08777,61.35006758,3.589997898,23.14704798,24230,2017/07/27 21:34:37,14,22.399,9047.057586,63.31988392,6.490011653,41.3549882,283.3,0,0,1024,1024,1024,1024,0,0,67,3.75,3.781,3.754,3.765,0,0,17,Joystick,
37.613328,-119.020939,9045.08777,61.35006758,3.589997898,23.72447582,24340,2017/07/27 21:34:37,14,22.399,9047.057586,63.31988392,6.490011653,41.3549882,282.9,0,0,1024,1024,1024,1024,0,0,67,3.75,3.781,3.754,3.765,0,0,17,Joystick,
37.613328,-119.020937,9045.08777,61.35006758,3.589997898,24.30190366,24520,2017/07/27 21:34:38,14,22.399,9047.057586,63.31988392,6.490011653,41.3549882,282.6,0,0,1024,1024,1024,1024,0,0,67,3.75,3.781,3.754,3.765,0,0,17,Joystick,
37.613329,-119.020935,9045.08777,61.35006758,3.589997898,24.86597849,24660,2017/07/27 21:34:38,14,22.399,9047.057586,63.31988392,6.490011653,41.3549882,282.4,0,0,1024,1024,1024,1024,0,0,67,3.75,3.781,3.754,3.765,0,0,17,Joystick,
37.613329,-119.020931,9044.757718,61.02001508,3.589997898,26.02155595,24790,2017/07/27 21:34:38,14,22.399,9047.057586,63.31988392,6.490011653,41.3549882,282,0,0,1024,1024,1024,1024,0,0,67,3.75,3.781,3.754,3.765,0,0,17,Joystick,
37.613329,-119.020928,9044.757718,61.02001508,3.359995727,26.88825545,24960,2017/07/27 21:34:38,14,22.454,9047.057586,63.31988392,6.490011653,41.3549882,281.6,0,0,1024,1024,1024,1024,0,0,67,3.75,3.781,3.754,3.765,0,0,17,Joystick,
37.61333,-119.020926,9044.757718,61.02001508,3.359995727,27.45882634,25080,2017/07/27 21:34:38,14,22.454,9047.057586,63.31988392,6.490011653,41.3549882,281.4,0,0,1024,1024,1024,1024,0,0,67,3.75,3.781,3.754,3.765,0,0,17,Joystick,
37.61333,-119.020924,9044.757718,61.02001508,3.359995727,28.03677911,25200,2017/07/27 21:34:38,14,22.454,9047.057586,63.31988392,6.490011653,41.3549882,281.1,0,0,1024,1024,1024,1024,0,0,67,3.75,3.781,3.754,3.765,0,0,17,Joystick,
37.61333,-119.020923,9044.757718,61.02001508,3.359995727,28.32578831,25330,2017/07/27 21:34:38,14,22.454,9047.057586,63.31988392,6.490011653,41.3549882,280.8,0,0,1024,1024,1024,1024,0,0,67,3.75,3.781,3.754,3.765,0,0,17,Joystick,
37.61333,-119.02092,9044.757718,61.02001508,3.140015047,29.19275028,25460,2017/07/27 21:34:38,14,22.454,9047.057586,63.31988392,6.490011653,41.3549882,280.2,0,0,1024,1024,1024,1024,0,0,67,3.75,3.781,3.754,3.765,0,0,17,Joystick,
37.613331,-119.020918,9044.757718,61.02001508,3.130015926,29.76850489,25570,2017/07/27 21:34:39,14,22.454,9047.057586,63.31988392,6.490011653,41.3549882,279.9,0,0,1024,1024,1024,1024,0,0,67,3.75,3.781,3.754,3.765,0,0,17,Joystick,
37.613331,-119.020916,9044.437836,60.70013318,3.130015926,30.34652328,25690,2017/07/27 21:34:39,14,22.454,9047.057586,63.31988392,6.490011653,41.3549882,279.5,0,0,1024,1024,1024,1024,0,0,67,3.75,3.781,3.754,3.765,0,0,17,Joystick,
37.613331,-119.020913,9044.437836,60.70013318,3.130015926,31.21358368,25870,2017/07/27 21:34:39,14,22.454,9047.057586,63.31988392,6.490011653,41.3549882,278.8,0,0,1024,1024,1024,1024,0,0,67,3.75,3.781,3.754,3.765,0,0,17,Joystick,
37.613331,-119.02091,9044.107783,60.37008067,3.130015926,32.08061126,26070,2017/07/27 21:34:39,14,22.454,9047.057586,63.31988392,6.490011653,41.3549882,278.5,0,0,1024,1024,1024,1024,0,0,67,3.75,3.781,3.754,3.765,0,0,17,Joystick,
37.613332,-119.020907,9043.777731,60.04002817,3.130015926,32.9498042,26310,2017/07/27 21:34:39,14,22.454,9047.057586,63.31988392,6.490011653,41.3549882,278.2,0,0,1024,1024,1024,1024,0,0,67,3.75,3.781,3.754,3.765,0,0,17,Joystick,
37.613332,-119.020905,9043.777731,60.04002817,3.130015926,33.52756013,26440,2017/07/27 21:34:39,14,22.454,9047.057586,63.31988392,6.490011653,41.3549882,278,0,0,1024,1024,1024,1024,0,0,67,3.75,3.781,3.754,3.765,0,0,17,Joystick,
37.613332,-119.020902,9043.447678,59.70997566,2.910012877,34.39468614,26590,2017/07/27 21:34:40,14,22.454,9047.057586,63.31988392,6.490011653,41.3549882,277.9,0,0,1024,1024,1024,1024,0,0,67,3.75,3.781,3.754,3.765,0,0,17,Joystick,
37.613332,-119.020899,9043.447678,59.70997566,2.910012877,35.26181215,26800,2017/07/27 21:34:40,14,22.454,9047.057586,63.31988392,6.490011653,41.3549882,277.6,0,0,1024,1024,1024,1024,0,0,67,3.75,3.781,3.754,3.765,0,0,17,Joystick,
37.613332,-119.020897,9043.117626,59.37992316,2.910012877,35.83956808,26910,2017/07/27 21:34:40,14,22.454,9047.057586,63.31988392,6.490011653,41.3549882,277.6,0,0,1024,1024,1024,1024,0,0,67,3.75,3.781,3.754,3.765,0,0,17,Joystick,
37.613332,-119.020896,9043.117626,59.37992316,2.690009828,36.12861008,27040,2017/07/27 21:34:40,14,22.385,9047.057586,63.31988392,6.490011653,41.3549882,278.1,0,0,1024,1024,1024,1024,0,0,66,3.726,3.754,3.74,3.737,0,0,17,Joystick,
37.613332,-119.020895,9043.117626,59.37992316,2.549999753,36.41765208,27170,2017/07/27 21:34:40,14,22.385,9047.057586,63.31988392,6.490011653,41.3549882,278.7,0,0,1024,1024,1024,1024,0,0,66,3.726,3.754,3.74,3.737,0,0,17,Joystick,
37.613331,-119.020893,9043.117626,59.37992316,2.06000252,36.99376759,27310,2017/07/27 21:34:40,14,22.385,9047.057586,63.31988392,6.490011653,41.3549882,279,0,0,1024,1024,1024,1024,0,0,66,3.726,3.754,3.74,3.737,0,0,17,Joystick,
37.61333,-119.020892,9043.117626,59.37992316,1.910002271,37.2847781,27410,2017/07/27 21:34:40,14,22.385,9047.057586,63.31988392,6.490011653,41.3549882,277.7,0,0,1024,1024,1024,1024,0,0,66,3.726,3.754,3.74,3.737,0,0,17,Joystick,
37.613329,-119.020891,9043.117626,59.37992316,2.030002918,37.57906944,27620,2017/07/27 21:34:41,14,22.385,9047.057586,63.31988392,6.490011653,41.3549882,276.9,0,0,1024,1024,1024,1024,0,0,66,3.726,3.754,3.74,3.737,0,0,17,Joystick,
37.613328,-119.020892,9043.117626,59.37992316,2.240004608,37.29888571,27760,2017/07/27 21:34:41,14,22.385,9047.057586,63.31988392,6.490011653,41.3549882,276.5,0,0,1024,1024,1024,1024,0,0,66,3.726,3.754,3.74,3.737,0,0,17,Joystick,
37.613326,-119.020892,9043.447678,59.70997566,2.619993606,37.32742902,28020,2017/07/27 21:34:41,14,22.196,9047.057586,63.31988392,6.490011653,41.3549882,277.1,0,0,1024,1024,1024,1024,0,0,66,3.726,3.754,3.74,3.737,0,0,17,Joystick,
37.613325,-119.020893,9043.777731,60.04002817,2.800000167,37.05872822,28130,2017/07/27 21:34:41,14,22.196,9047.057586,63.31988392,6.490011653,41.3549882,277,0,0,1024,1024,1024,1024,0,0,66,3.726,3.754,3.74,3.737,0,0,17,Joystick,
37.613324,-119.020895,9044.107783,60.37008067,3.180011535,36.50525051,28300,2017/07/27 21:34:41,14,22.196,9047.057586,63.31988392,6.490011653,41.3549882,276.5,0,0,1024,1024,1024,1024,0,0,66,3.726,3.754,3.74,3.737,0,0,17,Joystick,
37.613323,-119.020897,9044.437836,60.70013318,3.300000996,35.95636598,28410,2017/07/27 21:34:41,14,22.196,9047.057586,63.31988392,6.490011653,41.3549882,276.7,0,0,1024,1024,1024,1024,0,0,66,3.726,3.754,3.74,3.737,0,0,17,Joystick,
37.613323,-119.020899,9044.437836,60.70013318,3.329998362,35.38025048,28550,2017/07/27 21:34:42,14,22.196,9047.057586,63.31988392,6.490011653,41.3549882,277,0,0,1024,1024,1024,1024,0,0,66,3.726,3.754,3.74,3.737,0,0,17,Joystick,
37.613322,-119.020902,9044.757718,61.02001508,3.640015876,34.5492137,28660,2017/07/27 21:34:42,14,22.196,9047.057586,63.31988392,6.490011653,41.3549882,277.6,0,0,1024,1024,1024,1024,0,0,66,3.726,3.754,3.74,3.737,0,0,17,Joystick,
37.613322,-119.020904,9045.08777,61.35006758,3.82999919,33.97375437,28840,2017/07/27 21:34:42,14,22.196,9047.057586,63.31988392,6.490011653,41.3549882,277.8,0,0,1024,1024,1024,1024,0,0,66,3.726,3.754,3.74,3.737,0,0,17,Joystick,
37.613322,-119.020907,9045.08777,61.35006758,4.050002239,33.11089345,28940,2017/07/27 21:34:42,14,22.196,9047.057586,63.31988392,6.490011653,41.3549882,277.8,0,0,1024,1024,1024,1024,0,0,66,3.726,3.754,3.74,3.737,0,0,17,Joystick,
37.613322,-119.020909,9045.08777,61.35006758,4.250007045,32.5357622,29060,2017/07/27 21:34:42,14,22.196,9047.057586,63.31988392,6.490011653,41.3549882,277.7,0,0,1024,1024,1024,1024,0,0,66,3.726,3.754,3.74,3.737,0,0,17,Joystick,
37.613322,-119.020913,9045.08777,61.35006758,4.470010094,31.38582778,29190,2017/07/27 21:34:42,14,22.196,9047.057586,63.31988392,6.490011653,41.3549882,277.5,0,0,1024,1024,1024,1024,0,0,66,3.726,3.754,3.74,3.737,0,0,17,Joystick,
37.613322,-119.020916,9044.757718,61.02001508,4.470010094,30.52365583,29320,2017/07/27 21:34:42,14,22.196,9047.057586,63.31988392,6.490011653,41.3549882,277.5,0,0,1024,1024,1024,1024,0,0,66,3.726,3.754,3.74,3.737,0,0,17,Joystick,
37.613322,-119.020918,9044.437836,60.70013318,4.700012265,29.94904951,29470,2017/07/27 21:34:42,14,22.196,9047.057586,63.31988392,6.490011653,41.3549882,277.6,0,0,1024,1024,1024,1024,0,0,66,3.726,3.754,3.74,3.737,0,0,17,Joystick,
37.613322,-119.020923,9044.107783,60.37008067,4.930014435,28.51315708,29660,2017/07/27 21:34:43,14,22.196,9047.057586,63.31988392,6.490011653,41.3549882,278.1,0,0,1024,1024,1024,1024,0,0,66,3.726,3.754,3.74,3.737,0,0,17,Joystick,
37.613321,-119.020928,9043.447678,59.70997566,4.940013557,27.12486963,29790,2017/07/27 21:34:43,14,22.196,9047.057586,63.31988392,6.490011653,41.3549882,279.1,0,0,1024,1024,1024,1024,0,0,66,3.726,3.754,3.74,3.737,0,0,17,Joystick,
37.613321,-119.020931,9043.117626,59.37992316,4.940013557,26.26594572,29940,2017/07/27 21:34:43,14,22.196,9047.057586,63.31988392,6.490011653,41.3549882,279.8,0,0,1024,1024,1024,1024,0,0,66,3.726,3.754,3.74,3.737,0,0,17,Joystick,
37.613321,-119.020936,9042.797744,59.06004126,4.940013557,24.83569633,30070,2017/07/27 21:34:43,14,22.196,9047.057586,63.31988392,6.490011653,41.3549882,281.2,0,0,1024,1024,1024,1024,0,0,66,3.726,3.754,3.74,3.737,0,0,17,Joystick,
37.613321,-119.020938,9042.467691,58.72998876,4.940013557,24.26407558,30180,2017/07/27 21:34:43,14,22.196,9047.057586,63.31988392,6.490011653,41.3549882,282,0,0,1024,1024,1024,1024,0,0,66,3.726,3.754,3.74,3.737,0,0,17,Joystick,
37.613321,-119.020941,9042.137639,58.39993625,4.940013557,23.40725141,30280,2017/07/27 21:34:43,14,22.196,9047.057586,63.31988392,6.490011653,41.3549882,283,0,0,1024,1024,1024,1024,0,0,66,3.726,3.754,3.74,3.737,0,0,17,Joystick,
37.613321,-119.020944,9042.137639,58.39993625,4.720010508,22.55121463,30390,2017/07/27 21:34:43,14,22.196,9047.057586,63.31988392,6.490011653,41.3549882,284,0,0,1024,1024,1024,1024,0,0,66,3.726,3.754,3.74,3.737,0,0,17,Joystick,
37.61332,-119.020946,9041.807586,58.06988375,4.700012265,22.04448889,30570,2017/07/27 21:34:44,14,22.196,9047.057586,63.31988392,6.490011653,41.3549882,285.2,0,0,1024,1024,1024,1024,0,0,66,3.726,3.754,3.74,3.737,0,0,17,Joystick,
37.61332,-119.020951,9041.477862,57.74015933,4.720010508,20.62526313,30690,2017/07/27 21:34:44,14,22.196,9047.057586,63.31988392,6.490011653,41.3549882,286.8,0,0,1024,1024,1024,1024,0,0,66,3.726,3.754,3.74,3.737,0,0,17,Joystick,
37.61332,-119.020954,9041.147809,57.41010682,4.720010508,19.77549276,30840,2017/07/27 21:34:44,14,22.196,9047.057586,63.31988392,6.490011653,41.3549882,287.2,0,0,1024,1024,1024,1024,0,0,66,3.726,3.754,3.74,3.737,0,0,17,Joystick,
37.61332,-119.020959,9040.827599,57.08989684,4.750007874,18.36286148,30980,2017/07/27 21:34:44,14,22.365,9047.057586,63.31988392,6.490011653,41.3549882,288,0,0,1024,1024,1024,1024,0,0,66,3.726,3.754,3.74,3.737,0,0,17,Joystick,
37.613319,-119.020964,9041.147809,57.41010682,4.750007874,17.04570265,31240,2017/07/27 21:34:44,14,22.365,9047.057586,63.31988392,6.490011653,41.3549882,288.2,0,0,1024,1024,1024,1024,0,0,66,3.726,3.754,3.74,3.737,0,0,17,Joystick,
37.613319,-119.020966,9041.147809,57.41010682,4.940013557,16.48773019,31390,2017/07/27 21:34:44,14,22.365,9047.057586,63.31988392,6.490011653,41.3549882,288.1,0,0,1024,1024,1024,1024,0,0,66,3.726,3.754,3.74,3.737,0,0,17,Joystick,
37.613318,-119.020972,9041.477862,57.74015933,5.190013972,14.93487581,31510,2017/07/27 21:34:45,14,22.365,9047.057586,63.31988392,6.490011653,41.3549882,287.2,0,0,1024,1024,1024,1024,0,0,66,3.726,3.754,3.74,3.737,0,0,17,Joystick,
37.613318,-119.020975,9041.477862,57.74015933,5.190013972,14.1154204,31660,2017/07/27 21:34:45,14,22.365,9047.057586,63.31988392,6.490011653,41.3549882,286.7,0,0,1024,1024,1024,1024,0,0,66,3.726,3.754,3.74,3.737,0,0,17,Joystick,
37.613318,-119.020977,9041.477862,57.74015933,5.160016606,13.57237576,31760,2017/07/27 21:34:45,14,22.365,9047.057586,63.31988392,6.490011653,41.3549882,286.1,0,0,1024,1024,1024,1024,0,0,66,3.726,3.754,3.74,3.737,0,0,17,Joystick,
37.613317,-119.020983,9041.807586,58.06988375,5.190013972,12.11227073,31910,2017/07/27 21:34:45,14,22.365,9047.057586,63.31988392,6.490011653,41.3549882,284.8,0,0,1024,1024,1024,1024,0,0,66,3.726,3.754,3.74,3.737,0,0,17,Joystick,
37.613317,-119.020986,9042.137639,58.39993625,5.160016606,11.33198855,32010,2017/07/27 21:34:45,14,22.092,9047.057586,63.31988392,6.490011653,41.3549882,284.3,0,0,1024,1024,1024,1024,0,0,66,3.663,3.7,3.684,3.686,0,0,17,Joystick,
37.613316,-119.020995,9042.467691,58.72998876,5.190013972,9.29606329,32290,2017/07/27 21:34:45,14,22.092,9047.057586,63.31988392,6.490011653,41.3549882,283.3,0,0,1024,1024,1024,1024,0,0,66,3.663,3.7,3.684,3.686,0,0,17,Joystick,
37.613316,-119.020997,9042.797744,59.06004126,5.190013972,8.835367737,32420,2017/07/27 21:34:45,14,22.092,9047.057586,63.31988392,6.490011653,41.3549882,283.3,0,0,1024,1024,1024,1024,0,0,66,3.663,3.7,3.684,3.686,0,0,17,Joystick,
37.613315,-119.021003,9043.117626,59.37992316,5.160016606,7.81925878,32540,2017/07/27 21:34:46,14,22.092,9047.057586,63.31988392,6.490011653,41.3549882,283.3,0,0,1024,1024,1024,1024,0,0,66,3.663,3.7,3.684,3.686,0,0,17,Joystick,
37.613315,-119.021006,9042.797744,59.06004126,5.160016606,7.271292884,32710,2017/07/27 21:34:46,14,22.092,9047.057586,63.31988392,6.490011653,41.3549882,283.4,0,0,1024,1024,1024,1024,0,0,66,3.663,3.7,3.684,3.686,0,0,17,Joystick,
37.613315,-119.021009,9042.797744,59.06004126,5.160016606,6.790124889,32830,2017/07/27 21:34:46,14,22.092,9047.057586,63.31988392,6.490011653,41.3549882,283.7,0,0,1024,1024,1024,1024,0,0,66,3.663,3.7,3.684,3.686,0,0,17,Joystick,
37.613315,-119.021014,9043.117626,59.37992316,5.160016606,6.178215421,32990,2017/07/27 21:34:46,14,22.125,9047.057586,63.31988392,6.490011653,41.3549882,284.6,0,0,1024,1024,1024,1024,0,0,66,3.663,3.7,3.684,3.686,0,0,17,Joystick,
37.613314,-119.021017,9043.447678,59.70997566,5.150017484,6.30925217,33160,2017/07/27 21:34:46,14,22.125,9047.057586,63.31988392,6.490011653,41.3549882,285.1,0,0,1024,1024,1024,1024,0,0,66,3.663,3.7,3.684,3.686,0,0,17,Joystick,
37.613314,-119.021023,9043.777731,60.04002817,4.930014435,6.229330908,33260,2017/07/27 21:34:46,14,22.125,9047.057586,63.31988392,6.490011653,41.3549882,285.9,0,0,1024,1024,1024,1024,0,0,66,3.663,3.7,3.684,3.686,0,0,17,Joystick,
37.613314,-119.021025,9043.777731,60.04002817,4.930014435,6.30925217,33460,2017/07/27 21:34:46,14,22.125,9047.057586,63.31988392,6.490011653,41.3549882,286.2,0,0,1024,1024,1024,1024,0,0,66,3.663,3.7,3.684,3.686,0,0,17,Joystick,
37.613313,-119.02103,9044.107783,60.37008067,4.700012265,7.06364852,33560,2017/07/27 21:34:47,14,22.125,9047.057586,63.31988392,6.490011653,41.3549882,287,0,0,1024,1024,1024,1024,0,0,66,3.663,3.7,3.684,3.686,0,0,17,Joystick,
37.613313,-119.021035,9044.107783,60.37008067,4.700012265,7.713681349,33770,2017/07/27 21:34:47,14,22.125,9047.057586,63.31988392,6.490011653,41.3549882,288,0,0,1024,1024,1024,1024,0,0,66,3.663,3.7,3.684,3.686,0,0,17,Joystick,
37.613313,-119.021038,9044.107783,60.37008067,4.480009216,8.201771916,33890,2017/07/27 21:34:47,14,22.125,9047.057586,63.31988392,6.490011653,41.3549882,288.7,0,0,1024,1024,1024,1024,0,0,66,3.663,3.7,3.684,3.686,0,0,17,Joystick,
37.613312,-119.02104,9044.107783,60.37008067,4.500007459,8.843569837,34000,2017/07/27 21:34:47,14,22.294,9047.057586,63.31988392,6.490011653,41.3549882,289.4,0,0,1024,1024,1024,1024,0,0,65,3.663,3.7,3.684,3.686,0,0,17,Joystick,
37.613312,-119.021042,9044.107783,60.37008067,4.500007459,9.213648589,34110,2017/07/27 21:34:47,14,22.294,9047.057586,63.31988392,6.490011653,41.3549882,290,0,0,1024,1024,1024,1024,0,0,65,3.663,3.7,3.684,3.686,0,0,17,Joystick,
37.613311,-119.021045,9044.107783,60.37008067,4.500007459,10.06771686,34260,2017/07/27 21:34:47,14,22.294,9047.057586,63.31988392,6.490011653,41.3549882,290.6,0,0,1024,1024,1024,1024,0,0,65,3.663,3.7,3.684,3.686,0,0,17,Joystick,
37.613311,-119.021047,9044.437836,60.70013318,4.300002654,10.47434417,34360,2017/07/27 21:34:47,14,22.294,9047.057586,63.31988392,6.490011653,41.3549882,291.1,0,0,1024,1024,1024,1024,0,0,65,3.663,3.7,3.684,3.686,0,0,17,Joystick,
37.61331,-119.021049,9044.757718,61.02001508,4.300002654,11.14409484,34460,2017/07/27 21:34:47,14,22.294,9047.057586,63.31988392,6.490011653,41.3549882,291.6,0,0,1024,1024,1024,1024,0,0,65,3.663,3.7,3.684,3.686,0,0,17,Joystick,
37.61331,-119.021053,9044.757718,61.02001508,4.079999605,12.00990852,34620,2017/07/27 21:34:48,14,22.294,9047.057586,63.31988392,6.490011653,41.3549882,292.5,0,0,1024,1024,1024,1024,0,0,65,3.663,3.7,3.684,3.686,0,0,17,Joystick,
37.613309,-119.021058,9045.08777,61.35006758,4.050002239,13.37083376,34790,2017/07/27 21:34:48,14,22.294,9047.057586,63.31988392,6.490011653,41.3549882,293.3,0,0,1024,1024,1024,1024,0,0,65,3.663,3.7,3.684,3.686,0,0,17,Joystick,
